{"06-16_20-21": {"response": {"version": "0.1", "termsofService": "http://www.wunderground.com/weather/api/d/terms.html", "features": {"forecast": 1, "geolookup": 1, "conditions": 1}}, "location": {"type": "CITY", "country": "US", "country_iso3166": "US", "country_name": "USA", "state": "MA", "city": "Boston", "tz_short": "EDT", "tz_long": "America/New_York", "lat": "42.36000061", "lon": "-71.06999969", "zip": "02108", "magic": "1", "wmo": "99999", "l": "/q/zmw:02108.1.99999", "requesturl": "US/MA/Boston.html", "wuiurl": "https://www.wunderground.com/US/MA/Boston.html", "nearby_weather_stations": {"airport": {"station": [{"city": "Boston", "state": "MA", "country": "US", "icao": "KBOS", "lat": "42.36000061", "lon": "-71.00000000"}, {"city": "East Milton", "state": "MA", "country": "US", "icao": "KMQE", "lat": "42.20999908", "lon": "-71.11000061"}, {"city": "Norwood", "state": "MA", "country": "US", "icao": "KOWD", "lat": "42.18999863", "lon": "-71.16999817"}, {"city": "Bedford", "state": "MA", "country": "US", "icao": "KBED", "lat": "42.47000122", "lon": "-71.29000092"}]}, "pws": {"station": [{"neighborhood": "Beacon Hill", "city": "Cambridge", "state": "MA", "country": "US", "id": "KMACAMBR41", "lat": 42.357903, "lon": -71.070343, "distance_km": 0, "distance_mi": 0}, {"neighborhood": "Downtown", "city": "Boston", "state": "MA", "country": "US", "id": "KMABOSTO116", "lat": 42.360081, "lon": -71.058884, "distance_km": 0, "distance_mi": 0}, {"neighborhood": "Boston", "city": "Boston", "state": "MA", "country": "US", "id": "KMABOSTO270", "lat": 42.358707, "lon": -71.058456, "distance_km": 0, "distance_mi": 0}, {"neighborhood": "North End", "city": "Boston", "state": "MA", "country": "US", "id": "KMABOSTO100", "lat": 42.368164, "lon": -71.057655, "distance_km": 1, "distance_mi": 0}, {"neighborhood": "East Cambridge", "city": "Cambridge", "state": "MA", "country": "US", "id": "KMACAMBR94", "lat": 42.366394, "lon": -71.084282, "distance_km": 1, "distance_mi": 0}, {"neighborhood": "Boston", "city": "Boston", "state": "MA", "country": "US", "id": "KMABOSTO259", "lat": 42.350739, "lon": -71.057808, "distance_km": 1, "distance_mi": 0}, {"neighborhood": "south end", "city": "Boston", "state": "MA", "country": "US", "id": "KMABOSTO197", "lat": 42.346802, "lon": -71.071365, "distance_km": 1, "distance_mi": 0}, {"neighborhood": "MIT (Green Bld Roof)", "city": "Cambridge", "state": "MA", "country": "US", "id": "KMACAMBR9", "lat": 42.360298, "lon": -71.089401, "distance_km": 1, "distance_mi": 0}, {"neighborhood": "North End waterfront Boston-Clark's Wharf", "city": "Boston", "state": "MA", "country": "US", "id": "KMABOSTO124", "lat": 42.365311, "lon": -71.051521, "distance_km": 1, "distance_mi": 0}, {"neighborhood": "Downtown", "city": "Boston", "state": "MA", "country": "US", "id": "KMABOSTO49", "lat": 42.358009, "lon": -71.049797, "distance_km": 1, "distance_mi": 1}, {"neighborhood": "Columbus", "city": "Boston", "state": "MA", "country": "US", "id": "KMABOSTO106", "lat": 42.345158, "lon": -71.077545, "distance_km": 1, "distance_mi": 1}, {"neighborhood": "Charlestown", "city": "Boston", "state": "MA", "country": "US", "id": "KMABOSTO192", "lat": 42.374889, "lon": -71.061287, "distance_km": 1, "distance_mi": 1}, {"neighborhood": "Charlestown", "city": "Boston", "state": "MA", "country": "US", "id": "KMABOSTO46", "lat": 42.37542, "lon": -71.061478, "distance_km": 1, "distance_mi": 1}, {"neighborhood": "Boston - South End", "city": "Boston", "state": "MA", "country": "US", "id": "KMABOSTO22", "lat": 42.342987, "lon": -71.066826, "distance_km": 1, "distance_mi": 1}, {"neighborhood": "South End", "city": "Boston", "state": "MA", "country": "US", "id": "KMABOSTO279", "lat": 42.341648, "lon": -71.069443, "distance_km": 2, "distance_mi": 1}, {"neighborhood": "Back Bay West", "city": "Cambridge", "state": "MA", "country": "US", "id": "KMACAMBR25", "lat": 42.35004, "lon": -71.091385, "distance_km": 2, "distance_mi": 1}, {"neighborhood": "South Boston", "city": "Boston", "state": "MA", "country": "US", "id": "KMABOSTO35", "lat": 42.343105, "lon": -71.058197, "distance_km": 2, "distance_mi": 1}, {"neighborhood": "Charlestown", "city": "Charlestown", "state": "MA", "country": "US", "id": "KMACHARL15", "lat": 42.38023, "lon": -71.06871, "distance_km": 2, "distance_mi": 1}, {"neighborhood": "Area IV", "city": "Cambridge", "state": "MA", "country": "US", "id": "KMACAMBR47", "lat": 42.363949, "lon": -71.099426, "distance_km": 2, "distance_mi": 1}, {"neighborhood": "Boston", "city": "Boston", "state": "MA", "country": "US", "id": "KMABOSTO277", "lat": 42.340935, "lon": -71.052971, "distance_km": 2, "distance_mi": 1}, {"neighborhood": "Boston", "city": "Boston", "state": "MA", "country": "US", "id": "KMABOSTO257", "lat": 42.337036, "lon": -71.073914, "distance_km": 2, "distance_mi": 1}, {"neighborhood": "Cambridge", "city": "Cambridgeport", "state": "MA", "country": "US", "id": "KMACAMBR111", "lat": 42.363483, "lon": -71.101807, "distance_km": 2, "distance_mi": 1}, {"neighborhood": "Prospect Hill", "city": "Somerville", "state": "MA", "country": "US", "id": "KMASOMER42", "lat": 42.379536, "lon": -71.092232, "distance_km": 2, "distance_mi": 1}]}}}, "current_observation": {"image": {"url": "http://icons.wxug.com/graphics/wu2/logo_130x80.png", "title": "Weather Underground", "link": "http://www.wunderground.com"}, "display_location": {"full": "Boston, MA", "city": "Boston", "state": "MA", "state_name": "Massachusetts", "country": "US", "country_iso3166": "US", "zip": "02108", "magic": "1", "wmo": "99999", "latitude": "42.36000061", "longitude": "-71.06999969", "elevation": "21.9"}, "observation_location": {"full": "south end, Boston, Massachusetts", "city": "south end, Boston", "state": "Massachusetts", "country": "US", "country_iso3166": "US", "latitude": "42.346802", "longitude": "-71.071365", "elevation": "46 ft"}, "estimated": {}, "station_id": "KMABOSTO197", "observation_time": "Last Updated on June 16, 4:19 PM EDT", "observation_time_rfc822": "Fri, 16 Jun 2017 16:19:50 -0400", "observation_epoch": "1497644390", "local_time_rfc822": "Fri, 16 Jun 2017 16:19:59 -0400", "local_epoch": "1497644399", "local_tz_short": "EDT", "local_tz_long": "America/New_York", "local_tz_offset": "-0400", "weather": "Rain", "temperature_string": "68.2 F (20.1 C)", "temp_f": 68.2, "temp_c": 20.1, "relative_humidity": "65%", "wind_string": "Calm", "wind_dir": "South", "wind_degrees": 169, "wind_mph": 0.0, "wind_gust_mph": 0, "wind_kph": 0, "wind_gust_kph": 0, "pressure_mb": "1017", "pressure_in": "30.05", "pressure_trend": "0", "dewpoint_string": "56 F (13 C)", "dewpoint_f": 56, "dewpoint_c": 13, "heat_index_string": "NA", "heat_index_f": "NA", "heat_index_c": "NA", "windchill_string": "NA", "windchill_f": "NA", "windchill_c": "NA", "feelslike_string": "68.2 F (20.1 C)", "feelslike_f": "68.2", "feelslike_c": "20.1", "visibility_mi": "10.0", "visibility_km": "16.1", "solarradiation": "84", "UV": "1.0", "precip_1hr_string": "0.14 in ( 4 mm)", "precip_1hr_in": "0.14", "precip_1hr_metric": " 4", "precip_today_string": "0.02 in (1 mm)", "precip_today_in": "0.02", "precip_today_metric": "1", "icon": "rain", "icon_url": "http://icons.wxug.com/i/c/k/rain.gif", "forecast_url": "http://www.wunderground.com/US/MA/Boston.html", "history_url": "http://www.wunderground.com/weatherstation/WXDailyHistory.asp?ID=KMABOSTO197", "ob_url": "http://www.wunderground.com/cgi-bin/findweather/getForecast?query=42.346802,-71.071365", "nowcast": ""}, "forecast": {"txt_forecast": {"date": "3:34 PM EDT", "forecastday": [{"period": 0, "icon": "rain", "icon_url": "http://icons.wxug.com/i/c/k/rain.gif", "title": "Friday", "fcttext": "Rain with a few rumbles of thunder. Lows overnight in the low 60s.", "fcttext_metric": "Rain with a few rumbles of thunder. Low 16C.", "pop": "90"}, {"period": 1, "icon": "nt_rain", "icon_url": "http://icons.wxug.com/i/c/k/nt_rain.gif", "title": "Friday Night", "fcttext": "Rain and scattered thunderstorms overnight. Low around 60F. Winds SE at 10 to 20 mph. Chance of rain 90%.", "fcttext_metric": "Rain and scattered thunderstorms overnight. Low 16C. Winds SE at 15 to 25 km/h. Chance of rain 80%.", "pop": "90"}, {"period": 2, "icon": "chancerain", "icon_url": "http://icons.wxug.com/i/c/k/chancerain.gif", "title": "Saturday", "fcttext": "Rain showers early with overcast skies later in the day. High 74F. Winds E at 10 to 15 mph. Chance of rain 40%.", "fcttext_metric": "Rain showers early with overcast skies later in the day. High 24C. Winds E at 10 to 15 km/h. Chance of rain 40%.", "pop": "40"}, {"period": 3, "icon": "nt_mostlycloudy", "icon_url": "http://icons.wxug.com/i/c/k/nt_mostlycloudy.gif", "title": "Saturday Night", "fcttext": "Partly cloudy during the evening followed by cloudy skies overnight. Low 68F. Winds SSW at 10 to 15 mph.", "fcttext_metric": "Partly cloudy during the evening followed by cloudy skies overnight. Low near 20C. Winds SSW at 10 to 15 km/h.", "pop": "10"}, {"period": 4, "icon": "partlycloudy", "icon_url": "http://icons.wxug.com/i/c/k/partlycloudy.gif", "title": "Sunday", "fcttext": "Cloudy with gusty winds developing during the afternoon. High 82F. Winds SSW at 20 to 30 mph.", "fcttext_metric": "Cloudy with gusty winds developing during the afternoon. High 28C. Winds SSW at 25 to 40 km/h.", "pop": "10"}, {"period": 5, "icon": "nt_partlycloudy", "icon_url": "http://icons.wxug.com/i/c/k/nt_partlycloudy.gif", "title": "Sunday Night", "fcttext": "Partly cloudy early with increasing clouds overnight. Low around 70F. Winds SSW at 15 to 25 mph.", "fcttext_metric": "Partly cloudy skies during the evening will give way to cloudy skies overnight. Low 21C. Winds SSW at 25 to 40 km/h.", "pop": "20"}, {"period": 6, "icon": "partlycloudy", "icon_url": "http://icons.wxug.com/i/c/k/partlycloudy.gif", "title": "Monday", "fcttext": "Cloudy skies early, then partly cloudy in the afternoon. A stray shower or thunderstorm is possible. High 83F. Winds SSW at 15 to 25 mph.", "fcttext_metric": "Cloudy skies early, followed by partial clearing. A stray shower or thunderstorm is possible. High 29C. Winds SSW at 25 to 40 km/h.", "pop": "20"}, {"period": 7, "icon": "nt_tstorms", "icon_url": "http://icons.wxug.com/i/c/k/nt_tstorms.gif", "title": "Monday Night", "fcttext": "Cloudy in the evening with scattered thunderstorms developing after midnight. Low near 70F. Winds SSW at 15 to 25 mph. Chance of rain 60%.", "fcttext_metric": "Scattered thunderstorms developing overnight. Low 21C. Winds SSW at 25 to 40 km/h. Chance of rain 60%.", "pop": "60"}]}, "simpleforecast": {"forecastday": [{"date": {"epoch": "1497654000", "pretty": "7:00 PM EDT on June 16, 2017", "day": 16, "month": 6, "year": 2017, "yday": 166, "hour": 19, "min": "00", "sec": 0, "isdst": "1", "monthname": "June", "monthname_short": "Jun", "weekday_short": "Fri", "weekday": "Friday", "ampm": "PM", "tz_short": "EDT", "tz_long": "America/New_York"}, "period": 1, "high": {"fahrenheit": "75", "celsius": "24"}, "low": {"fahrenheit": "60", "celsius": "16"}, "conditions": "Rain", "icon": "rain", "icon_url": "http://icons.wxug.com/i/c/k/rain.gif", "skyicon": "", "pop": 90, "qpf_allday": {"in": 0.43, "mm": 11}, "qpf_day": {"in": null, "mm": null}, "qpf_night": {"in": 0.33, "mm": 8}, "snow_allday": {"in": 0.0, "cm": 0.0}, "snow_day": {"in": null, "cm": null}, "snow_night": {"in": 0.0, "cm": 0.0}, "maxwind": {"mph": 17, "kph": 28, "dir": "", "degrees": 0}, "avewind": {"mph": 3, "kph": 5, "dir": "SSW", "degrees": 206}, "avehumidity": 93, "maxhumidity": 0, "minhumidity": 0}, {"date": {"epoch": "1497740400", "pretty": "7:00 PM EDT on June 17, 2017", "day": 17, "month": 6, "year": 2017, "yday": 167, "hour": 19, "min": "00", "sec": 0, "isdst": "1", "monthname": "June", "monthname_short": "Jun", "weekday_short": "Sat", "weekday": "Saturday", "ampm": "PM", "tz_short": "EDT", "tz_long": "America/New_York"}, "period": 2, "high": {"fahrenheit": "74", "celsius": "23"}, "low": {"fahrenheit": "68", "celsius": "20"}, "conditions": "Chance of Rain", "icon": "chancerain", "icon_url": "http://icons.wxug.com/i/c/k/chancerain.gif", "skyicon": "", "pop": 40, "qpf_allday": {"in": 0.03, "mm": 1}, "qpf_day": {"in": 0.03, "mm": 1}, "qpf_night": {"in": 0.0, "mm": 0}, "snow_allday": {"in": 0.0, "cm": 0.0}, "snow_day": {"in": 0.0, "cm": 0.0}, "snow_night": {"in": 0.0, "cm": 0.0}, "maxwind": {"mph": 15, "kph": 24, "dir": "E", "degrees": 92}, "avewind": {"mph": 10, "kph": 16, "dir": "E", "degrees": 92}, "avehumidity": 84, "maxhumidity": 0, "minhumidity": 0}, {"date": {"epoch": "1497826800", "pretty": "7:00 PM EDT on June 18, 2017", "day": 18, "month": 6, "year": 2017, "yday": 168, "hour": 19, "min": "00", "sec": 0, "isdst": "1", "monthname": "June", "monthname_short": "Jun", "weekday_short": "Sun", "weekday": "Sunday", "ampm": "PM", "tz_short": "EDT", "tz_long": "America/New_York"}, "period": 3, "high": {"fahrenheit": "82", "celsius": "28"}, "low": {"fahrenheit": "70", "celsius": "21"}, "conditions": "Partly Cloudy", "icon": "partlycloudy", "icon_url": "http://icons.wxug.com/i/c/k/partlycloudy.gif", "skyicon": "", "pop": 10, "qpf_allday": {"in": 0.0, "mm": 0}, "qpf_day": {"in": 0.0, "mm": 0}, "qpf_night": {"in": 0.0, "mm": 0}, "snow_allday": {"in": 0.0, "cm": 0.0}, "snow_day": {"in": 0.0, "cm": 0.0}, "snow_night": {"in": 0.0, "cm": 0.0}, "maxwind": {"mph": 30, "kph": 48, "dir": "SSW", "degrees": 200}, "avewind": {"mph": 20, "kph": 32, "dir": "SSW", "degrees": 200}, "avehumidity": 76, "maxhumidity": 0, "minhumidity": 0}, {"date": {"epoch": "1497913200", "pretty": "7:00 PM EDT on June 19, 2017", "day": 19, "month": 6, "year": 2017, "yday": 169, "hour": 19, "min": "00", "sec": 0, "isdst": "1", "monthname": "June", "monthname_short": "Jun", "weekday_short": "Mon", "weekday": "Monday", "ampm": "PM", "tz_short": "EDT", "tz_long": "America/New_York"}, "period": 4, "high": {"fahrenheit": "83", "celsius": "28"}, "low": {"fahrenheit": "70", "celsius": "21"}, "conditions": "Partly Cloudy", "icon": "partlycloudy", "icon_url": "http://icons.wxug.com/i/c/k/partlycloudy.gif", "skyicon": "", "pop": 20, "qpf_allday": {"in": 0.05, "mm": 1}, "qpf_day": {"in": 0.0, "mm": 0}, "qpf_night": {"in": 0.05, "mm": 1}, "snow_allday": {"in": 0.0, "cm": 0.0}, "snow_day": {"in": 0.0, "cm": 0.0}, "snow_night": {"in": 0.0, "cm": 0.0}, "maxwind": {"mph": 25, "kph": 40, "dir": "SSW", "degrees": 200}, "avewind": {"mph": 19, "kph": 31, "dir": "SSW", "degrees": 200}, "avehumidity": 72, "maxhumidity": 0, "minhumidity": 0}]}}}, "06-16_20-22": {"response": {"version": "0.1", "termsofService": "http://www.wunderground.com/weather/api/d/terms.html", "features": {"forecast": 1, "geolookup": 1, "conditions": 1}}, "location": {"type": "CITY", "country": "US", "country_iso3166": "US", "country_name": "USA", "state": "MA", "city": "Boston", "tz_short": "EDT", "tz_long": "America/New_York", "lat": "42.36000061", "lon": "-71.06999969", "zip": "02108", "magic": "1", "wmo": "99999", "l": "/q/zmw:02108.1.99999", "requesturl": "US/MA/Boston.html", "wuiurl": "https://www.wunderground.com/US/MA/Boston.html", "nearby_weather_stations": {"airport": {"station": [{"city": "Boston", "state": "MA", "country": "US", "icao": "KBOS", "lat": "42.36000061", "lon": "-71.00000000"}, {"city": "East Milton", "state": "MA", "country": "US", "icao": "KMQE", "lat": "42.20999908", "lon": "-71.11000061"}, {"city": "Norwood", "state": "MA", "country": "US", "icao": "KOWD", "lat": "42.18999863", "lon": "-71.16999817"}, {"city": "Bedford", "state": "MA", "country": "US", "icao": "KBED", "lat": "42.47000122", "lon": "-71.29000092"}]}, "pws": {"station": [{"neighborhood": "Beacon Hill", "city": "Cambridge", "state": "MA", "country": "US", "id": "KMACAMBR41", "lat": 42.357903, "lon": -71.070343, "distance_km": 0, "distance_mi": 0}, {"neighborhood": "Downtown", "city": "Boston", "state": "MA", "country": "US", "id": "KMABOSTO116", "lat": 42.360081, "lon": -71.058884, "distance_km": 0, "distance_mi": 0}, {"neighborhood": "Boston", "city": "Boston", "state": "MA", "country": "US", "id": "KMABOSTO270", "lat": 42.358707, "lon": -71.058456, "distance_km": 0, "distance_mi": 0}, {"neighborhood": "North End", "city": "Boston", "state": "MA", "country": "US", "id": "KMABOSTO100", "lat": 42.368164, "lon": -71.057655, "distance_km": 1, "distance_mi": 0}, {"neighborhood": "East Cambridge", "city": "Cambridge", "state": "MA", "country": "US", "id": "KMACAMBR94", "lat": 42.366394, "lon": -71.084282, "distance_km": 1, "distance_mi": 0}, {"neighborhood": "Boston", "city": "Boston", "state": "MA", "country": "US", "id": "KMABOSTO259", "lat": 42.350739, "lon": -71.057808, "distance_km": 1, "distance_mi": 0}, {"neighborhood": "south end", "city": "Boston", "state": "MA", "country": "US", "id": "KMABOSTO197", "lat": 42.346802, "lon": -71.071365, "distance_km": 1, "distance_mi": 0}, {"neighborhood": "MIT (Green Bld Roof)", "city": "Cambridge", "state": "MA", "country": "US", "id": "KMACAMBR9", "lat": 42.360298, "lon": -71.089401, "distance_km": 1, "distance_mi": 0}, {"neighborhood": "North End waterfront Boston-Clark's Wharf", "city": "Boston", "state": "MA", "country": "US", "id": "KMABOSTO124", "lat": 42.365311, "lon": -71.051521, "distance_km": 1, "distance_mi": 0}, {"neighborhood": "Downtown", "city": "Boston", "state": "MA", "country": "US", "id": "KMABOSTO49", "lat": 42.358009, "lon": -71.049797, "distance_km": 1, "distance_mi": 1}, {"neighborhood": "Columbus", "city": "Boston", "state": "MA", "country": "US", "id": "KMABOSTO106", "lat": 42.345158, "lon": -71.077545, "distance_km": 1, "distance_mi": 1}, {"neighborhood": "Charlestown", "city": "Boston", "state": "MA", "country": "US", "id": "KMABOSTO192", "lat": 42.374889, "lon": -71.061287, "distance_km": 1, "distance_mi": 1}, {"neighborhood": "Charlestown", "city": "Boston", "state": "MA", "country": "US", "id": "KMABOSTO46", "lat": 42.37542, "lon": -71.061478, "distance_km": 1, "distance_mi": 1}, {"neighborhood": "Boston - South End", "city": "Boston", "state": "MA", "country": "US", "id": "KMABOSTO22", "lat": 42.342987, "lon": -71.066826, "distance_km": 1, "distance_mi": 1}, {"neighborhood": "South End", "city": "Boston", "state": "MA", "country": "US", "id": "KMABOSTO279", "lat": 42.341648, "lon": -71.069443, "distance_km": 2, "distance_mi": 1}, {"neighborhood": "Back Bay West", "city": "Cambridge", "state": "MA", "country": "US", "id": "KMACAMBR25", "lat": 42.35004, "lon": -71.091385, "distance_km": 2, "distance_mi": 1}, {"neighborhood": "South Boston", "city": "Boston", "state": "MA", "country": "US", "id": "KMABOSTO35", "lat": 42.343105, "lon": -71.058197, "distance_km": 2, "distance_mi": 1}, {"neighborhood": "Charlestown", "city": "Charlestown", "state": "MA", "country": "US", "id": "KMACHARL15", "lat": 42.38023, "lon": -71.06871, "distance_km": 2, "distance_mi": 1}, {"neighborhood": "Area IV", "city": "Cambridge", "state": "MA", "country": "US", "id": "KMACAMBR47", "lat": 42.363949, "lon": -71.099426, "distance_km": 2, "distance_mi": 1}, {"neighborhood": "Boston", "city": "Boston", "state": "MA", "country": "US", "id": "KMABOSTO277", "lat": 42.340935, "lon": -71.052971, "distance_km": 2, "distance_mi": 1}, {"neighborhood": "Boston", "city": "Boston", "state": "MA", "country": "US", "id": "KMABOSTO257", "lat": 42.337036, "lon": -71.073914, "distance_km": 2, "distance_mi": 1}, {"neighborhood": "Cambridge", "city": "Cambridgeport", "state": "MA", "country": "US", "id": "KMACAMBR111", "lat": 42.363483, "lon": -71.101807, "distance_km": 2, "distance_mi": 1}, {"neighborhood": "Prospect Hill", "city": "Somerville", "state": "MA", "country": "US", "id": "KMASOMER42", "lat": 42.379536, "lon": -71.092232, "distance_km": 2, "distance_mi": 1}]}}}, "current_observation": {"image": {"url": "http://icons.wxug.com/graphics/wu2/logo_130x80.png", "title": "Weather Underground", "link": "http://www.wunderground.com"}, "display_location": {"full": "Boston, MA", "city": "Boston", "state": "MA", "state_name": "Massachusetts", "country": "US", "country_iso3166": "US", "zip": "02108", "magic": "1", "wmo": "99999", "latitude": "42.36000061", "longitude": "-71.06999969", "elevation": "21.9"}, "observation_location": {"full": "south end, Boston, Massachusetts", "city": "south end, Boston", "state": "Massachusetts", "country": "US", "country_iso3166": "US", "latitude": "42.346802", "longitude": "-71.071365", "elevation": "46 ft"}, "estimated": {}, "station_id": "KMABOSTO197", "observation_time": "Last Updated on June 16, 4:19 PM EDT", "observation_time_rfc822": "Fri, 16 Jun 2017 16:19:50 -0400", "observation_epoch": "1497644390", "local_time_rfc822": "Fri, 16 Jun 2017 16:19:59 -0400", "local_epoch": "1497644399", "local_tz_short": "EDT", "local_tz_long": "America/New_York", "local_tz_offset": "-0400", "weather": "Rain", "temperature_string": "68.2 F (20.1 C)", "temp_f": 68.2, "temp_c": 20.1, "relative_humidity": "65%", "wind_string": "Calm", "wind_dir": "South", "wind_degrees": 169, "wind_mph": 0.0, "wind_gust_mph": 0, "wind_kph": 0, "wind_gust_kph": 0, "pressure_mb": "1017", "pressure_in": "30.05", "pressure_trend": "0", "dewpoint_string": "56 F (13 C)", "dewpoint_f": 56, "dewpoint_c": 13, "heat_index_string": "NA", "heat_index_f": "NA", "heat_index_c": "NA", "windchill_string": "NA", "windchill_f": "NA", "windchill_c": "NA", "feelslike_string": "68.2 F (20.1 C)", "feelslike_f": "68.2", "feelslike_c": "20.1", "visibility_mi": "10.0", "visibility_km": "16.1", "solarradiation": "84", "UV": "1.0", "precip_1hr_string": "0.14 in ( 4 mm)", "precip_1hr_in": "0.14", "precip_1hr_metric": " 4", "precip_today_string": "0.02 in (1 mm)", "precip_today_in": "0.02", "precip_today_metric": "1", "icon": "rain", "icon_url": "http://icons.wxug.com/i/c/k/rain.gif", "forecast_url": "http://www.wunderground.com/US/MA/Boston.html", "history_url": "http://www.wunderground.com/weatherstation/WXDailyHistory.asp?ID=KMABOSTO197", "ob_url": "http://www.wunderground.com/cgi-bin/findweather/getForecast?query=42.346802,-71.071365", "nowcast": ""}, "forecast": {"txt_forecast": {"date": "3:34 PM EDT", "forecastday": [{"period": 0, "icon": "rain", "icon_url": "http://icons.wxug.com/i/c/k/rain.gif", "title": "Friday", "fcttext": "Rain with a few rumbles of thunder. Lows overnight in the low 60s.", "fcttext_metric": "Rain with a few rumbles of thunder. Low 16C.", "pop": "90"}, {"period": 1, "icon": "nt_rain", "icon_url": "http://icons.wxug.com/i/c/k/nt_rain.gif", "title": "Friday Night", "fcttext": "Rain and scattered thunderstorms overnight. Low around 60F. Winds SE at 10 to 20 mph. Chance of rain 90%.", "fcttext_metric": "Rain and scattered thunderstorms overnight. Low 16C. Winds SE at 15 to 25 km/h. Chance of rain 80%.", "pop": "90"}, {"period": 2, "icon": "chancerain", "icon_url": "http://icons.wxug.com/i/c/k/chancerain.gif", "title": "Saturday", "fcttext": "Rain showers early with overcast skies later in the day. High 74F. Winds E at 10 to 15 mph. Chance of rain 40%.", "fcttext_metric": "Rain showers early with overcast skies later in the day. High 24C. Winds E at 10 to 15 km/h. Chance of rain 40%.", "pop": "40"}, {"period": 3, "icon": "nt_mostlycloudy", "icon_url": "http://icons.wxug.com/i/c/k/nt_mostlycloudy.gif", "title": "Saturday Night", "fcttext": "Partly cloudy during the evening followed by cloudy skies overnight. Low 68F. Winds SSW at 10 to 15 mph.", "fcttext_metric": "Partly cloudy during the evening followed by cloudy skies overnight. Low near 20C. Winds SSW at 10 to 15 km/h.", "pop": "10"}, {"period": 4, "icon": "partlycloudy", "icon_url": "http://icons.wxug.com/i/c/k/partlycloudy.gif", "title": "Sunday", "fcttext": "Cloudy with gusty winds developing during the afternoon. High 82F. Winds SSW at 20 to 30 mph.", "fcttext_metric": "Cloudy with gusty winds developing during the afternoon. High 28C. Winds SSW at 25 to 40 km/h.", "pop": "10"}, {"period": 5, "icon": "nt_partlycloudy", "icon_url": "http://icons.wxug.com/i/c/k/nt_partlycloudy.gif", "title": "Sunday Night", "fcttext": "Partly cloudy early with increasing clouds overnight. Low around 70F. Winds SSW at 15 to 25 mph.", "fcttext_metric": "Partly cloudy skies during the evening will give way to cloudy skies overnight. Low 21C. Winds SSW at 25 to 40 km/h.", "pop": "20"}, {"period": 6, "icon": "partlycloudy", "icon_url": "http://icons.wxug.com/i/c/k/partlycloudy.gif", "title": "Monday", "fcttext": "Cloudy skies early, then partly cloudy in the afternoon. A stray shower or thunderstorm is possible. High 83F. Winds SSW at 15 to 25 mph.", "fcttext_metric": "Cloudy skies early, followed by partial clearing. A stray shower or thunderstorm is possible. High 29C. Winds SSW at 25 to 40 km/h.", "pop": "20"}, {"period": 7, "icon": "nt_tstorms", "icon_url": "http://icons.wxug.com/i/c/k/nt_tstorms.gif", "title": "Monday Night", "fcttext": "Cloudy in the evening with scattered thunderstorms developing after midnight. Low near 70F. Winds SSW at 15 to 25 mph. Chance of rain 60%.", "fcttext_metric": "Scattered thunderstorms developing overnight. Low 21C. Winds SSW at 25 to 40 km/h. Chance of rain 60%.", "pop": "60"}]}, "simpleforecast": {"forecastday": [{"date": {"epoch": "1497654000", "pretty": "7:00 PM EDT on June 16, 2017", "day": 16, "month": 6, "year": 2017, "yday": 166, "hour": 19, "min": "00", "sec": 0, "isdst": "1", "monthname": "June", "monthname_short": "Jun", "weekday_short": "Fri", "weekday": "Friday", "ampm": "PM", "tz_short": "EDT", "tz_long": "America/New_York"}, "period": 1, "high": {"fahrenheit": "75", "celsius": "24"}, "low": {"fahrenheit": "60", "celsius": "16"}, "conditions": "Rain", "icon": "rain", "icon_url": "http://icons.wxug.com/i/c/k/rain.gif", "skyicon": "", "pop": 90, "qpf_allday": {"in": 0.43, "mm": 11}, "qpf_day": {"in": null, "mm": null}, "qpf_night": {"in": 0.33, "mm": 8}, "snow_allday": {"in": 0.0, "cm": 0.0}, "snow_day": {"in": null, "cm": null}, "snow_night": {"in": 0.0, "cm": 0.0}, "maxwind": {"mph": 17, "kph": 28, "dir": "", "degrees": 0}, "avewind": {"mph": 3, "kph": 5, "dir": "SSW", "degrees": 206}, "avehumidity": 93, "maxhumidity": 0, "minhumidity": 0}, {"date": {"epoch": "1497740400", "pretty": "7:00 PM EDT on June 17, 2017", "day": 17, "month": 6, "year": 2017, "yday": 167, "hour": 19, "min": "00", "sec": 0, "isdst": "1", "monthname": "June", "monthname_short": "Jun", "weekday_short": "Sat", "weekday": "Saturday", "ampm": "PM", "tz_short": "EDT", "tz_long": "America/New_York"}, "period": 2, "high": {"fahrenheit": "74", "celsius": "23"}, "low": {"fahrenheit": "68", "celsius": "20"}, "conditions": "Chance of Rain", "icon": "chancerain", "icon_url": "http://icons.wxug.com/i/c/k/chancerain.gif", "skyicon": "", "pop": 40, "qpf_allday": {"in": 0.03, "mm": 1}, "qpf_day": {"in": 0.03, "mm": 1}, "qpf_night": {"in": 0.0, "mm": 0}, "snow_allday": {"in": 0.0, "cm": 0.0}, "snow_day": {"in": 0.0, "cm": 0.0}, "snow_night": {"in": 0.0, "cm": 0.0}, "maxwind": {"mph": 15, "kph": 24, "dir": "E", "degrees": 92}, "avewind": {"mph": 10, "kph": 16, "dir": "E", "degrees": 92}, "avehumidity": 84, "maxhumidity": 0, "minhumidity": 0}, {"date": {"epoch": "1497826800", "pretty": "7:00 PM EDT on June 18, 2017", "day": 18, "month": 6, "year": 2017, "yday": 168, "hour": 19, "min": "00", "sec": 0, "isdst": "1", "monthname": "June", "monthname_short": "Jun", "weekday_short": "Sun", "weekday": "Sunday", "ampm": "PM", "tz_short": "EDT", "tz_long": "America/New_York"}, "period": 3, "high": {"fahrenheit": "82", "celsius": "28"}, "low": {"fahrenheit": "70", "celsius": "21"}, "conditions": "Partly Cloudy", "icon": "partlycloudy", "icon_url": "http://icons.wxug.com/i/c/k/partlycloudy.gif", "skyicon": "", "pop": 10, "qpf_allday": {"in": 0.0, "mm": 0}, "qpf_day": {"in": 0.0, "mm": 0}, "qpf_night": {"in": 0.0, "mm": 0}, "snow_allday": {"in": 0.0, "cm": 0.0}, "snow_day": {"in": 0.0, "cm": 0.0}, "snow_night": {"in": 0.0, "cm": 0.0}, "maxwind": {"mph": 30, "kph": 48, "dir": "SSW", "degrees": 200}, "avewind": {"mph": 20, "kph": 32, "dir": "SSW", "degrees": 200}, "avehumidity": 76, "maxhumidity": 0, "minhumidity": 0}, {"date": {"epoch": "1497913200", "pretty": "7:00 PM EDT on June 19, 2017", "day": 19, "month": 6, "year": 2017, "yday": 169, "hour": 19, "min": "00", "sec": 0, "isdst": "1", "monthname": "June", "monthname_short": "Jun", "weekday_short": "Mon", "weekday": "Monday", "ampm": "PM", "tz_short": "EDT", "tz_long": "America/New_York"}, "period": 4, "high": {"fahrenheit": "83", "celsius": "28"}, "low": {"fahrenheit": "70", "celsius": "21"}, "conditions": "Partly Cloudy", "icon": "partlycloudy", "icon_url": "http://icons.wxug.com/i/c/k/partlycloudy.gif", "skyicon": "", "pop": 20, "qpf_allday": {"in": 0.05, "mm": 1}, "qpf_day": {"in": 0.0, "mm": 0}, "qpf_night": {"in": 0.05, "mm": 1}, "snow_allday": {"in": 0.0, "cm": 0.0}, "snow_day": {"in": 0.0, "cm": 0.0}, "snow_night": {"in": 0.0, "cm": 0.0}, "maxwind": {"mph": 25, "kph": 40, "dir": "SSW", "degrees": 200}, "avewind": {"mph": 19, "kph": 31, "dir": "SSW", "degrees": 200}, "avehumidity": 72, "maxhumidity": 0, "minhumidity": 0}]}}}, "06-16_20-23": {"response": {"version": "0.1", "termsofService": "http://www.wunderground.com/weather/api/d/terms.html", "features": {"forecast": 1, "geolookup": 1, "conditions": 1}}, "location": {"type": "CITY", "country": "US", "country_iso3166": "US", "country_name": "USA", "state": "MA", "city": "Boston", "tz_short": "EDT", "tz_long": "America/New_York", "lat": "42.36000061", "lon": "-71.06999969", "zip": "02108", "magic": "1", "wmo": "99999", "l": "/q/zmw:02108.1.99999", "requesturl": "US/MA/Boston.html", "wuiurl": "https://www.wunderground.com/US/MA/Boston.html", "nearby_weather_stations": {"airport": {"station": [{"city": "Boston", "state": "MA", "country": "US", "icao": "KBOS", "lat": "42.36000061", "lon": "-71.00000000"}, {"city": "East Milton", "state": "MA", "country": "US", "icao": "KMQE", "lat": "42.20999908", "lon": "-71.11000061"}, {"city": "Norwood", "state": "MA", "country": "US", "icao": "KOWD", "lat": "42.18999863", "lon": "-71.16999817"}, {"city": "Bedford", "state": "MA", "country": "US", "icao": "KBED", "lat": "42.47000122", "lon": "-71.29000092"}]}, "pws": {"station": [{"neighborhood": "Beacon Hill", "city": "Cambridge", "state": "MA", "country": "US", "id": "KMACAMBR41", "lat": 42.357903, "lon": -71.070343, "distance_km": 0, "distance_mi": 0}, {"neighborhood": "Downtown", "city": "Boston", "state": "MA", "country": "US", "id": "KMABOSTO116", "lat": 42.360081, "lon": -71.058884, "distance_km": 0, "distance_mi": 0}, {"neighborhood": "Boston", "city": "Boston", "state": "MA", "country": "US", "id": "KMABOSTO270", "lat": 42.358707, "lon": -71.058456, "distance_km": 0, "distance_mi": 0}, {"neighborhood": "North End", "city": "Boston", "state": "MA", "country": "US", "id": "KMABOSTO100", "lat": 42.368164, "lon": -71.057655, "distance_km": 1, "distance_mi": 0}, {"neighborhood": "East Cambridge", "city": "Cambridge", "state": "MA", "country": "US", "id": "KMACAMBR94", "lat": 42.366394, "lon": -71.084282, "distance_km": 1, "distance_mi": 0}, {"neighborhood": "Boston", "city": "Boston", "state": "MA", "country": "US", "id": "KMABOSTO259", "lat": 42.350739, "lon": -71.057808, "distance_km": 1, "distance_mi": 0}, {"neighborhood": "south end", "city": "Boston", "state": "MA", "country": "US", "id": "KMABOSTO197", "lat": 42.346802, "lon": -71.071365, "distance_km": 1, "distance_mi": 0}, {"neighborhood": "MIT (Green Bld Roof)", "city": "Cambridge", "state": "MA", "country": "US", "id": "KMACAMBR9", "lat": 42.360298, "lon": -71.089401, "distance_km": 1, "distance_mi": 0}, {"neighborhood": "North End waterfront Boston-Clark's Wharf", "city": "Boston", "state": "MA", "country": "US", "id": "KMABOSTO124", "lat": 42.365311, "lon": -71.051521, "distance_km": 1, "distance_mi": 0}, {"neighborhood": "Downtown", "city": "Boston", "state": "MA", "country": "US", "id": "KMABOSTO49", "lat": 42.358009, "lon": -71.049797, "distance_km": 1, "distance_mi": 1}, {"neighborhood": "Columbus", "city": "Boston", "state": "MA", "country": "US", "id": "KMABOSTO106", "lat": 42.345158, "lon": -71.077545, "distance_km": 1, "distance_mi": 1}, {"neighborhood": "Charlestown", "city": "Boston", "state": "MA", "country": "US", "id": "KMABOSTO192", "lat": 42.374889, "lon": -71.061287, "distance_km": 1, "distance_mi": 1}, {"neighborhood": "Charlestown", "city": "Boston", "state": "MA", "country": "US", "id": "KMABOSTO46", "lat": 42.37542, "lon": -71.061478, "distance_km": 1, "distance_mi": 1}, {"neighborhood": "Boston - South End", "city": "Boston", "state": "MA", "country": "US", "id": "KMABOSTO22", "lat": 42.342987, "lon": -71.066826, "distance_km": 1, "distance_mi": 1}, {"neighborhood": "South End", "city": "Boston", "state": "MA", "country": "US", "id": "KMABOSTO279", "lat": 42.341648, "lon": -71.069443, "distance_km": 2, "distance_mi": 1}, {"neighborhood": "Back Bay West", "city": "Cambridge", "state": "MA", "country": "US", "id": "KMACAMBR25", "lat": 42.35004, "lon": -71.091385, "distance_km": 2, "distance_mi": 1}, {"neighborhood": "South Boston", "city": "Boston", "state": "MA", "country": "US", "id": "KMABOSTO35", "lat": 42.343105, "lon": -71.058197, "distance_km": 2, "distance_mi": 1}, {"neighborhood": "Charlestown", "city": "Charlestown", "state": "MA", "country": "US", "id": "KMACHARL15", "lat": 42.38023, "lon": -71.06871, "distance_km": 2, "distance_mi": 1}, {"neighborhood": "Area IV", "city": "Cambridge", "state": "MA", "country": "US", "id": "KMACAMBR47", "lat": 42.363949, "lon": -71.099426, "distance_km": 2, "distance_mi": 1}, {"neighborhood": "Boston", "city": "Boston", "state": "MA", "country": "US", "id": "KMABOSTO277", "lat": 42.340935, "lon": -71.052971, "distance_km": 2, "distance_mi": 1}, {"neighborhood": "Boston", "city": "Boston", "state": "MA", "country": "US", "id": "KMABOSTO257", "lat": 42.337036, "lon": -71.073914, "distance_km": 2, "distance_mi": 1}, {"neighborhood": "Cambridge", "city": "Cambridgeport", "state": "MA", "country": "US", "id": "KMACAMBR111", "lat": 42.363483, "lon": -71.101807, "distance_km": 2, "distance_mi": 1}, {"neighborhood": "Prospect Hill", "city": "Somerville", "state": "MA", "country": "US", "id": "KMASOMER42", "lat": 42.379536, "lon": -71.092232, "distance_km": 2, "distance_mi": 1}]}}}, "current_observation": {"image": {"url": "http://icons.wxug.com/graphics/wu2/logo_130x80.png", "title": "Weather Underground", "link": "http://www.wunderground.com"}, "display_location": {"full": "Boston, MA", "city": "Boston", "state": "MA", "state_name": "Massachusetts", "country": "US", "country_iso3166": "US", "zip": "02108", "magic": "1", "wmo": "99999", "latitude": "42.36000061", "longitude": "-71.06999969", "elevation": "21.9"}, "observation_location": {"full": "south end, Boston, Massachusetts", "city": "south end, Boston", "state": "Massachusetts", "country": "US", "country_iso3166": "US", "latitude": "42.346802", "longitude": "-71.071365", "elevation": "46 ft"}, "estimated": {}, "station_id": "KMABOSTO197", "observation_time": "Last Updated on June 16, 4:22 PM EDT", "observation_time_rfc822": "Fri, 16 Jun 2017 16:22:30 -0400", "observation_epoch": "1497644550", "local_time_rfc822": "Fri, 16 Jun 2017 16:22:59 -0400", "local_epoch": "1497644579", "local_tz_short": "EDT", "local_tz_long": "America/New_York", "local_tz_offset": "-0400", "weather": "Rain", "temperature_string": "67.6 F (19.8 C)", "temp_f": 67.6, "temp_c": 19.8, "relative_humidity": "67%", "wind_string": "From the South at 2.0 MPH Gusting to 2.5 MPH", "wind_dir": "South", "wind_degrees": 172, "wind_mph": 2.0, "wind_gust_mph": "2.5", "wind_kph": 3.2, "wind_gust_kph": "4.0", "pressure_mb": "1017", "pressure_in": "30.05", "pressure_trend": "0", "dewpoint_string": "56 F (14 C)", "dewpoint_f": 56, "dewpoint_c": 14, "heat_index_string": "NA", "heat_index_f": "NA", "heat_index_c": "NA", "windchill_string": "NA", "windchill_f": "NA", "windchill_c": "NA", "feelslike_string": "67.6 F (19.8 C)", "feelslike_f": "67.6", "feelslike_c": "19.8", "visibility_mi": "10.0", "visibility_km": "16.1", "solarradiation": "64", "UV": "1.0", "precip_1hr_string": "0.14 in ( 4 mm)", "precip_1hr_in": "0.14", "precip_1hr_metric": " 4", "precip_today_string": "0.04 in (1 mm)", "precip_today_in": "0.04", "precip_today_metric": "1", "icon": "rain", "icon_url": "http://icons.wxug.com/i/c/k/rain.gif", "forecast_url": "http://www.wunderground.com/US/MA/Boston.html", "history_url": "http://www.wunderground.com/weatherstation/WXDailyHistory.asp?ID=KMABOSTO197", "ob_url": "http://www.wunderground.com/cgi-bin/findweather/getForecast?query=42.346802,-71.071365", "nowcast": ""}, "forecast": {"txt_forecast": {"date": "3:34 PM EDT", "forecastday": [{"period": 0, "icon": "rain", "icon_url": "http://icons.wxug.com/i/c/k/rain.gif", "title": "Friday", "fcttext": "Rain with a few rumbles of thunder. Lows overnight in the low 60s.", "fcttext_metric": "Rain with a few rumbles of thunder. Low 16C.", "pop": "90"}, {"period": 1, "icon": "nt_rain", "icon_url": "http://icons.wxug.com/i/c/k/nt_rain.gif", "title": "Friday Night", "fcttext": "Rain and scattered thunderstorms overnight. Low around 60F. Winds SE at 10 to 20 mph. Chance of rain 90%.", "fcttext_metric": "Rain and scattered thunderstorms overnight. Low 16C. Winds SE at 15 to 25 km/h. Chance of rain 80%.", "pop": "90"}, {"period": 2, "icon": "chancerain", "icon_url": "http://icons.wxug.com/i/c/k/chancerain.gif", "title": "Saturday", "fcttext": "Rain showers early with overcast skies later in the day. High 74F. Winds E at 10 to 15 mph. Chance of rain 40%.", "fcttext_metric": "Rain showers early with overcast skies later in the day. High 24C. Winds E at 10 to 15 km/h. Chance of rain 40%.", "pop": "40"}, {"period": 3, "icon": "nt_mostlycloudy", "icon_url": "http://icons.wxug.com/i/c/k/nt_mostlycloudy.gif", "title": "Saturday Night", "fcttext": "Partly cloudy during the evening followed by cloudy skies overnight. Low 68F. Winds SSW at 10 to 15 mph.", "fcttext_metric": "Partly cloudy during the evening followed by cloudy skies overnight. Low near 20C. Winds SSW at 10 to 15 km/h.", "pop": "10"}, {"period": 4, "icon": "partlycloudy", "icon_url": "http://icons.wxug.com/i/c/k/partlycloudy.gif", "title": "Sunday", "fcttext": "Cloudy with gusty winds developing during the afternoon. High 82F. Winds SSW at 20 to 30 mph.", "fcttext_metric": "Cloudy with gusty winds developing during the afternoon. High 28C. Winds SSW at 25 to 40 km/h.", "pop": "10"}, {"period": 5, "icon": "nt_partlycloudy", "icon_url": "http://icons.wxug.com/i/c/k/nt_partlycloudy.gif", "title": "Sunday Night", "fcttext": "Partly cloudy early with increasing clouds overnight. Low around 70F. Winds SSW at 15 to 25 mph.", "fcttext_metric": "Partly cloudy skies during the evening will give way to cloudy skies overnight. Low 21C. Winds SSW at 25 to 40 km/h.", "pop": "20"}, {"period": 6, "icon": "partlycloudy", "icon_url": "http://icons.wxug.com/i/c/k/partlycloudy.gif", "title": "Monday", "fcttext": "Cloudy skies early, then partly cloudy in the afternoon. A stray shower or thunderstorm is possible. High 83F. Winds SSW at 15 to 25 mph.", "fcttext_metric": "Cloudy skies early, followed by partial clearing. A stray shower or thunderstorm is possible. High 29C. Winds SSW at 25 to 40 km/h.", "pop": "20"}, {"period": 7, "icon": "nt_tstorms", "icon_url": "http://icons.wxug.com/i/c/k/nt_tstorms.gif", "title": "Monday Night", "fcttext": "Cloudy in the evening with scattered thunderstorms developing after midnight. Low near 70F. Winds SSW at 15 to 25 mph. Chance of rain 60%.", "fcttext_metric": "Scattered thunderstorms developing overnight. Low 21C. Winds SSW at 25 to 40 km/h. Chance of rain 60%.", "pop": "60"}]}, "simpleforecast": {"forecastday": [{"date": {"epoch": "1497654000", "pretty": "7:00 PM EDT on June 16, 2017", "day": 16, "month": 6, "year": 2017, "yday": 166, "hour": 19, "min": "00", "sec": 0, "isdst": "1", "monthname": "June", "monthname_short": "Jun", "weekday_short": "Fri", "weekday": "Friday", "ampm": "PM", "tz_short": "EDT", "tz_long": "America/New_York"}, "period": 1, "high": {"fahrenheit": "75", "celsius": "24"}, "low": {"fahrenheit": "60", "celsius": "16"}, "conditions": "Rain", "icon": "rain", "icon_url": "http://icons.wxug.com/i/c/k/rain.gif", "skyicon": "", "pop": 90, "qpf_allday": {"in": 0.43, "mm": 11}, "qpf_day": {"in": null, "mm": null}, "qpf_night": {"in": 0.33, "mm": 8}, "snow_allday": {"in": 0.0, "cm": 0.0}, "snow_day": {"in": null, "cm": null}, "snow_night": {"in": 0.0, "cm": 0.0}, "maxwind": {"mph": 17, "kph": 28, "dir": "", "degrees": 0}, "avewind": {"mph": 3, "kph": 5, "dir": "SSW", "degrees": 206}, "avehumidity": 93, "maxhumidity": 0, "minhumidity": 0}, {"date": {"epoch": "1497740400", "pretty": "7:00 PM EDT on June 17, 2017", "day": 17, "month": 6, "year": 2017, "yday": 167, "hour": 19, "min": "00", "sec": 0, "isdst": "1", "monthname": "June", "monthname_short": "Jun", "weekday_short": "Sat", "weekday": "Saturday", "ampm": "PM", "tz_short": "EDT", "tz_long": "America/New_York"}, "period": 2, "high": {"fahrenheit": "74", "celsius": "23"}, "low": {"fahrenheit": "68", "celsius": "20"}, "conditions": "Chance of Rain", "icon": "chancerain", "icon_url": "http://icons.wxug.com/i/c/k/chancerain.gif", "skyicon": "", "pop": 40, "qpf_allday": {"in": 0.03, "mm": 1}, "qpf_day": {"in": 0.03, "mm": 1}, "qpf_night": {"in": 0.0, "mm": 0}, "snow_allday": {"in": 0.0, "cm": 0.0}, "snow_day": {"in": 0.0, "cm": 0.0}, "snow_night": {"in": 0.0, "cm": 0.0}, "maxwind": {"mph": 15, "kph": 24, "dir": "E", "degrees": 92}, "avewind": {"mph": 10, "kph": 16, "dir": "E", "degrees": 92}, "avehumidity": 84, "maxhumidity": 0, "minhumidity": 0}, {"date": {"epoch": "1497826800", "pretty": "7:00 PM EDT on June 18, 2017", "day": 18, "month": 6, "year": 2017, "yday": 168, "hour": 19, "min": "00", "sec": 0, "isdst": "1", "monthname": "June", "monthname_short": "Jun", "weekday_short": "Sun", "weekday": "Sunday", "ampm": "PM", "tz_short": "EDT", "tz_long": "America/New_York"}, "period": 3, "high": {"fahrenheit": "82", "celsius": "28"}, "low": {"fahrenheit": "70", "celsius": "21"}, "conditions": "Partly Cloudy", "icon": "partlycloudy", "icon_url": "http://icons.wxug.com/i/c/k/partlycloudy.gif", "skyicon": "", "pop": 10, "qpf_allday": {"in": 0.0, "mm": 0}, "qpf_day": {"in": 0.0, "mm": 0}, "qpf_night": {"in": 0.0, "mm": 0}, "snow_allday": {"in": 0.0, "cm": 0.0}, "snow_day": {"in": 0.0, "cm": 0.0}, "snow_night": {"in": 0.0, "cm": 0.0}, "maxwind": {"mph": 30, "kph": 48, "dir": "SSW", "degrees": 200}, "avewind": {"mph": 20, "kph": 32, "dir": "SSW", "degrees": 200}, "avehumidity": 76, "maxhumidity": 0, "minhumidity": 0}, {"date": {"epoch": "1497913200", "pretty": "7:00 PM EDT on June 19, 2017", "day": 19, "month": 6, "year": 2017, "yday": 169, "hour": 19, "min": "00", "sec": 0, "isdst": "1", "monthname": "June", "monthname_short": "Jun", "weekday_short": "Mon", "weekday": "Monday", "ampm": "PM", "tz_short": "EDT", "tz_long": "America/New_York"}, "period": 4, "high": {"fahrenheit": "83", "celsius": "28"}, "low": {"fahrenheit": "70", "celsius": "21"}, "conditions": "Partly Cloudy", "icon": "partlycloudy", "icon_url": "http://icons.wxug.com/i/c/k/partlycloudy.gif", "skyicon": "", "pop": 20, "qpf_allday": {"in": 0.05, "mm": 1}, "qpf_day": {"in": 0.0, "mm": 0}, "qpf_night": {"in": 0.05, "mm": 1}, "snow_allday": {"in": 0.0, "cm": 0.0}, "snow_day": {"in": 0.0, "cm": 0.0}, "snow_night": {"in": 0.0, "cm": 0.0}, "maxwind": {"mph": 25, "kph": 40, "dir": "SSW", "degrees": 200}, "avewind": {"mph": 19, "kph": 31, "dir": "SSW", "degrees": 200}, "avehumidity": 72, "maxhumidity": 0, "minhumidity": 0}]}}}}