{"07-11_09-00": {"BackBay": {"response": {"version": "0.1", "termsofService": "http://www.wunderground.com/weather/api/d/terms.html", "features": {"forecast": 1, "geolookup": 1, "conditions": 1}}, "location": {"type": "CITY", "country": "US", "country_iso3166": "US", "country_name": "USA", "state": "MA", "city": "Boston", "tz_short": "EDT", "tz_long": "America/New_York", "lat": "42.348248", "lon": "-71.084167", "zip": "02199", "magic": "1", "wmo": "99999", "l": "/q/zmw:02199.1.99999", "requesturl": "US/MA/Boston.html", "wuiurl": "https://www.wunderground.com/US/MA/Boston.html", "nearby_weather_stations": {"airport": {"station": [{"city": "Boston", "state": "MA", "country": "US", "icao": "KBOS", "lat": "42.36000061", "lon": "-71.00000000"}, {"city": "East Milton", "state": "MA", "country": "US", "icao": "KMQE", "lat": "42.20999908", "lon": "-71.11000061"}, {"city": "Norwood", "state": "MA", "country": "US", "icao": "KOWD", "lat": "42.18999863", "lon": "-71.16999817"}, {"city": "Bedford", "state": "MA", "country": "US", "icao": "KBED", "lat": "42.47000122", "lon": "-71.29000092"}]}, "pws": {"station": [{"neighborhood": "Back Bay West", "city": "Cambridge", "state": "MA", "country": "US", "id": "KMACAMBR25", "lat": 42.35004, "lon": -71.091385, "distance_km": 0, "distance_mi": 0}, {"neighborhood": "Columbus", "city": "Boston", "state": "MA", "country": "US", "id": "KMABOSTO106", "lat": 42.345158, "lon": -71.077545, "distance_km": 0, "distance_mi": 0}, {"neighborhood": "south end", "city": "Boston", "state": "MA", "country": "US", "id": "KMABOSTO197", "lat": 42.346802, "lon": -71.071365, "distance_km": 1, "distance_mi": 0}, {"neighborhood": "MIT (Green Bld Roof)", "city": "Cambridge", "state": "MA", "country": "US", "id": "KMACAMBR9", "lat": 42.360298, "lon": -71.089401, "distance_km": 1, "distance_mi": 0}, {"neighborhood": "South End", "city": "Boston", "state": "MA", "country": "US", "id": "KMABOSTO279", "lat": 42.341648, "lon": -71.069443, "distance_km": 1, "distance_mi": 0}, {"neighborhood": "Northeastern University WeatherSTEM", "city": "Boston", "state": "MA", "country": "US", "id": "KMABOSTO269", "lat": 42.335865, "lon": -71.088364, "distance_km": 1, "distance_mi": 0}, {"neighborhood": "Boston", "city": "Boston", "state": "MA", "country": "US", "id": "KMABOSTO257", "lat": 42.337036, "lon": -71.073914, "distance_km": 1, "distance_mi": 0}, {"neighborhood": "Boston - South End", "city": "Boston", "state": "MA", "country": "US", "id": "KMABOSTO22", "lat": 42.342987, "lon": -71.066826, "distance_km": 1, "distance_mi": 0}, {"neighborhood": "Beacon Hill", "city": "Cambridge", "state": "MA", "country": "US", "id": "KMACAMBR41", "lat": 42.357903, "lon": -71.070343, "distance_km": 1, "distance_mi": 0}, {"neighborhood": "Cambridge, Charles River", "city": "Cambridge", "state": "MA", "country": "US", "id": "KMACAMBR70", "lat": 42.363503, "lon": -71.077904, "distance_km": 1, "distance_mi": 1}, {"neighborhood": "East Cambridge", "city": "Cambridge", "state": "MA", "country": "US", "id": "KMACAMBR94", "lat": 42.366394, "lon": -71.084282, "distance_km": 2, "distance_mi": 1}, {"neighborhood": "Beacon & Carlton Street", "city": "Brookline", "state": "MA", "country": "US", "id": "KMABROOK5", "lat": 42.345982, "lon": -71.109337, "distance_km": 2, "distance_mi": 1}, {"neighborhood": "Area IV", "city": "Cambridge", "state": "MA", "country": "US", "id": "KMACAMBR47", "lat": 42.363949, "lon": -71.099426, "distance_km": 2, "distance_mi": 1}, {"neighborhood": "Boston", "city": "Boston", "state": "MA", "country": "US", "id": "KMABOSTO259", "lat": 42.350739, "lon": -71.057808, "distance_km": 2, "distance_mi": 1}, {"neighborhood": "South Boston", "city": "Boston", "state": "MA", "country": "US", "id": "KMABOSTO35", "lat": 42.343105, "lon": -71.058197, "distance_km": 2, "distance_mi": 1}, {"neighborhood": "Cambridge", "city": "Cambridgeport", "state": "MA", "country": "US", "id": "KMACAMBR111", "lat": 42.363483, "lon": -71.101807, "distance_km": 2, "distance_mi": 1}, {"neighborhood": "Longwood", "city": "Boston", "state": "MA", "country": "US", "id": "KMABOSTO130", "lat": 42.343025, "lon": -71.11042, "distance_km": 2, "distance_mi": 1}, {"neighborhood": "Boston", "city": "Boston", "state": "MA", "country": "US", "id": "KMABOSTO270", "lat": 42.358707, "lon": -71.058456, "distance_km": 2, "distance_mi": 1}, {"neighborhood": "Downtown", "city": "Boston", "state": "MA", "country": "US", "id": "KMABOSTO116", "lat": 42.360081, "lon": -71.058884, "distance_km": 2, "distance_mi": 1}, {"neighborhood": "Central Square", "city": "Cambridge", "state": "MA", "country": "US", "id": "KMACAMBR4", "lat": 42.3633, "lon": -71.107529, "distance_km": 2, "distance_mi": 1}, {"neighborhood": "Boston", "city": "Boston", "state": "MA", "country": "US", "id": "KMABOSTO277", "lat": 42.340935, "lon": -71.052971, "distance_km": 2, "distance_mi": 1}, {"neighborhood": "Downtown", "city": "Boston", "state": "MA", "country": "US", "id": "KMABOSTO49", "lat": 42.358009, "lon": -71.049797, "distance_km": 3, "distance_mi": 1}, {"neighborhood": "North End, Boston", "city": "Boston", "state": "MA", "country": "US", "id": "KMABOSTO132", "lat": 42.366951, "lon": -71.056152, "distance_km": 3, "distance_mi": 1}, {"neighborhood": "North End", "city": "Boston", "state": "MA", "country": "US", "id": "KMABOSTO100", "lat": 42.368164, "lon": -71.057655, "distance_km": 3, "distance_mi": 1}]}}}, "current_observation": {"image": {"url": "http://icons.wxug.com/graphics/wu2/logo_130x80.png", "title": "Weather Underground", "link": "http://www.wunderground.com"}, "display_location": {"full": "Boston, MA", "city": "Boston", "state": "MA", "state_name": "Massachusetts", "country": "US", "country_iso3166": "US", "zip": "02199", "magic": "1", "wmo": "99999", "latitude": "42.348248", "longitude": "-71.084167", "elevation": "5.8"}, "observation_location": {"full": "Back Bay, Boston, Massachusetts", "city": "Back Bay, Boston", "state": "Massachusetts", "country": "", "country_iso3166": "US", "latitude": "42.348248", "longitude": "-71.084167", "elevation": "10 ft"}, "estimated": {}, "station_id": "KMABOSTO278", "observation_time": "Last Updated on July 11, 4:59 AM EDT", "observation_time_rfc822": "Tue, 11 Jul 2017 04:59:47 -0400", "observation_epoch": "1499763587", "local_time_rfc822": "Tue, 11 Jul 2017 04:59:50 -0400", "local_epoch": "1499763590", "local_tz_short": "EDT", "local_tz_long": "America/New_York", "local_tz_offset": "-0400", "weather": "Rain", "temperature_string": "70.2 F (21.2 C)", "temp_f": 70.2, "temp_c": 21.2, "relative_humidity": "89%", "wind_string": "From the WSW at 18.6 MPH Gusting to 19.9 MPH", "wind_dir": "WSW", "wind_degrees": 242, "wind_mph": 18.6, "wind_gust_mph": "19.9", "wind_kph": 29.9, "wind_gust_kph": "32.0", "pressure_mb": "1015", "pressure_in": "29.96", "pressure_trend": "-", "dewpoint_string": "66.7 F (19.3 C)", "dewpoint_f": 66.7, "dewpoint_c": 19.3, "heat_index_string": "NA", "heat_index_f": "NA", "heat_index_c": "NA", "windchill_string": "NA", "windchill_f": "NA", "windchill_c": "NA", "feelslike_string": "70.2 F (21.2 C)", "feelslike_f": "70.2", "feelslike_c": "21.2", "visibility_mi": "10.0", "visibility_km": "16.1", "solarradiation": "0", "UV": "0.0", "precip_1hr_string": "0.07 in (0.2 mm)", "precip_1hr_in": "0.07", "precip_1hr_metric": "0.2", "precip_today_string": "0.02 in (1 mm)", "precip_today_in": "0.02", "precip_today_metric": "1", "icon": "rain", "icon_url": "http://icons.wxug.com/i/c/k/nt_rain.gif", "forecast_url": "http://www.wunderground.com/US/MA/Boston.html", "history_url": "http://www.wunderground.com/weatherstation/WXDailyHistory.asp?ID=KMABOSTO278", "ob_url": "http://www.wunderground.com/cgi-bin/findweather/getForecast?query=42.348248,-71.084167", "nowcast": ""}, "forecast": {"txt_forecast": {"date": "4:19 AM EDT", "forecastday": [{"period": 0, "icon": "tstorms", "icon_url": "http://icons.wxug.com/i/c/k/tstorms.gif", "title": "Tuesday", "fcttext": "Thunderstorms likely this morning. Then the chance of scattered thunderstorms this afternoon. Gusty winds and small hail are possible. High near 85F. Winds SSW at 10 to 15 mph. Chance of rain 100%.", "fcttext_metric": "Variable clouds with showers and scattered thunderstorms. Gusty winds and small hail are possible. High 29C. Winds SSW at 15 to 25 km/h. Chance of rain 100%.", "pop": "100"}, {"period": 1, "icon": "nt_partlycloudy", "icon_url": "http://icons.wxug.com/i/c/k/nt_partlycloudy.gif", "title": "Tuesday Night", "fcttext": "Partly cloudy skies. A stray shower or thunderstorm is possible. Low near 70F. Winds SW at 10 to 15 mph.", "fcttext_metric": "Partly cloudy. A stray shower or thunderstorm is possible. Low 21C. Winds SW at 10 to 15 km/h.", "pop": "20"}, {"period": 2, "icon": "chancetstorms", "icon_url": "http://icons.wxug.com/i/c/k/chancetstorms.gif", "title": "Wednesday", "fcttext": "Partly cloudy in the morning followed by scattered thunderstorms in the afternoon. High around 85F. Winds ESE at 5 to 10 mph. Chance of rain 40%.", "fcttext_metric": "Partly cloudy in the morning followed by scattered thunderstorms in the afternoon. High near 30C. Winds ESE at 10 to 15 km/h. Chance of rain 40%.", "pop": "40"}, {"period": 3, "icon": "nt_chancetstorms", "icon_url": "http://icons.wxug.com/i/c/k/nt_chancetstorms.gif", "title": "Wednesday Night", "fcttext": "Scattered thunderstorms in the evening. Cloudy skies overnight. Low 69F. Winds ESE at 5 to 10 mph. Chance of rain 40%.", "fcttext_metric": "Scattered thunderstorms during the evening, then cloudy skies overnight. Low near 20C. Winds ESE at 10 to 15 km/h. Chance of rain 40%.", "pop": "40"}, {"period": 4, "icon": "tstorms", "icon_url": "http://icons.wxug.com/i/c/k/tstorms.gif", "title": "Thursday", "fcttext": "Scattered thunderstorms in the morning, then mainly cloudy during the afternoon with thunderstorms likely. High 79F. SW winds shifting to NE at 10 to 15 mph. Chance of rain 80%.", "fcttext_metric": "Scattered thunderstorms in the morning, then mainly cloudy during the afternoon with thunderstorms likely. High 26C. SW winds shifting to NE at 15 to 25 km/h. Chance of rain 80%.", "pop": "80"}, {"period": 5, "icon": "nt_chancetstorms", "icon_url": "http://icons.wxug.com/i/c/k/nt_chancetstorms.gif", "title": "Thursday Night", "fcttext": "Scattered thunderstorms in the evening. Cloudy skies overnight. Low near 60F. Winds NE at 10 to 15 mph. Chance of rain 60%.", "fcttext_metric": "Scattered thunderstorms in the evening. Cloudy skies overnight. Low 16C. Winds NE at 10 to 15 km/h. Chance of rain 60%.", "pop": "60"}, {"period": 6, "icon": "chancerain", "icon_url": "http://icons.wxug.com/i/c/k/chancerain.gif", "title": "Friday", "fcttext": "Overcast with rain showers at times. High 68F. Winds ENE at 10 to 15 mph. Chance of rain 60%.", "fcttext_metric": "Considerable cloudiness with occasional rain showers. High around 20C. Winds ENE at 10 to 15 km/h. Chance of rain 60%.", "pop": "60"}, {"period": 7, "icon": "nt_chancerain", "icon_url": "http://icons.wxug.com/i/c/k/nt_chancerain.gif", "title": "Friday Night", "fcttext": "Showers in the evening, then cloudy overnight. Low 63F. Winds ENE at 5 to 10 mph. Chance of rain 60%.", "fcttext_metric": "Showers in the evening, then cloudy overnight. Low 17C. Winds ENE at 10 to 15 km/h. Chance of rain 60%.", "pop": "60"}]}, "simpleforecast": {"forecastday": [{"date": {"epoch": "1499814000", "pretty": "7:00 PM EDT on July 11, 2017", "day": 11, "month": 7, "year": 2017, "yday": 191, "hour": 19, "min": "00", "sec": 0, "isdst": "1", "monthname": "July", "monthname_short": "Jul", "weekday_short": "Tue", "weekday": "Tuesday", "ampm": "PM", "tz_short": "EDT", "tz_long": "America/New_York"}, "period": 1, "high": {"fahrenheit": "85", "celsius": "29"}, "low": {"fahrenheit": "70", "celsius": "21"}, "conditions": "Thunderstorm", "icon": "tstorms", "icon_url": "http://icons.wxug.com/i/c/k/tstorms.gif", "skyicon": "", "pop": 100, "qpf_allday": {"in": 0.32, "mm": 8}, "qpf_day": {"in": 0.37, "mm": 9}, "qpf_night": {"in": 0.0, "mm": 0}, "snow_allday": {"in": 0.0, "cm": 0.0}, "snow_day": {"in": 0.0, "cm": 0.0}, "snow_night": {"in": 0.0, "cm": 0.0}, "maxwind": {"mph": 15, "kph": 24, "dir": "SSW", "degrees": 208}, "avewind": {"mph": 11, "kph": 18, "dir": "SSW", "degrees": 208}, "avehumidity": 77, "maxhumidity": 0, "minhumidity": 0}, {"date": {"epoch": "1499900400", "pretty": "7:00 PM EDT on July 12, 2017", "day": 12, "month": 7, "year": 2017, "yday": 192, "hour": 19, "min": "00", "sec": 0, "isdst": "1", "monthname": "July", "monthname_short": "Jul", "weekday_short": "Wed", "weekday": "Wednesday", "ampm": "PM", "tz_short": "EDT", "tz_long": "America/New_York"}, "period": 2, "high": {"fahrenheit": "85", "celsius": "29"}, "low": {"fahrenheit": "69", "celsius": "21"}, "conditions": "Chance of a Thunderstorm", "icon": "chancetstorms", "icon_url": "http://icons.wxug.com/i/c/k/chancetstorms.gif", "skyicon": "", "pop": 40, "qpf_allday": {"in": 0.14, "mm": 4}, "qpf_day": {"in": 0.12, "mm": 3}, "qpf_night": {"in": 0.02, "mm": 1}, "snow_allday": {"in": 0.0, "cm": 0.0}, "snow_day": {"in": 0.0, "cm": 0.0}, "snow_night": {"in": 0.0, "cm": 0.0}, "maxwind": {"mph": 10, "kph": 16, "dir": "ESE", "degrees": 112}, "avewind": {"mph": 9, "kph": 14, "dir": "ESE", "degrees": 112}, "avehumidity": 69, "maxhumidity": 0, "minhumidity": 0}, {"date": {"epoch": "1499986800", "pretty": "7:00 PM EDT on July 13, 2017", "day": 13, "month": 7, "year": 2017, "yday": 193, "hour": 19, "min": "00", "sec": 0, "isdst": "1", "monthname": "July", "monthname_short": "Jul", "weekday_short": "Thu", "weekday": "Thursday", "ampm": "PM", "tz_short": "EDT", "tz_long": "America/New_York"}, "period": 3, "high": {"fahrenheit": "79", "celsius": "26"}, "low": {"fahrenheit": "60", "celsius": "16"}, "conditions": "Thunderstorm", "icon": "tstorms", "icon_url": "http://icons.wxug.com/i/c/k/tstorms.gif", "skyicon": "", "pop": 80, "qpf_allday": {"in": 0.25, "mm": 6}, "qpf_day": {"in": 0.19, "mm": 5}, "qpf_night": {"in": 0.06, "mm": 2}, "snow_allday": {"in": 0.0, "cm": 0.0}, "snow_day": {"in": 0.0, "cm": 0.0}, "snow_night": {"in": 0.0, "cm": 0.0}, "maxwind": {"mph": 15, "kph": 24, "dir": "ENE", "degrees": 59}, "avewind": {"mph": 11, "kph": 18, "dir": "ENE", "degrees": 59}, "avehumidity": 83, "maxhumidity": 0, "minhumidity": 0}, {"date": {"epoch": "1500073200", "pretty": "7:00 PM EDT on July 14, 2017", "day": 14, "month": 7, "year": 2017, "yday": 194, "hour": 19, "min": "00", "sec": 0, "isdst": "1", "monthname": "July", "monthname_short": "Jul", "weekday_short": "Fri", "weekday": "Friday", "ampm": "PM", "tz_short": "EDT", "tz_long": "America/New_York"}, "period": 4, "high": {"fahrenheit": "68", "celsius": "20"}, "low": {"fahrenheit": "63", "celsius": "17"}, "conditions": "Chance of Rain", "icon": "chancerain", "icon_url": "http://icons.wxug.com/i/c/k/chancerain.gif", "skyicon": "", "pop": 60, "qpf_allday": {"in": 0.47, "mm": 12}, "qpf_day": {"in": 0.32, "mm": 8}, "qpf_night": {"in": 0.15, "mm": 4}, "snow_allday": {"in": 0.0, "cm": 0.0}, "snow_day": {"in": 0.0, "cm": 0.0}, "snow_night": {"in": 0.0, "cm": 0.0}, "maxwind": {"mph": 15, "kph": 24, "dir": "ENE", "degrees": 68}, "avewind": {"mph": 10, "kph": 16, "dir": "ENE", "degrees": 68}, "avehumidity": 76, "maxhumidity": 0, "minhumidity": 0}]}}}, "Logan": {"response": {"version": "0.1", "termsofService": "http://www.wunderground.com/weather/api/d/terms.html", "features": {"forecast": 1, "geolookup": 1, "conditions": 1}, "error": {"type": "Station:OFFLINE"}}}, "Dorchester": {"response": {"version": "0.1", "termsofService": "http://www.wunderground.com/weather/api/d/terms.html", "features": {"forecast": 1, "geolookup": 1, "conditions": 1}}, "location": {"type": "CITY", "country": "US", "country_iso3166": "US", "country_name": "USA", "state": "MA", "city": "Boston", "tz_short": "EDT", "tz_long": "America/New_York", "lat": "42.313976", "lon": "-71.062218", "zip": "02125", "magic": "1", "wmo": "99999", "l": "/q/zmw:02125.1.99999", "requesturl": "US/MA/Boston.html", "wuiurl": "https://www.wunderground.com/US/MA/Boston.html", "nearby_weather_stations": {"airport": {"station": [{"city": "Boston", "state": "MA", "country": "US", "icao": "KBOS", "lat": "42.36000061", "lon": "-71.00000000"}, {"city": "East Milton", "state": "MA", "country": "US", "icao": "KMQE", "lat": "42.20999908", "lon": "-71.11000061"}, {"city": "Norwood", "state": "MA", "country": "US", "icao": "KOWD", "lat": "42.18999863", "lon": "-71.16999817"}, {"city": "Bedford", "state": "MA", "country": "US", "icao": "KBED", "lat": "42.47000122", "lon": "-71.29000092"}]}, "pws": {"station": [{"neighborhood": "Dorchester @ Climax", "city": "Boston", "state": "MA", "country": "US", "id": "KMABOSTO268", "lat": 42.313976, "lon": -71.062218, "distance_km": 0, "distance_mi": 0}, {"neighborhood": "Dorchester @ Climax", "city": "Boston", "state": "MA", "country": "US", "id": "KMABOSTO268", "lat": 42.313976, "lon": -71.062218, "distance_km": 0, "distance_mi": 0}, {"neighborhood": "Dorchester", "city": "Quincy", "state": "MA", "country": "US", "id": "KMAQUINC21", "lat": 42.313194, "lon": -71.073921, "distance_km": 0, "distance_mi": 0}, {"neighborhood": "Dorchester", "city": "Quincy", "state": "MA", "country": "US", "id": "KMAQUINC35", "lat": 42.309444, "lon": -71.045998, "distance_km": 1, "distance_mi": 0}, {"neighborhood": "Clam Point", "city": "Dorchester", "state": "MA", "country": "US", "id": "KMADORCH5", "lat": 42.301571, "lon": -71.052872, "distance_km": 1, "distance_mi": 0}, {"neighborhood": "Moss Hill", "city": "Boston", "state": "MA", "country": "US", "id": "KMABOSTO271", "lat": 42.305901, "lon": -71.085899, "distance_km": 2, "distance_mi": 1}, {"neighborhood": "Telegraph Hill", "city": "Boston", "state": "MA", "country": "US", "id": "KMABOSTO167", "lat": 42.33297, "lon": -71.04319, "distance_km": 2, "distance_mi": 1}, {"neighborhood": "Boston", "city": "Boston", "state": "MA", "country": "US", "id": "KMABOSTO257", "lat": 42.337036, "lon": -71.073914, "distance_km": 2, "distance_mi": 1}, {"neighborhood": "Boston", "city": "Boston", "state": "MA", "country": "US", "id": "KMABOSTO277", "lat": 42.340935, "lon": -71.052971, "distance_km": 3, "distance_mi": 1}, {"neighborhood": "South End", "city": "Boston", "state": "MA", "country": "US", "id": "KMABOSTO279", "lat": 42.341648, "lon": -71.069443, "distance_km": 3, "distance_mi": 1}, {"neighborhood": "Boston - South End", "city": "Boston", "state": "MA", "country": "US", "id": "KMABOSTO22", "lat": 42.342987, "lon": -71.066826, "distance_km": 3, "distance_mi": 1}, {"neighborhood": "Northeastern University WeatherSTEM", "city": "Boston", "state": "MA", "country": "US", "id": "KMABOSTO269", "lat": 42.335865, "lon": -71.088364, "distance_km": 3, "distance_mi": 1}, {"neighborhood": "South Boston", "city": "Boston", "state": "MA", "country": "US", "id": "KMABOSTO35", "lat": 42.343105, "lon": -71.058197, "distance_km": 3, "distance_mi": 1}, {"neighborhood": "Jamaica Plain", "city": "Boston", "state": "MA", "country": "US", "id": "KMABOSTO52", "lat": 42.316456, "lon": -71.105362, "distance_km": 3, "distance_mi": 2}, {"neighborhood": "Jamaica Plain", "city": "Boston", "state": "MA", "country": "US", "id": "KMABOSTO173", "lat": 42.318333, "lon": -71.105835, "distance_km": 3, "distance_mi": 2}, {"neighborhood": "Columbus", "city": "Boston", "state": "MA", "country": "US", "id": "KMABOSTO106", "lat": 42.345158, "lon": -71.077545, "distance_km": 3, "distance_mi": 2}, {"neighborhood": "south end", "city": "Boston", "state": "MA", "country": "US", "id": "KMABOSTO197", "lat": 42.346802, "lon": -71.071365, "distance_km": 3, "distance_mi": 2}, {"neighborhood": "Boston", "city": "Boston", "state": "MA", "country": "US", "id": "KMABOSTO259", "lat": 42.350739, "lon": -71.057808, "distance_km": 4, "distance_mi": 2}, {"neighborhood": "Back Bay West", "city": "Cambridge", "state": "MA", "country": "US", "id": "KMACAMBR25", "lat": 42.35004, "lon": -71.091385, "distance_km": 4, "distance_mi": 2}, {"neighborhood": "Beacon Hill", "city": "Cambridge", "state": "MA", "country": "US", "id": "KMACAMBR41", "lat": 42.357903, "lon": -71.070343, "distance_km": 4, "distance_mi": 2}, {"neighborhood": "Boston", "city": "Boston", "state": "MA", "country": "US", "id": "KMABOSTO270", "lat": 42.358707, "lon": -71.058456, "distance_km": 4, "distance_mi": 2}, {"neighborhood": "Downtown", "city": "Boston", "state": "MA", "country": "US", "id": "KMABOSTO49", "lat": 42.358009, "lon": -71.049797, "distance_km": 5, "distance_mi": 3}]}}}, "current_observation": {"image": {"url": "http://icons.wxug.com/graphics/wu2/logo_130x80.png", "title": "Weather Underground", "link": "http://www.wunderground.com"}, "display_location": {"full": "Boston, MA", "city": "Boston", "state": "MA", "state_name": "Massachusetts", "country": "US", "country_iso3166": "US", "zip": "02125", "magic": "1", "wmo": "99999", "latitude": "42.313976", "longitude": "-71.062218", "elevation": "29.9"}, "observation_location": {"full": "Dorchester @ Climax, Boston, Massachusetts", "city": "Dorchester @ Climax, Boston", "state": "Massachusetts", "country": "US", "country_iso3166": "US", "latitude": "42.313976", "longitude": "-71.062218", "elevation": "118 ft"}, "estimated": {}, "station_id": "KMABOSTO268", "observation_time": "Last Updated on July 11, 4:59 AM EDT", "observation_time_rfc822": "Tue, 11 Jul 2017 04:59:27 -0400", "observation_epoch": "1499763567", "local_time_rfc822": "Tue, 11 Jul 2017 04:59:50 -0400", "local_epoch": "1499763590", "local_tz_short": "EDT", "local_tz_long": "America/New_York", "local_tz_offset": "-0400", "weather": "Rain", "temperature_string": "70.0 F (21.1 C)", "temp_f": 70.0, "temp_c": 21.1, "relative_humidity": "83%", "wind_string": "From the SSW at 6.0 MPH", "wind_dir": "SSW", "wind_degrees": 203, "wind_mph": 6.0, "wind_gust_mph": 0, "wind_kph": 9.7, "wind_gust_kph": 0, "pressure_mb": "1015", "pressure_in": "29.96", "pressure_trend": "-", "dewpoint_string": "64 F (18 C)", "dewpoint_f": 64, "dewpoint_c": 18, "heat_index_string": "NA", "heat_index_f": "NA", "heat_index_c": "NA", "windchill_string": "NA", "windchill_f": "NA", "windchill_c": "NA", "feelslike_string": "70.0 F (21.1 C)", "feelslike_f": "70.0", "feelslike_c": "21.1", "visibility_mi": "10.0", "visibility_km": "16.1", "solarradiation": "--", "UV": "0", "precip_1hr_string": "0.02 in ( 1 mm)", "precip_1hr_in": "0.02", "precip_1hr_metric": " 1", "precip_today_string": "0.02 in (1 mm)", "precip_today_in": "0.02", "precip_today_metric": "1", "icon": "rain", "icon_url": "http://icons.wxug.com/i/c/k/nt_rain.gif", "forecast_url": "http://www.wunderground.com/US/MA/Boston.html", "history_url": "http://www.wunderground.com/weatherstation/WXDailyHistory.asp?ID=KMABOSTO268", "ob_url": "http://www.wunderground.com/cgi-bin/findweather/getForecast?query=42.313976,-71.062218", "nowcast": ""}, "forecast": {"txt_forecast": {"date": "4:24 AM EDT", "forecastday": [{"period": 0, "icon": "tstorms", "icon_url": "http://icons.wxug.com/i/c/k/tstorms.gif", "title": "Tuesday", "fcttext": "Thunderstorms likely this morning. Then the chance of scattered thunderstorms this afternoon. Gusty winds and small hail are possible. High near 85F. Winds SSW at 10 to 15 mph. Chance of rain 100%.", "fcttext_metric": "Thunderstorms likely this morning. Then the chance of scattered thunderstorms this afternoon. Gusty winds and small hail are possible. High 29C. Winds SSW at 15 to 25 km/h. Chance of rain 90%.", "pop": "100"}, {"period": 1, "icon": "nt_partlycloudy", "icon_url": "http://icons.wxug.com/i/c/k/nt_partlycloudy.gif", "title": "Tuesday Night", "fcttext": "A few clouds. A stray shower or thunderstorm is possible. Low 71F. Winds SW at 10 to 15 mph.", "fcttext_metric": "Partly cloudy skies. A stray shower or thunderstorm is possible. Low 21C. Winds SW at 15 to 25 km/h.", "pop": "20"}, {"period": 2, "icon": "chancetstorms", "icon_url": "http://icons.wxug.com/i/c/k/chancetstorms.gif", "title": "Wednesday", "fcttext": "Partly cloudy early. Scattered thunderstorms developing in the afternoon. High 84F. Winds ESE at 5 to 10 mph. Chance of rain 40%.", "fcttext_metric": "Partly cloudy with afternoon showers or thunderstorms. High 29C. Winds E at 10 to 15 km/h. Chance of rain 40%.", "pop": "40"}, {"period": 3, "icon": "nt_chancetstorms", "icon_url": "http://icons.wxug.com/i/c/k/nt_chancetstorms.gif", "title": "Wednesday Night", "fcttext": "Scattered thunderstorms in the evening. Cloudy skies overnight. Low 69F. Winds ESE at 5 to 10 mph. Chance of rain 50%.", "fcttext_metric": "Scattered thunderstorms in the evening. Cloudy skies overnight. Low near 20C. Winds ESE at 10 to 15 km/h. Chance of rain 50%.", "pop": "50"}, {"period": 4, "icon": "tstorms", "icon_url": "http://icons.wxug.com/i/c/k/tstorms.gif", "title": "Thursday", "fcttext": "Scattered thunderstorms in the morning, then mainly cloudy during the afternoon with thunderstorms likely. High 78F. SW winds shifting to NE at 10 to 15 mph. Chance of rain 80%.", "fcttext_metric": "Scattered thunderstorms in the morning becoming more widespread in the afternoon. High 26C. SW winds shifting to NE at 15 to 25 km/h. Chance of rain 80%.", "pop": "80"}, {"period": 5, "icon": "nt_chancetstorms", "icon_url": "http://icons.wxug.com/i/c/k/nt_chancetstorms.gif", "title": "Thursday Night", "fcttext": "Scattered thunderstorms during the evening, then cloudy skies overnight. Low 61F. Winds NE at 10 to 15 mph. Chance of rain 60%.", "fcttext_metric": "Scattered thunderstorms in the evening. Cloudy skies overnight. Low 16C. Winds NE at 15 to 25 km/h. Chance of rain 60%.", "pop": "60"}, {"period": 6, "icon": "chancerain", "icon_url": "http://icons.wxug.com/i/c/k/chancerain.gif", "title": "Friday", "fcttext": "Overcast with rain showers at times. High 68F. Winds ENE at 10 to 15 mph. Chance of rain 60%.", "fcttext_metric": "Overcast with rain showers at times. High around 20C. Winds ENE at 15 to 25 km/h. Chance of rain 60%.", "pop": "60"}, {"period": 7, "icon": "nt_chancerain", "icon_url": "http://icons.wxug.com/i/c/k/nt_chancerain.gif", "title": "Friday Night", "fcttext": "Cloudy with occasional rain showers. Low 63F. Winds ENE at 5 to 10 mph. Chance of rain 60%.", "fcttext_metric": "Showers in the evening, then cloudy overnight. Low 17C. Winds ENE at 10 to 15 km/h. Chance of rain 60%.", "pop": "60"}]}, "simpleforecast": {"forecastday": [{"date": {"epoch": "1499814000", "pretty": "7:00 PM EDT on July 11, 2017", "day": 11, "month": 7, "year": 2017, "yday": 191, "hour": 19, "min": "00", "sec": 0, "isdst": "1", "monthname": "July", "monthname_short": "Jul", "weekday_short": "Tue", "weekday": "Tuesday", "ampm": "PM", "tz_short": "EDT", "tz_long": "America/New_York"}, "period": 1, "high": {"fahrenheit": "85", "celsius": "29"}, "low": {"fahrenheit": "71", "celsius": "22"}, "conditions": "Thunderstorm", "icon": "tstorms", "icon_url": "http://icons.wxug.com/i/c/k/tstorms.gif", "skyicon": "", "pop": 100, "qpf_allday": {"in": 0.44, "mm": 11}, "qpf_day": {"in": 0.52, "mm": 13}, "qpf_night": {"in": 0.0, "mm": 0}, "snow_allday": {"in": 0.0, "cm": 0.0}, "snow_day": {"in": 0.0, "cm": 0.0}, "snow_night": {"in": 0.0, "cm": 0.0}, "maxwind": {"mph": 15, "kph": 24, "dir": "SSW", "degrees": 208}, "avewind": {"mph": 12, "kph": 19, "dir": "SSW", "degrees": 208}, "avehumidity": 78, "maxhumidity": 0, "minhumidity": 0}, {"date": {"epoch": "1499900400", "pretty": "7:00 PM EDT on July 12, 2017", "day": 12, "month": 7, "year": 2017, "yday": 192, "hour": 19, "min": "00", "sec": 0, "isdst": "1", "monthname": "July", "monthname_short": "Jul", "weekday_short": "Wed", "weekday": "Wednesday", "ampm": "PM", "tz_short": "EDT", "tz_long": "America/New_York"}, "period": 2, "high": {"fahrenheit": "84", "celsius": "29"}, "low": {"fahrenheit": "69", "celsius": "21"}, "conditions": "Chance of a Thunderstorm", "icon": "chancetstorms", "icon_url": "http://icons.wxug.com/i/c/k/chancetstorms.gif", "skyicon": "", "pop": 40, "qpf_allday": {"in": 0.12, "mm": 3}, "qpf_day": {"in": 0.1, "mm": 3}, "qpf_night": {"in": 0.02, "mm": 1}, "snow_allday": {"in": 0.0, "cm": 0.0}, "snow_day": {"in": 0.0, "cm": 0.0}, "snow_night": {"in": 0.0, "cm": 0.0}, "maxwind": {"mph": 10, "kph": 16, "dir": "ESE", "degrees": 110}, "avewind": {"mph": 9, "kph": 14, "dir": "ESE", "degrees": 110}, "avehumidity": 70, "maxhumidity": 0, "minhumidity": 0}, {"date": {"epoch": "1499986800", "pretty": "7:00 PM EDT on July 13, 2017", "day": 13, "month": 7, "year": 2017, "yday": 193, "hour": 19, "min": "00", "sec": 0, "isdst": "1", "monthname": "July", "monthname_short": "Jul", "weekday_short": "Thu", "weekday": "Thursday", "ampm": "PM", "tz_short": "EDT", "tz_long": "America/New_York"}, "period": 3, "high": {"fahrenheit": "78", "celsius": "26"}, "low": {"fahrenheit": "61", "celsius": "16"}, "conditions": "Thunderstorm", "icon": "tstorms", "icon_url": "http://icons.wxug.com/i/c/k/tstorms.gif", "skyicon": "", "pop": 80, "qpf_allday": {"in": 0.21, "mm": 5}, "qpf_day": {"in": 0.17, "mm": 4}, "qpf_night": {"in": 0.05, "mm": 1}, "snow_allday": {"in": 0.0, "cm": 0.0}, "snow_day": {"in": 0.0, "cm": 0.0}, "snow_night": {"in": 0.0, "cm": 0.0}, "maxwind": {"mph": 15, "kph": 24, "dir": "ENE", "degrees": 61}, "avewind": {"mph": 11, "kph": 18, "dir": "ENE", "degrees": 61}, "avehumidity": 84, "maxhumidity": 0, "minhumidity": 0}, {"date": {"epoch": "1500073200", "pretty": "7:00 PM EDT on July 14, 2017", "day": 14, "month": 7, "year": 2017, "yday": 194, "hour": 19, "min": "00", "sec": 0, "isdst": "1", "monthname": "July", "monthname_short": "Jul", "weekday_short": "Fri", "weekday": "Friday", "ampm": "PM", "tz_short": "EDT", "tz_long": "America/New_York"}, "period": 4, "high": {"fahrenheit": "68", "celsius": "20"}, "low": {"fahrenheit": "63", "celsius": "17"}, "conditions": "Chance of Rain", "icon": "chancerain", "icon_url": "http://icons.wxug.com/i/c/k/chancerain.gif", "skyicon": "", "pop": 60, "qpf_allday": {"in": 0.52, "mm": 13}, "qpf_day": {"in": 0.33, "mm": 8}, "qpf_night": {"in": 0.19, "mm": 5}, "snow_allday": {"in": 0.0, "cm": 0.0}, "snow_day": {"in": 0.0, "cm": 0.0}, "snow_night": {"in": 0.0, "cm": 0.0}, "maxwind": {"mph": 15, "kph": 24, "dir": "ENE", "degrees": 67}, "avewind": {"mph": 10, "kph": 16, "dir": "ENE", "degrees": 67}, "avehumidity": 77, "maxhumidity": 0, "minhumidity": 0}]}}}, "ChestnutHill": {"response": {"version": "0.1", "termsofService": "http://www.wunderground.com/weather/api/d/terms.html", "features": {"forecast": 1, "geolookup": 1, "conditions": 1}}, "location": {"type": "CITY", "country": "US", "country_iso3166": "US", "country_name": "USA", "state": "MA", "city": "Brookline", "tz_short": "EDT", "tz_long": "America/New_York", "lat": "42.332382", "lon": "-71.138641", "zip": "02445", "magic": "1", "wmo": "99999", "l": "/q/zmw:02445.1.99999", "requesturl": "US/MA/Brookline.html", "wuiurl": "https://www.wunderground.com/US/MA/Brookline.html", "nearby_weather_stations": {"airport": {"station": [{"city": "Boston", "state": "MA", "country": "US", "icao": "KBOS", "lat": "42.36000061", "lon": "-71.00000000"}, {"city": "East Milton", "state": "MA", "country": "US", "icao": "KMQE", "lat": "42.20999908", "lon": "-71.11000061"}, {"city": "Norwood", "state": "MA", "country": "US", "icao": "KOWD", "lat": "42.18999863", "lon": "-71.16999817"}, {"city": "Bedford", "state": "MA", "country": "US", "icao": "KBED", "lat": "42.47000122", "lon": "-71.29000092"}]}, "pws": {"station": [{"neighborhood": "Fisher Hill", "city": "Brookline", "state": "MA", "country": "US", "id": "KMABROOK7", "lat": 42.332382, "lon": -71.138641, "distance_km": 0, "distance_mi": 0}, {"neighborhood": "Fisher Hill", "city": "Brookline", "state": "MA", "country": "US", "id": "KMABROOK7", "lat": 42.332382, "lon": -71.138641, "distance_km": 0, "distance_mi": 0}, {"neighborhood": "Rudolfstra\u00dfe", "city": "Brookline", "state": "MA", "country": "US", "id": "KMABROOK13", "lat": 42.330151, "lon": -71.141266, "distance_km": 0, "distance_mi": 0}, {"neighborhood": "Beacon Street", "city": "Brookline", "state": "MA", "country": "US", "id": "KMABROOK24", "lat": 42.339447, "lon": -71.134766, "distance_km": 0, "distance_mi": 0}, {"neighborhood": "Brookline", "city": "Brookline", "state": "MA", "country": "US", "id": "KMABROOK38", "lat": 42.332584, "lon": -71.125008, "distance_km": 1, "distance_mi": 0}, {"neighborhood": "Corey Hill", "city": "Brookline", "state": "MA", "country": "US", "id": "KMABROOK19", "lat": 42.342426, "lon": -71.132095, "distance_km": 1, "distance_mi": 0}, {"neighborhood": "Brookline", "city": "Brookline", "state": "MA", "country": "US", "id": "KMABROOK36", "lat": 42.335861, "lon": -71.122353, "distance_km": 1, "distance_mi": 0}, {"neighborhood": "Route de Cugy", "city": "Brookline", "state": "MA", "country": "US", "id": "KMABROOK33", "lat": 42.343906, "lon": -71.132065, "distance_km": 1, "distance_mi": 0}, {"neighborhood": "Coolidge Corner South Side", "city": "Brookline", "state": "MA", "country": "US", "id": "KMABROOK10", "lat": 42.337185, "lon": -71.121864, "distance_km": 1, "distance_mi": 0}, {"neighborhood": "Jamaica Hills / Pond", "city": "Boston", "state": "MA", "country": "US", "id": "KMABOSTO182", "lat": 42.321877, "lon": -71.121407, "distance_km": 1, "distance_mi": 1}, {"neighborhood": "Coolidge Corner South Side", "city": "Boston", "state": "MA", "country": "US", "id": "KMABOSTO108", "lat": 42.340405, "lon": -71.118019, "distance_km": 1, "distance_mi": 1}, {"neighborhood": "Allston", "city": "Brookline", "state": "MA", "country": "US", "id": "KMABROOK12", "lat": 42.351528, "lon": -71.139091, "distance_km": 2, "distance_mi": 1}, {"neighborhood": "Jamaica Plain", "city": "Jamaica Plain", "state": "MA", "country": "US", "id": "KMAJAMAI10", "lat": 42.318947, "lon": -71.115013, "distance_km": 2, "distance_mi": 1}, {"neighborhood": "Longwood", "city": "Boston", "state": "MA", "country": "US", "id": "KMABOSTO130", "lat": 42.343025, "lon": -71.11042, "distance_km": 2, "distance_mi": 1}, {"neighborhood": "Boston College WeatherSTEM", "city": "Boston", "state": "MA", "country": "US", "id": "KMABOSTO137", "lat": 42.334755, "lon": -71.170204, "distance_km": 2, "distance_mi": 1}, {"neighborhood": "Beacon & Carlton Street", "city": "Brookline", "state": "MA", "country": "US", "id": "KMABROOK5", "lat": 42.345982, "lon": -71.109337, "distance_km": 2, "distance_mi": 1}, {"neighborhood": "Pond", "city": "Jamaica Plain", "state": "MA", "country": "US", "id": "KMAJAMAI7", "lat": 42.312229, "lon": -71.116882, "distance_km": 2, "distance_mi": 1}, {"neighborhood": "Jamaica Plain", "city": "Boston", "state": "MA", "country": "US", "id": "KMABOSTO173", "lat": 42.318333, "lon": -71.105835, "distance_km": 3, "distance_mi": 1}, {"neighborhood": "Allston", "city": "Brookline", "state": "MA", "country": "US", "id": "KMABROOK30", "lat": 42.360741, "lon": -71.136169, "distance_km": 3, "distance_mi": 1}, {"neighborhood": "Jamaica Plain", "city": "Boston", "state": "MA", "country": "US", "id": "KMABOSTO176", "lat": 42.307335, "lon": -71.118729, "distance_km": 3, "distance_mi": 1}, {"neighborhood": "Jamaica Plain", "city": "Boston", "state": "MA", "country": "US", "id": "KMABOSTO52", "lat": 42.316456, "lon": -71.105362, "distance_km": 3, "distance_mi": 1}, {"neighborhood": "Jamaica Plain", "city": "Boston", "state": "MA", "country": "US", "id": "KMABOSTO246", "lat": 42.305786, "lon": -71.118507, "distance_km": 3, "distance_mi": 2}, {"neighborhood": "", "city": "(Arnold Arboretum ) Roslindale", "state": "MA", "country": "US", "id": "KMAJAMAI4", "lat": 42.295361, "lon": -71.133606, "distance_km": 4, "distance_mi": 2}, {"neighborhood": "Northeastern University WeatherSTEM", "city": "Boston", "state": "MA", "country": "US", "id": "KMABOSTO269", "lat": 42.335865, "lon": -71.088364, "distance_km": 4, "distance_mi": 2}, {"neighborhood": "Back Bay West", "city": "Cambridge", "state": "MA", "country": "US", "id": "KMACAMBR25", "lat": 42.35004, "lon": -71.091385, "distance_km": 4, "distance_mi": 2}, {"neighborhood": "Brighton", "city": "Brighton", "state": "MA", "country": "US", "id": "KMABRIGH5", "lat": 42.346478, "lon": -71.150719, "distance_km": 1, "distance_mi": 1}]}}}, "current_observation": {"image": {"url": "http://icons.wxug.com/graphics/wu2/logo_130x80.png", "title": "Weather Underground", "link": "http://www.wunderground.com"}, "display_location": {"full": "Brookline, MA", "city": "Brookline", "state": "MA", "state_name": "Massachusetts", "country": "US", "country_iso3166": "US", "zip": "02445", "magic": "1", "wmo": "99999", "latitude": "42.332382", "longitude": "-71.138641", "elevation": "49.1"}, "observation_location": {"full": "Fisher Hill, Brookline, Massachusetts", "city": "Fisher Hill, Brookline", "state": "Massachusetts", "country": "US", "country_iso3166": "US", "latitude": "42.332382", "longitude": "-71.138641", "elevation": "177 ft"}, "estimated": {}, "station_id": "KMABROOK7", "observation_time": "Last Updated on July 11, 4:59 AM EDT", "observation_time_rfc822": "Tue, 11 Jul 2017 04:59:35 -0400", "observation_epoch": "1499763575", "local_time_rfc822": "Tue, 11 Jul 2017 04:59:51 -0400", "local_epoch": "1499763591", "local_tz_short": "EDT", "local_tz_long": "America/New_York", "local_tz_offset": "-0400", "weather": "Rain", "temperature_string": "68.0 F (20.0 C)", "temp_f": 68.0, "temp_c": 20.0, "relative_humidity": "92%", "wind_string": "Calm", "wind_dir": "NNW", "wind_degrees": 337, "wind_mph": 0.0, "wind_gust_mph": "3.0", "wind_kph": 0, "wind_gust_kph": "4.8", "pressure_mb": "1015", "pressure_in": "29.96", "pressure_trend": "-", "dewpoint_string": "65 F (18 C)", "dewpoint_f": 65, "dewpoint_c": 18, "heat_index_string": "NA", "heat_index_f": "NA", "heat_index_c": "NA", "windchill_string": "NA", "windchill_f": "NA", "windchill_c": "NA", "feelslike_string": "68.0 F (20.0 C)", "feelslike_f": "68.0", "feelslike_c": "20.0", "visibility_mi": "10.0", "visibility_km": "16.1", "solarradiation": "--", "UV": "0", "precip_1hr_string": "0.00 in ( 0 mm)", "precip_1hr_in": "0.00", "precip_1hr_metric": " 0", "precip_today_string": "0.00 in (0 mm)", "precip_today_in": "0.00", "precip_today_metric": "0", "icon": "rain", "icon_url": "http://icons.wxug.com/i/c/k/nt_rain.gif", "forecast_url": "http://www.wunderground.com/US/MA/Brookline.html", "history_url": "http://www.wunderground.com/weatherstation/WXDailyHistory.asp?ID=KMABROOK7", "ob_url": "http://www.wunderground.com/cgi-bin/findweather/getForecast?query=42.332382,-71.138641", "nowcast": ""}, "forecast": {"txt_forecast": {"date": "4:08 AM EDT", "forecastday": [{"period": 0, "icon": "chancerain", "icon_url": "http://icons.wxug.com/i/c/k/chancerain.gif", "title": "Tuesday", "fcttext": "Showers and a few thunderstorms likely. Gusty winds and small hail are possible. High near 85F. Winds SSW at 10 to 15 mph. Chance of rain 100%.", "fcttext_metric": "Showers and a few thunderstorms likely. Gusty winds and small hail are possible. High 29C. Winds SSW at 15 to 25 km/h. Chance of rain 100%.", "pop": "100"}, {"period": 1, "icon": "nt_partlycloudy", "icon_url": "http://icons.wxug.com/i/c/k/nt_partlycloudy.gif", "title": "Tuesday Night", "fcttext": "Partly cloudy. A stray shower or thunderstorm is possible. Low near 70F. Winds SW at 5 to 10 mph.", "fcttext_metric": "A few clouds. A stray shower or thunderstorm is possible. Low 21C. Winds SW at 10 to 15 km/h.", "pop": "20"}, {"period": 2, "icon": "chancetstorms", "icon_url": "http://icons.wxug.com/i/c/k/chancetstorms.gif", "title": "Wednesday", "fcttext": "Partial cloudiness early, with scattered showers and thunderstorms in the afternoon. High 86F. Winds ESE at 5 to 10 mph. Chance of rain 40%.", "fcttext_metric": "Partly cloudy in the morning followed by scattered thunderstorms in the afternoon. High 31C. Winds ESE at 10 to 15 km/h. Chance of rain 40%.", "pop": "40"}, {"period": 3, "icon": "nt_chancetstorms", "icon_url": "http://icons.wxug.com/i/c/k/nt_chancetstorms.gif", "title": "Wednesday Night", "fcttext": "Scattered thunderstorms during the evening, then cloudy skies overnight. Low 68F. Winds ESE at 5 to 10 mph. Chance of rain 40%.", "fcttext_metric": "Scattered thunderstorms in the evening. Cloudy skies overnight. Low near 20C. Winds light and variable. Chance of rain 40%.", "pop": "40"}, {"period": 4, "icon": "tstorms", "icon_url": "http://icons.wxug.com/i/c/k/tstorms.gif", "title": "Thursday", "fcttext": "Scattered thunderstorms in the morning becoming more widespread in the afternoon. High 79F. WSW winds shifting to NE at 10 to 15 mph. Chance of rain 80%.", "fcttext_metric": "Scattered thunderstorms in the morning becoming more widespread in the afternoon. High 26C. Winds NE at 10 to 15 km/h. Chance of rain 80%.", "pop": "80"}, {"period": 5, "icon": "nt_chancetstorms", "icon_url": "http://icons.wxug.com/i/c/k/nt_chancetstorms.gif", "title": "Thursday Night", "fcttext": "Scattered thunderstorms in the evening. Cloudy skies overnight. Low near 60F. Winds NE at 5 to 10 mph. Chance of rain 60%.", "fcttext_metric": "Scattered thunderstorms in the evening. Cloudy skies overnight. Low around 15C. Winds NE at 10 to 15 km/h. Chance of rain 60%.", "pop": "60"}, {"period": 6, "icon": "chancerain", "icon_url": "http://icons.wxug.com/i/c/k/chancerain.gif", "title": "Friday", "fcttext": "Cloudy with occasional rain showers. High 68F. Winds ENE at 5 to 10 mph. Chance of rain 60%.", "fcttext_metric": "Overcast with rain showers at times. High around 20C. Winds ENE at 10 to 15 km/h. Chance of rain 60%.", "pop": "60"}, {"period": 7, "icon": "nt_chancerain", "icon_url": "http://icons.wxug.com/i/c/k/nt_chancerain.gif", "title": "Friday Night", "fcttext": "Rain showers early with overcast skies late. Low 62F. Winds ENE at 5 to 10 mph. Chance of rain 60%.", "fcttext_metric": "Rain showers early with overcast skies late. Low 16C. Winds ENE at 10 to 15 km/h. Chance of rain 60%.", "pop": "60"}]}, "simpleforecast": {"forecastday": [{"date": {"epoch": "1499814000", "pretty": "7:00 PM EDT on July 11, 2017", "day": 11, "month": 7, "year": 2017, "yday": 191, "hour": 19, "min": "00", "sec": 0, "isdst": "1", "monthname": "July", "monthname_short": "Jul", "weekday_short": "Tue", "weekday": "Tuesday", "ampm": "PM", "tz_short": "EDT", "tz_long": "America/New_York"}, "period": 1, "high": {"fahrenheit": "85", "celsius": "29"}, "low": {"fahrenheit": "70", "celsius": "21"}, "conditions": "Chance of Rain", "icon": "chancerain", "icon_url": "http://icons.wxug.com/i/c/k/chancerain.gif", "skyicon": "", "pop": 100, "qpf_allday": {"in": 0.38, "mm": 10}, "qpf_day": {"in": 0.46, "mm": 12}, "qpf_night": {"in": 0.0, "mm": 0}, "snow_allday": {"in": 0.0, "cm": 0.0}, "snow_day": {"in": 0.0, "cm": 0.0}, "snow_night": {"in": 0.0, "cm": 0.0}, "maxwind": {"mph": 15, "kph": 24, "dir": "SSW", "degrees": 208}, "avewind": {"mph": 11, "kph": 18, "dir": "SSW", "degrees": 208}, "avehumidity": 78, "maxhumidity": 0, "minhumidity": 0}, {"date": {"epoch": "1499900400", "pretty": "7:00 PM EDT on July 12, 2017", "day": 12, "month": 7, "year": 2017, "yday": 192, "hour": 19, "min": "00", "sec": 0, "isdst": "1", "monthname": "July", "monthname_short": "Jul", "weekday_short": "Wed", "weekday": "Wednesday", "ampm": "PM", "tz_short": "EDT", "tz_long": "America/New_York"}, "period": 2, "high": {"fahrenheit": "86", "celsius": "30"}, "low": {"fahrenheit": "68", "celsius": "20"}, "conditions": "Chance of a Thunderstorm", "icon": "chancetstorms", "icon_url": "http://icons.wxug.com/i/c/k/chancetstorms.gif", "skyicon": "", "pop": 40, "qpf_allday": {"in": 0.13, "mm": 3}, "qpf_day": {"in": 0.11, "mm": 3}, "qpf_night": {"in": 0.02, "mm": 1}, "snow_allday": {"in": 0.0, "cm": 0.0}, "snow_day": {"in": 0.0, "cm": 0.0}, "snow_night": {"in": 0.0, "cm": 0.0}, "maxwind": {"mph": 10, "kph": 16, "dir": "ESE", "degrees": 110}, "avewind": {"mph": 8, "kph": 13, "dir": "ESE", "degrees": 110}, "avehumidity": 68, "maxhumidity": 0, "minhumidity": 0}, {"date": {"epoch": "1499986800", "pretty": "7:00 PM EDT on July 13, 2017", "day": 13, "month": 7, "year": 2017, "yday": 193, "hour": 19, "min": "00", "sec": 0, "isdst": "1", "monthname": "July", "monthname_short": "Jul", "weekday_short": "Thu", "weekday": "Thursday", "ampm": "PM", "tz_short": "EDT", "tz_long": "America/New_York"}, "period": 3, "high": {"fahrenheit": "79", "celsius": "26"}, "low": {"fahrenheit": "60", "celsius": "16"}, "conditions": "Thunderstorm", "icon": "tstorms", "icon_url": "http://icons.wxug.com/i/c/k/tstorms.gif", "skyicon": "", "pop": 80, "qpf_allday": {"in": 0.27, "mm": 7}, "qpf_day": {"in": 0.21, "mm": 5}, "qpf_night": {"in": 0.06, "mm": 2}, "snow_allday": {"in": 0.0, "cm": 0.0}, "snow_day": {"in": 0.0, "cm": 0.0}, "snow_night": {"in": 0.0, "cm": 0.0}, "maxwind": {"mph": 15, "kph": 24, "dir": "NE", "degrees": 43}, "avewind": {"mph": 10, "kph": 16, "dir": "NE", "degrees": 43}, "avehumidity": 82, "maxhumidity": 0, "minhumidity": 0}, {"date": {"epoch": "1500073200", "pretty": "7:00 PM EDT on July 14, 2017", "day": 14, "month": 7, "year": 2017, "yday": 194, "hour": 19, "min": "00", "sec": 0, "isdst": "1", "monthname": "July", "monthname_short": "Jul", "weekday_short": "Fri", "weekday": "Friday", "ampm": "PM", "tz_short": "EDT", "tz_long": "America/New_York"}, "period": 4, "high": {"fahrenheit": "68", "celsius": "20"}, "low": {"fahrenheit": "62", "celsius": "17"}, "conditions": "Chance of Rain", "icon": "chancerain", "icon_url": "http://icons.wxug.com/i/c/k/chancerain.gif", "skyicon": "", "pop": 60, "qpf_allday": {"in": 0.46, "mm": 12}, "qpf_day": {"in": 0.32, "mm": 8}, "qpf_night": {"in": 0.14, "mm": 4}, "snow_allday": {"in": 0.0, "cm": 0.0}, "snow_day": {"in": 0.0, "cm": 0.0}, "snow_night": {"in": 0.0, "cm": 0.0}, "maxwind": {"mph": 10, "kph": 16, "dir": "ENE", "degrees": 67}, "avewind": {"mph": 9, "kph": 14, "dir": "ENE", "degrees": 67}, "avehumidity": 76, "maxhumidity": 0, "minhumidity": 0}]}}}, "CambridgePort": {"response": {"version": "0.1", "termsofService": "http://www.wunderground.com/weather/api/d/terms.html", "features": {"forecast": 1, "geolookup": 1, "conditions": 1}}, "location": {"type": "CITY", "country": "US", "country_iso3166": "US", "country_name": "USA", "state": "MA", "city": "Cambridge", "tz_short": "EDT", "tz_long": "America/New_York", "lat": "42.363300", "lon": "-71.107529", "zip": "02139", "magic": "1", "wmo": "99999", "l": "/q/zmw:02139.1.99999", "requesturl": "US/MA/Cambridge.html", "wuiurl": "https://www.wunderground.com/US/MA/Cambridge.html", "nearby_weather_stations": {"airport": {"station": [{"city": "Boston", "state": "MA", "country": "US", "icao": "KBOS", "lat": "42.36000061", "lon": "-71.00000000"}, {"city": "East Milton", "state": "MA", "country": "US", "icao": "KMQE", "lat": "42.20999908", "lon": "-71.11000061"}, {"city": "Bedford", "state": "MA", "country": "US", "icao": "KBED", "lat": "42.47000122", "lon": "-71.29000092"}, {"city": "Norwood", "state": "MA", "country": "US", "icao": "KOWD", "lat": "42.18999863", "lon": "-71.16999817"}]}, "pws": {"station": [{"neighborhood": "Central Square", "city": "Cambridge", "state": "MA", "country": "US", "id": "KMACAMBR4", "lat": 42.3633, "lon": -71.107529, "distance_km": 0, "distance_mi": 0}, {"neighborhood": "Central Square", "city": "Cambridge", "state": "MA", "country": "US", "id": "KMACAMBR4", "lat": 42.3633, "lon": -71.107529, "distance_km": 0, "distance_mi": 0}, {"neighborhood": "Cambridge", "city": "Cambridge", "state": "MA", "country": "US", "id": "KMACAMBR104", "lat": 42.364956, "lon": -71.108131, "distance_km": 0, "distance_mi": 0}, {"neighborhood": "Cambridge", "city": "Cambridgeport", "state": "MA", "country": "US", "id": "KMACAMBR111", "lat": 42.363483, "lon": -71.101807, "distance_km": 0, "distance_mi": 0}, {"neighborhood": "Area IV", "city": "Cambridge", "state": "MA", "country": "US", "id": "KMACAMBR47", "lat": 42.363949, "lon": -71.099426, "distance_km": 0, "distance_mi": 0}, {"neighborhood": "MIT (Green Bld Roof)", "city": "Cambridge", "state": "MA", "country": "US", "id": "KMACAMBR9", "lat": 42.360298, "lon": -71.089401, "distance_km": 1, "distance_mi": 0}, {"neighborhood": "West Cambridge", "city": "Cambridge", "state": "MA", "country": "US", "id": "KMACAMBR53", "lat": 42.373035, "lon": -71.123055, "distance_km": 1, "distance_mi": 1}, {"neighborhood": "Beacon & Carlton Street", "city": "Brookline", "state": "MA", "country": "US", "id": "KMABROOK5", "lat": 42.345982, "lon": -71.109337, "distance_km": 1, "distance_mi": 1}, {"neighborhood": "East Cambridge", "city": "Cambridge", "state": "MA", "country": "US", "id": "KMACAMBR94", "lat": 42.366394, "lon": -71.084282, "distance_km": 1, "distance_mi": 1}, {"neighborhood": "Back Bay West", "city": "Cambridge", "state": "MA", "country": "US", "id": "KMACAMBR25", "lat": 42.35004, "lon": -71.091385, "distance_km": 1, "distance_mi": 1}, {"neighborhood": "Prospect Hill", "city": "Somerville", "state": "MA", "country": "US", "id": "KMASOMER42", "lat": 42.379536, "lon": -71.092232, "distance_km": 2, "distance_mi": 1}, {"neighborhood": "Neighborhood Nine", "city": "Cambridge", "state": "MA", "country": "US", "id": "KMACAMBR27", "lat": 42.379566, "lon": -71.1231, "distance_km": 2, "distance_mi": 1}, {"neighborhood": "Cambridge", "city": "Cambridge", "state": "MA", "country": "US", "id": "KMACAMBR112", "lat": 42.375488, "lon": -71.129402, "distance_km": 2, "distance_mi": 1}, {"neighborhood": "Agassiz", "city": "Cambridge", "state": "MA", "country": "US", "id": "KMACAMBR71", "lat": 42.38356, "lon": -71.114128, "distance_km": 2, "distance_mi": 1}, {"neighborhood": "Cambridge, Charles River", "city": "Cambridge", "state": "MA", "country": "US", "id": "KMACAMBR70", "lat": 42.363503, "lon": -71.077904, "distance_km": 2, "distance_mi": 1}, {"neighborhood": "Neighborhood Nine", "city": "Cambridge", "state": "MA", "country": "US", "id": "KMACAMBR35", "lat": 42.386368, "lon": -71.121513, "distance_km": 2, "distance_mi": 1}, {"neighborhood": "Porter Square", "city": "Cambridge", "state": "MA", "country": "US", "id": "KMACAMBR14", "lat": 42.387863, "lon": -71.124321, "distance_km": 3, "distance_mi": 1}, {"neighborhood": "Beacon Hill", "city": "Cambridge", "state": "MA", "country": "US", "id": "KMACAMBR41", "lat": 42.357903, "lon": -71.070343, "distance_km": 3, "distance_mi": 1}, {"neighborhood": "Albion", "city": "Somerville", "state": "MA", "country": "US", "id": "KMASOMER9", "lat": 42.391739, "lon": -71.112427, "distance_km": 3, "distance_mi": 1}, {"neighborhood": "Somerville", "city": "Medford", "state": "MA", "country": "US", "id": "KMAMEDFO29", "lat": 42.391888, "lon": -71.10038, "distance_km": 3, "distance_mi": 1}, {"neighborhood": "Hancock Bike Path", "city": "Somerville", "state": "MA", "country": "US", "id": "KMASOMER61", "lat": 42.393936, "lon": -71.114845, "distance_km": 3, "distance_mi": 2}, {"neighborhood": "Charlestown", "city": "Charlestown", "state": "MA", "country": "US", "id": "KMACHARL15", "lat": 42.38023, "lon": -71.06871, "distance_km": 3, "distance_mi": 2}]}}}, "current_observation": {"image": {"url": "http://icons.wxug.com/graphics/wu2/logo_130x80.png", "title": "Weather Underground", "link": "http://www.wunderground.com"}, "display_location": {"full": "Cambridge, MA", "city": "Cambridge", "state": "MA", "state_name": "Massachusetts", "country": "US", "country_iso3166": "US", "zip": "02139", "magic": "1", "wmo": "99999", "latitude": "42.363300", "longitude": "-71.107529", "elevation": "4.9"}, "observation_location": {"full": "Central Square, Cambridge, Massachusetts", "city": "Central Square, Cambridge", "state": "Massachusetts", "country": "US", "country_iso3166": "US", "latitude": "42.363300", "longitude": "-71.107529", "elevation": "24 ft"}, "estimated": {}, "station_id": "KMACAMBR4", "observation_time": "Last Updated on July 11, 4:59 AM EDT", "observation_time_rfc822": "Tue, 11 Jul 2017 04:59:50 -0400", "observation_epoch": "1499763590", "local_time_rfc822": "Tue, 11 Jul 2017 04:59:51 -0400", "local_epoch": "1499763591", "local_tz_short": "EDT", "local_tz_long": "America/New_York", "local_tz_offset": "-0400", "weather": "Rain", "temperature_string": "70.1 F (21.2 C)", "temp_f": 70.1, "temp_c": 21.2, "relative_humidity": "91%", "wind_string": "From the South at 1.0 MPH Gusting to 5.0 MPH", "wind_dir": "South", "wind_degrees": 183, "wind_mph": 1.0, "wind_gust_mph": "5.0", "wind_kph": 1.6, "wind_gust_kph": "8.0", "pressure_mb": "1015", "pressure_in": "29.96", "pressure_trend": "-", "dewpoint_string": "67 F (20 C)", "dewpoint_f": 67, "dewpoint_c": 20, "heat_index_string": "NA", "heat_index_f": "NA", "heat_index_c": "NA", "windchill_string": "NA", "windchill_f": "NA", "windchill_c": "NA", "feelslike_string": "70.1 F (21.2 C)", "feelslike_f": "70.1", "feelslike_c": "21.2", "visibility_mi": "10.0", "visibility_km": "16.1", "solarradiation": "0", "UV": "0.0", "precip_1hr_string": "0.07 in ( 2 mm)", "precip_1hr_in": "0.07", "precip_1hr_metric": " 2", "precip_today_string": "0.07 in (2 mm)", "precip_today_in": "0.07", "precip_today_metric": "2", "icon": "rain", "icon_url": "http://icons.wxug.com/i/c/k/nt_rain.gif", "forecast_url": "http://www.wunderground.com/US/MA/Cambridge.html", "history_url": "http://www.wunderground.com/weatherstation/WXDailyHistory.asp?ID=KMACAMBR4", "ob_url": "http://www.wunderground.com/cgi-bin/findweather/getForecast?query=42.363300,-71.107529", "nowcast": ""}, "forecast": {"txt_forecast": {"date": "3:49 AM EDT", "forecastday": [{"period": 0, "icon": "chancerain", "icon_url": "http://icons.wxug.com/i/c/k/chancerain.gif", "title": "Tuesday", "fcttext": "Showers and a few thunderstorms likely. Gusty winds and small hail are possible. High around 85F. Winds SSW at 10 to 20 mph. Chance of rain 100%.", "fcttext_metric": "Variable clouds with showers and scattered thunderstorms. Gusty winds and small hail are possible. High 29C. Winds SSW at 15 to 25 km/h. Chance of rain 100%.", "pop": "100"}, {"period": 1, "icon": "nt_partlycloudy", "icon_url": "http://icons.wxug.com/i/c/k/nt_partlycloudy.gif", "title": "Tuesday Night", "fcttext": "Partly cloudy skies. A stray shower or thunderstorm is possible. Low around 70F. Winds SW at 10 to 15 mph.", "fcttext_metric": "Partly cloudy. A stray shower or thunderstorm is possible. Low 21C. Winds SW at 10 to 15 km/h.", "pop": "20"}, {"period": 2, "icon": "chancetstorms", "icon_url": "http://icons.wxug.com/i/c/k/chancetstorms.gif", "title": "Wednesday", "fcttext": "Partial cloudiness early, with scattered showers and thunderstorms in the afternoon. High around 85F. Winds E at 5 to 10 mph. Chance of rain 40%.", "fcttext_metric": "Partly cloudy in the morning followed by scattered thunderstorms in the afternoon. High near 30C. Winds ESE at 10 to 15 km/h. Chance of rain 40%.", "pop": "40"}, {"period": 3, "icon": "nt_chancetstorms", "icon_url": "http://icons.wxug.com/i/c/k/nt_chancetstorms.gif", "title": "Wednesday Night", "fcttext": "Variable clouds with scattered thunderstorms. Low 68F. Winds ESE at 5 to 10 mph. Chance of rain 50%.", "fcttext_metric": "Scattered thunderstorms during the evening, then cloudy skies overnight. Low near 20C. Winds ESE at 10 to 15 km/h. Chance of rain 40%.", "pop": "50"}, {"period": 4, "icon": "tstorms", "icon_url": "http://icons.wxug.com/i/c/k/tstorms.gif", "title": "Thursday", "fcttext": "Scattered thunderstorms in the morning becoming more widespread in the afternoon. High 79F. WSW winds shifting to NE at 10 to 15 mph. Chance of rain 90%.", "fcttext_metric": "Scattered thunderstorms in the morning, then mainly cloudy during the afternoon with thunderstorms likely. High 26C. SW winds shifting to NE at 15 to 25 km/h. Chance of rain 80%.", "pop": "90"}, {"period": 5, "icon": "nt_chancerain", "icon_url": "http://icons.wxug.com/i/c/k/nt_chancerain.gif", "title": "Thursday Night", "fcttext": "Rain showers early with overcast skies late. Low 59F. Winds NE at 5 to 10 mph. Chance of rain 60%.", "fcttext_metric": "Scattered thunderstorms in the evening. Cloudy skies overnight. Low 16C. Winds NE at 10 to 15 km/h. Chance of rain 60%.", "pop": "60"}, {"period": 6, "icon": "chancerain", "icon_url": "http://icons.wxug.com/i/c/k/chancerain.gif", "title": "Friday", "fcttext": "Cloudy early with showers for the afternoon hours. High 69F. Winds ENE at 10 to 15 mph. Chance of rain 60%.", "fcttext_metric": "Considerable cloudiness with occasional rain showers. High around 20C. Winds ENE at 10 to 15 km/h. Chance of rain 60%.", "pop": "60"}, {"period": 7, "icon": "nt_cloudy", "icon_url": "http://icons.wxug.com/i/c/k/nt_cloudy.gif", "title": "Friday Night", "fcttext": "Cloudy skies. Low 61F. Winds NE at 5 to 10 mph.", "fcttext_metric": "Showers in the evening, then cloudy overnight. Low 17C. Winds ENE at 10 to 15 km/h. Chance of rain 60%.", "pop": "20"}]}, "simpleforecast": {"forecastday": [{"date": {"epoch": "1499814000", "pretty": "7:00 PM EDT on July 11, 2017", "day": 11, "month": 7, "year": 2017, "yday": 191, "hour": 19, "min": "00", "sec": 0, "isdst": "1", "monthname": "July", "monthname_short": "Jul", "weekday_short": "Tue", "weekday": "Tuesday", "ampm": "PM", "tz_short": "EDT", "tz_long": "America/New_York"}, "period": 1, "high": {"fahrenheit": "85", "celsius": "29"}, "low": {"fahrenheit": "70", "celsius": "21"}, "conditions": "Chance of Rain", "icon": "chancerain", "icon_url": "http://icons.wxug.com/i/c/k/chancerain.gif", "skyicon": "", "pop": 100, "qpf_allday": {"in": 0.3, "mm": 8}, "qpf_day": {"in": 0.37, "mm": 9}, "qpf_night": {"in": 0.0, "mm": 0}, "snow_allday": {"in": 0.0, "cm": 0.0}, "snow_day": {"in": 0.0, "cm": 0.0}, "snow_night": {"in": 0.0, "cm": 0.0}, "maxwind": {"mph": 20, "kph": 32, "dir": "SSW", "degrees": 207}, "avewind": {"mph": 13, "kph": 21, "dir": "SSW", "degrees": 207}, "avehumidity": 76, "maxhumidity": 0, "minhumidity": 0}, {"date": {"epoch": "1499900400", "pretty": "7:00 PM EDT on July 12, 2017", "day": 12, "month": 7, "year": 2017, "yday": 192, "hour": 19, "min": "00", "sec": 0, "isdst": "1", "monthname": "July", "monthname_short": "Jul", "weekday_short": "Wed", "weekday": "Wednesday", "ampm": "PM", "tz_short": "EDT", "tz_long": "America/New_York"}, "period": 2, "high": {"fahrenheit": "85", "celsius": "29"}, "low": {"fahrenheit": "68", "celsius": "20"}, "conditions": "Chance of a Thunderstorm", "icon": "chancetstorms", "icon_url": "http://icons.wxug.com/i/c/k/chancetstorms.gif", "skyicon": "", "pop": 40, "qpf_allday": {"in": 0.06, "mm": 2}, "qpf_day": {"in": 0.04, "mm": 1}, "qpf_night": {"in": 0.02, "mm": 1}, "snow_allday": {"in": 0.0, "cm": 0.0}, "snow_day": {"in": 0.0, "cm": 0.0}, "snow_night": {"in": 0.0, "cm": 0.0}, "maxwind": {"mph": 10, "kph": 16, "dir": "E", "degrees": 97}, "avewind": {"mph": 9, "kph": 14, "dir": "E", "degrees": 97}, "avehumidity": 67, "maxhumidity": 0, "minhumidity": 0}, {"date": {"epoch": "1499986800", "pretty": "7:00 PM EDT on July 13, 2017", "day": 13, "month": 7, "year": 2017, "yday": 193, "hour": 19, "min": "00", "sec": 0, "isdst": "1", "monthname": "July", "monthname_short": "Jul", "weekday_short": "Thu", "weekday": "Thursday", "ampm": "PM", "tz_short": "EDT", "tz_long": "America/New_York"}, "period": 3, "high": {"fahrenheit": "79", "celsius": "26"}, "low": {"fahrenheit": "59", "celsius": "15"}, "conditions": "Thunderstorm", "icon": "tstorms", "icon_url": "http://icons.wxug.com/i/c/k/tstorms.gif", "skyicon": "", "pop": 90, "qpf_allday": {"in": 0.35, "mm": 9}, "qpf_day": {"in": 0.31, "mm": 8}, "qpf_night": {"in": 0.04, "mm": 1}, "snow_allday": {"in": 0.0, "cm": 0.0}, "snow_day": {"in": 0.0, "cm": 0.0}, "snow_night": {"in": 0.0, "cm": 0.0}, "maxwind": {"mph": 15, "kph": 24, "dir": "NNW", "degrees": 336}, "avewind": {"mph": 12, "kph": 19, "dir": "NNW", "degrees": 336}, "avehumidity": 83, "maxhumidity": 0, "minhumidity": 0}, {"date": {"epoch": "1500073200", "pretty": "7:00 PM EDT on July 14, 2017", "day": 14, "month": 7, "year": 2017, "yday": 194, "hour": 19, "min": "00", "sec": 0, "isdst": "1", "monthname": "July", "monthname_short": "Jul", "weekday_short": "Fri", "weekday": "Friday", "ampm": "PM", "tz_short": "EDT", "tz_long": "America/New_York"}, "period": 4, "high": {"fahrenheit": "69", "celsius": "21"}, "low": {"fahrenheit": "61", "celsius": "16"}, "conditions": "Chance of Rain", "icon": "chancerain", "icon_url": "http://icons.wxug.com/i/c/k/chancerain.gif", "skyicon": "", "pop": 60, "qpf_allday": {"in": 0.06, "mm": 2}, "qpf_day": {"in": 0.06, "mm": 2}, "qpf_night": {"in": 0.0, "mm": 0}, "snow_allday": {"in": 0.0, "cm": 0.0}, "snow_day": {"in": 0.0, "cm": 0.0}, "snow_night": {"in": 0.0, "cm": 0.0}, "maxwind": {"mph": 15, "kph": 24, "dir": "ENE", "degrees": 70}, "avewind": {"mph": 10, "kph": 16, "dir": "ENE", "degrees": 70}, "avehumidity": 75, "maxhumidity": 0, "minhumidity": 0}]}}}, "Belmont": {"response": {"version": "0.1", "termsofService": "http://www.wunderground.com/weather/api/d/terms.html", "features": {"forecast": 1, "geolookup": 1, "conditions": 1}}, "location": {"type": "CITY", "country": "US", "country_iso3166": "US", "country_name": "USA", "state": "MA", "city": "Belmont", "tz_short": "EDT", "tz_long": "America/New_York", "lat": "42.395500", "lon": "-71.181602", "zip": "02478", "magic": "1", "wmo": "99999", "l": "/q/zmw:02478.1.99999", "requesturl": "US/MA/Belmont.html", "wuiurl": "https://www.wunderground.com/US/MA/Belmont.html", "nearby_weather_stations": {"airport": {"station": [{"city": "Bedford", "state": "MA", "country": "US", "icao": "KBED", "lat": "42.47000122", "lon": "-71.29000092"}, {"city": "Boston", "state": "MA", "country": "US", "icao": "KBOS", "lat": "42.36000061", "lon": "-71.00000000"}, {"city": "East Milton", "state": "MA", "country": "US", "icao": "KMQE", "lat": "42.20999908", "lon": "-71.11000061"}, {"city": "Norwood", "state": "MA", "country": "US", "icao": "KOWD", "lat": "42.18999863", "lon": "-71.16999817"}]}, "pws": {"station": [{"neighborhood": "Lantern Road Belmont MA", "city": "Belmont", "state": "MA", "country": "US", "id": "KMABELMO12", "lat": 42.3955, "lon": -71.181602, "distance_km": 0, "distance_mi": 0}, {"neighborhood": "Lantern Road Belmont MA", "city": "Belmont", "state": "MA", "country": "US", "id": "KMABELMO12", "lat": 42.3955, "lon": -71.181602, "distance_km": 0, "distance_mi": 0}, {"neighborhood": "Washington Street", "city": "Watertown", "state": "MA", "country": "US", "id": "KMAWATER11", "lat": 42.386292, "lon": -71.174278, "distance_km": 1, "distance_mi": 0}, {"neighborhood": "Belmont", "city": "Belmont", "state": "MA", "country": "US", "id": "KMABELMO13", "lat": 42.403305, "lon": -71.171104, "distance_km": 1, "distance_mi": 0}, {"neighborhood": "Belmont - Burbank Elementary School", "city": "Belmont", "state": "MA", "country": "US", "id": "KMABELMO6", "lat": 42.388645, "lon": -71.16407, "distance_km": 1, "distance_mi": 0}, {"neighborhood": "Belmont Hill", "city": "Belmont", "state": "MA", "country": "US", "id": "KMABELMO4", "lat": 42.405403, "lon": -71.197937, "distance_km": 1, "distance_mi": 1}, {"neighborhood": "Belmont", "city": "Payson Park", "state": "MA", "country": "US", "id": "KMAPAYSO2", "lat": 42.387009, "lon": -71.163292, "distance_km": 1, "distance_mi": 1}, {"neighborhood": "Fisher Road", "city": "Arlington", "state": "MA", "country": "US", "id": "KMAARLIN7", "lat": 42.412155, "lon": -71.177887, "distance_km": 1, "distance_mi": 1}, {"neighborhood": "Arlington Heights", "city": "Arlington", "state": "MA", "country": "US", "id": "KMAARLIN22", "lat": 42.407188, "lon": -71.16507, "distance_km": 1, "distance_mi": 1}, {"neighborhood": "Cambridge Highlands", "city": "Cambridge", "state": "MA", "country": "US", "id": "KMACAMBR10", "lat": 42.39283, "lon": -71.156097, "distance_km": 2, "distance_mi": 1}, {"neighborhood": "Hathaway Circle", "city": "Lexington", "state": "MA", "country": "US", "id": "KMALEXIN15", "lat": 42.414478, "lon": -71.190491, "distance_km": 2, "distance_mi": 1}, {"neighborhood": "Kelwyn", "city": "Arlington", "state": "MA", "country": "US", "id": "KMAARLIN10", "lat": 42.403931, "lon": -71.155495, "distance_km": 2, "distance_mi": 1}, {"neighborhood": "Poets Corner", "city": "Arlington", "state": "MA", "country": "US", "id": "KMAARLIN13", "lat": 42.418915, "lon": -71.193169, "distance_km": 2, "distance_mi": 1}, {"neighborhood": "UMass Waltham Center", "city": "Waltham", "state": "MA", "country": "US", "id": "KMAWALTH10", "lat": 42.383987, "lon": -71.212288, "distance_km": 2, "distance_mi": 1}, {"neighborhood": "Cambridge Highlands", "city": "Cambridge", "state": "MA", "country": "US", "id": "KMACAMBR29", "lat": 42.390747, "lon": -71.145973, "distance_km": 2, "distance_mi": 1}, {"neighborhood": "Ottoson", "city": "Arlington", "state": "MA", "country": "US", "id": "KMAARLIN20", "lat": 42.421856, "lon": -71.174553, "distance_km": 2, "distance_mi": 1}, {"neighborhood": "Watertown Center", "city": "Watertown", "state": "MA", "country": "US", "id": "KMAWATER5", "lat": 42.368309, "lon": -71.183922, "distance_km": 3, "distance_mi": 1}, {"neighborhood": "Watertown", "city": "Watertown", "state": "MA", "country": "US", "id": "KMAWATER14", "lat": 42.367432, "lon": -71.173164, "distance_km": 3, "distance_mi": 1}, {"neighborhood": "Arlington Center", "city": "Arlington", "state": "MA", "country": "US", "id": "KMAARLIN9", "lat": 42.414703, "lon": -71.148865, "distance_km": 3, "distance_mi": 2}, {"neighborhood": "The Larches", "city": "Cambridge", "state": "MA", "country": "US", "id": "KMACAMBR82", "lat": 42.378208, "lon": -71.146263, "distance_km": 3, "distance_mi": 2}, {"neighborhood": "Walnut Street", "city": "Watertown", "state": "MA", "country": "US", "id": "KMAWATER8", "lat": 42.365273, "lon": -71.168449, "distance_km": 3, "distance_mi": 2}, {"neighborhood": "Mount Auburn Cemetery", "city": "Watertown", "state": "MA", "country": "US", "id": "KMAWATER3", "lat": 42.373451, "lon": -71.150314, "distance_km": 3, "distance_mi": 2}, {"neighborhood": "West Cambridge", "city": "Cambridge", "state": "MA", "country": "US", "id": "KMACAMBR22", "lat": 42.377537, "lon": -71.145432, "distance_km": 3, "distance_mi": 2}, {"neighborhood": "Dorf", "city": "Cambridge", "state": "MA", "country": "US", "id": "KMACAMBR87", "lat": 42.382679, "lon": -71.140259, "distance_km": 3, "distance_mi": 2}, {"neighborhood": "Arlington Heights", "city": "Arlington", "state": "MA", "country": "US", "id": "KMAARLIN8", "lat": 42.428852, "lon": -71.179298, "distance_km": 3, "distance_mi": 2}, {"neighborhood": "East Arlington", "city": "Arlington", "state": "MA", "country": "US", "id": "KMAARLIN4", "lat": 42.403801, "lon": -71.137604, "distance_km": 3, "distance_mi": 2}, {"neighborhood": "East Arlington", "city": "Arlington", "state": "MA", "country": "US", "id": "KMAARLIN19", "lat": 42.414982, "lon": -71.144119, "distance_km": 3, "distance_mi": 2}, {"neighborhood": "Lansdowne Road", "city": "Arlington", "state": "MA", "country": "US", "id": "KMAARLIN11", "lat": 42.426643, "lon": -71.163307, "distance_km": 3, "distance_mi": 2}, {"neighborhood": "Mt. Ephraim", "city": "Lexington", "state": "MA", "country": "US", "id": "KMALEXIN5", "lat": 42.428169, "lon": -71.194672, "distance_km": 3, "distance_mi": 2}, {"neighborhood": "West Cambridge", "city": "Cambridge", "state": "MA", "country": "US", "id": "KMACAMBR77", "lat": 42.381783, "lon": -71.138863, "distance_km": 3, "distance_mi": 2}, {"neighborhood": "East Lexington", "city": "Lexington", "state": "MA", "country": "US", "id": "KMALEXIN27", "lat": 42.4212, "lon": -71.213013, "distance_km": 3, "distance_mi": 2}, {"neighborhood": "West Somerville, MA", "city": "Somerville", "state": "MA", "country": "US", "id": "KMASOMER60", "lat": 42.404793, "lon": -71.132713, "distance_km": 4, "distance_mi": 2}, {"neighborhood": "Hodge Road", "city": "Winchester", "state": "MA", "country": "US", "id": "KMAWINCH33", "lat": 42.430073, "lon": -71.160378, "distance_km": 4, "distance_mi": 2}, {"neighborhood": "Turkey Hill", "city": "Arlington", "state": "MA", "country": "US", "id": "KMAARLIN21", "lat": 42.434048, "lon": -71.17572, "distance_km": 4, "distance_mi": 2}]}}}, "current_observation": {"image": {"url": "http://icons.wxug.com/graphics/wu2/logo_130x80.png", "title": "Weather Underground", "link": "http://www.wunderground.com"}, "display_location": {"full": "Belmont, MA", "city": "Belmont", "state": "MA", "state_name": "Massachusetts", "country": "US", "country_iso3166": "US", "zip": "02478", "magic": "1", "wmo": "99999", "latitude": "42.395500", "longitude": "-71.181602", "elevation": "13.4"}, "observation_location": {"full": "Lantern Road Belmont MA, Belmont, Massachusetts", "city": "Lantern Road Belmont MA, Belmont", "state": "Massachusetts", "country": "US", "country_iso3166": "US", "latitude": "42.395500", "longitude": "-71.181602", "elevation": "207 ft"}, "estimated": {}, "station_id": "KMABELMO12", "observation_time": "Last Updated on July 11, 4:59 AM EDT", "observation_time_rfc822": "Tue, 11 Jul 2017 04:59:44 -0400", "observation_epoch": "1499763584", "local_time_rfc822": "Tue, 11 Jul 2017 04:59:51 -0400", "local_epoch": "1499763591", "local_tz_short": "EDT", "local_tz_long": "America/New_York", "local_tz_offset": "-0400", "weather": "Rain", "temperature_string": "68.4 F (20.2 C)", "temp_f": 68.4, "temp_c": 20.2, "relative_humidity": "99%", "wind_string": "Calm", "wind_dir": "WNW", "wind_degrees": 292, "wind_mph": 0.0, "wind_gust_mph": 0, "wind_kph": 0, "wind_gust_kph": 0, "pressure_mb": "1015", "pressure_in": "29.99", "pressure_trend": "-", "dewpoint_string": "68 F (20 C)", "dewpoint_f": 68, "dewpoint_c": 20, "heat_index_string": "NA", "heat_index_f": "NA", "heat_index_c": "NA", "windchill_string": "NA", "windchill_f": "NA", "windchill_c": "NA", "feelslike_string": "68.4 F (20.2 C)", "feelslike_f": "68.4", "feelslike_c": "20.2", "visibility_mi": "8.0", "visibility_km": "12.9", "solarradiation": "0", "UV": "0.0", "precip_1hr_string": "0.07 in ( 2 mm)", "precip_1hr_in": "0.07", "precip_1hr_metric": " 2", "precip_today_string": "0.05 in (1 mm)", "precip_today_in": "0.05", "precip_today_metric": "1", "icon": "rain", "icon_url": "http://icons.wxug.com/i/c/k/nt_rain.gif", "forecast_url": "http://www.wunderground.com/US/MA/Belmont.html", "history_url": "http://www.wunderground.com/weatherstation/WXDailyHistory.asp?ID=KMABELMO12", "ob_url": "http://www.wunderground.com/cgi-bin/findweather/getForecast?query=42.395500,-71.181602", "nowcast": ""}, "forecast": {"txt_forecast": {"date": "4:29 AM EDT", "forecastday": [{"period": 0, "icon": "chancerain", "icon_url": "http://icons.wxug.com/i/c/k/chancerain.gif", "title": "Tuesday", "fcttext": "Variable clouds with showers and scattered thunderstorms. Gusty winds and small hail are possible. High 84F. Winds SSW at 10 to 15 mph. Chance of rain 100%.", "fcttext_metric": "Variable clouds with showers and scattered thunderstorms. Gusty winds and small hail are possible. High 29C. Winds SSW at 10 to 15 km/h. Chance of rain 100%.", "pop": "100"}, {"period": 1, "icon": "nt_partlycloudy", "icon_url": "http://icons.wxug.com/i/c/k/nt_partlycloudy.gif", "title": "Tuesday Night", "fcttext": "Partly cloudy. A stray shower or thunderstorm is possible. Low 69F. Winds SW at 5 to 10 mph.", "fcttext_metric": "Some clouds. A stray shower or thunderstorm is possible. Low around 20C. Winds SW at 10 to 15 km/h.", "pop": "20"}, {"period": 2, "icon": "chancetstorms", "icon_url": "http://icons.wxug.com/i/c/k/chancetstorms.gif", "title": "Wednesday", "fcttext": "Partly cloudy in the morning followed by scattered thunderstorms in the afternoon. High 86F. Winds E at 5 to 10 mph. Chance of rain 50%.", "fcttext_metric": "Partial cloudiness early, with scattered showers and thunderstorms in the afternoon. High 31C. Winds NW at 10 to 15 km/h. Chance of rain 40%.", "pop": "50"}, {"period": 3, "icon": "nt_chancetstorms", "icon_url": "http://icons.wxug.com/i/c/k/nt_chancetstorms.gif", "title": "Wednesday Night", "fcttext": "Scattered thunderstorms. Low 68F. Winds ESE at 5 to 10 mph. Chance of rain 40%.", "fcttext_metric": "Scattered showers and thunderstorms, especially before midnight. Low near 20C. Winds light and variable. Chance of rain 40%.", "pop": "40"}, {"period": 4, "icon": "tstorms", "icon_url": "http://icons.wxug.com/i/c/k/tstorms.gif", "title": "Thursday", "fcttext": "Scattered thunderstorms in the morning becoming more widespread in the afternoon. High 78F. WSW winds shifting to NE at 10 to 15 mph. Chance of rain 80%.", "fcttext_metric": "Scattered thunderstorms in the morning becoming more widespread in the afternoon. High 26C. Winds NNE at 10 to 15 km/h. Chance of rain 80%.", "pop": "80"}, {"period": 5, "icon": "nt_chancetstorms", "icon_url": "http://icons.wxug.com/i/c/k/nt_chancetstorms.gif", "title": "Thursday Night", "fcttext": "Thunderstorms during the evening, then cloudy skies overnight. Low 59F. Winds NE at 5 to 10 mph. Chance of rain 80%.", "fcttext_metric": "Thunderstorms during the evening, then cloudy skies overnight. Low near 15C. Winds NE at 10 to 15 km/h. Chance of rain 80%.", "pop": "80"}, {"period": 6, "icon": "chancerain", "icon_url": "http://icons.wxug.com/i/c/k/chancerain.gif", "title": "Friday", "fcttext": "Overcast with rain showers at times. High 69F. Winds ENE at 5 to 10 mph. Chance of rain 60%.", "fcttext_metric": "Cloudy with occasional rain showers. High 21C. Winds ENE at 10 to 15 km/h. Chance of rain 60%.", "pop": "60"}, {"period": 7, "icon": "nt_chancerain", "icon_url": "http://icons.wxug.com/i/c/k/nt_chancerain.gif", "title": "Friday Night", "fcttext": "Rain showers early with overcast skies late. Low 61F. Winds ENE at 5 to 10 mph. Chance of rain 60%.", "fcttext_metric": "Showers in the evening, then cloudy overnight. Low 16C. Winds ENE at 10 to 15 km/h. Chance of rain 60%.", "pop": "60"}]}, "simpleforecast": {"forecastday": [{"date": {"epoch": "1499814000", "pretty": "7:00 PM EDT on July 11, 2017", "day": 11, "month": 7, "year": 2017, "yday": 191, "hour": 19, "min": "00", "sec": 0, "isdst": "1", "monthname": "July", "monthname_short": "Jul", "weekday_short": "Tue", "weekday": "Tuesday", "ampm": "PM", "tz_short": "EDT", "tz_long": "America/New_York"}, "period": 1, "high": {"fahrenheit": "84", "celsius": "29"}, "low": {"fahrenheit": "69", "celsius": "21"}, "conditions": "Chance of Rain", "icon": "chancerain", "icon_url": "http://icons.wxug.com/i/c/k/chancerain.gif", "skyicon": "", "pop": 100, "qpf_allday": {"in": 0.37, "mm": 9}, "qpf_day": {"in": 0.41, "mm": 10}, "qpf_night": {"in": 0.0, "mm": 0}, "snow_allday": {"in": 0.0, "cm": 0.0}, "snow_day": {"in": 0.0, "cm": 0.0}, "snow_night": {"in": 0.0, "cm": 0.0}, "maxwind": {"mph": 15, "kph": 24, "dir": "SSW", "degrees": 208}, "avewind": {"mph": 10, "kph": 16, "dir": "SSW", "degrees": 208}, "avehumidity": 78, "maxhumidity": 0, "minhumidity": 0}, {"date": {"epoch": "1499900400", "pretty": "7:00 PM EDT on July 12, 2017", "day": 12, "month": 7, "year": 2017, "yday": 192, "hour": 19, "min": "00", "sec": 0, "isdst": "1", "monthname": "July", "monthname_short": "Jul", "weekday_short": "Wed", "weekday": "Wednesday", "ampm": "PM", "tz_short": "EDT", "tz_long": "America/New_York"}, "period": 2, "high": {"fahrenheit": "86", "celsius": "30"}, "low": {"fahrenheit": "68", "celsius": "20"}, "conditions": "Chance of a Thunderstorm", "icon": "chancetstorms", "icon_url": "http://icons.wxug.com/i/c/k/chancetstorms.gif", "skyicon": "", "pop": 50, "qpf_allday": {"in": 0.11, "mm": 3}, "qpf_day": {"in": 0.07, "mm": 2}, "qpf_night": {"in": 0.03, "mm": 1}, "snow_allday": {"in": 0.0, "cm": 0.0}, "snow_day": {"in": 0.0, "cm": 0.0}, "snow_night": {"in": 0.0, "cm": 0.0}, "maxwind": {"mph": 10, "kph": 16, "dir": "E", "degrees": 97}, "avewind": {"mph": 7, "kph": 11, "dir": "E", "degrees": 97}, "avehumidity": 66, "maxhumidity": 0, "minhumidity": 0}, {"date": {"epoch": "1499986800", "pretty": "7:00 PM EDT on July 13, 2017", "day": 13, "month": 7, "year": 2017, "yday": 193, "hour": 19, "min": "00", "sec": 0, "isdst": "1", "monthname": "July", "monthname_short": "Jul", "weekday_short": "Thu", "weekday": "Thursday", "ampm": "PM", "tz_short": "EDT", "tz_long": "America/New_York"}, "period": 3, "high": {"fahrenheit": "78", "celsius": "26"}, "low": {"fahrenheit": "59", "celsius": "15"}, "conditions": "Thunderstorm", "icon": "tstorms", "icon_url": "http://icons.wxug.com/i/c/k/tstorms.gif", "skyicon": "", "pop": 80, "qpf_allday": {"in": 0.31, "mm": 8}, "qpf_day": {"in": 0.25, "mm": 6}, "qpf_night": {"in": 0.06, "mm": 2}, "snow_allday": {"in": 0.0, "cm": 0.0}, "snow_day": {"in": 0.0, "cm": 0.0}, "snow_night": {"in": 0.0, "cm": 0.0}, "maxwind": {"mph": 15, "kph": 24, "dir": "NE", "degrees": 42}, "avewind": {"mph": 10, "kph": 16, "dir": "NE", "degrees": 42}, "avehumidity": 80, "maxhumidity": 0, "minhumidity": 0}, {"date": {"epoch": "1500073200", "pretty": "7:00 PM EDT on July 14, 2017", "day": 14, "month": 7, "year": 2017, "yday": 194, "hour": 19, "min": "00", "sec": 0, "isdst": "1", "monthname": "July", "monthname_short": "Jul", "weekday_short": "Fri", "weekday": "Friday", "ampm": "PM", "tz_short": "EDT", "tz_long": "America/New_York"}, "period": 4, "high": {"fahrenheit": "69", "celsius": "21"}, "low": {"fahrenheit": "61", "celsius": "16"}, "conditions": "Chance of Rain", "icon": "chancerain", "icon_url": "http://icons.wxug.com/i/c/k/chancerain.gif", "skyicon": "", "pop": 60, "qpf_allday": {"in": 0.39, "mm": 10}, "qpf_day": {"in": 0.29, "mm": 7}, "qpf_night": {"in": 0.1, "mm": 3}, "snow_allday": {"in": 0.0, "cm": 0.0}, "snow_day": {"in": 0.0, "cm": 0.0}, "snow_night": {"in": 0.0, "cm": 0.0}, "maxwind": {"mph": 10, "kph": 16, "dir": "ENE", "degrees": 68}, "avewind": {"mph": 9, "kph": 14, "dir": "ENE", "degrees": 68}, "avehumidity": 74, "maxhumidity": 0, "minhumidity": 0}]}}}, "Malden": {"response": {"version": "0.1", "termsofService": "http://www.wunderground.com/weather/api/d/terms.html", "features": {"forecast": 1, "geolookup": 1, "conditions": 1}}, "location": {"type": "CITY", "country": "US", "country_iso3166": "US", "country_name": "USA", "state": "MA", "city": "Malden", "tz_short": "EDT", "tz_long": "America/New_York", "lat": "42.435493", "lon": "-71.038391", "zip": "02148", "magic": "1", "wmo": "99999", "l": "/q/zmw:02148.1.99999", "requesturl": "US/MA/Malden.html", "wuiurl": "https://www.wunderground.com/US/MA/Malden.html", "nearby_weather_stations": {"airport": {"station": [{"city": "Boston", "state": "MA", "country": "US", "icao": "KBOS", "lat": "42.36000061", "lon": "-71.00000000"}, {"city": "Bedford", "state": "MA", "country": "US", "icao": "KBED", "lat": "42.47000122", "lon": "-71.29000092"}, {"city": "Beverly", "state": "MA", "country": "US", "icao": "KBVY", "lat": "42.58000183", "lon": "-70.91999817"}, {"city": "East Milton", "state": "MA", "country": "US", "icao": "KMQE", "lat": "42.20999908", "lon": "-71.11000061"}]}, "pws": {"station": [{"neighborhood": "Maplewood Sq @ MCC's", "city": "Malden", "state": "MA", "country": "US", "id": "KMAMALDE6", "lat": 42.435493, "lon": -71.038391, "distance_km": 0, "distance_mi": 0}, {"neighborhood": "Maplewood Sq @ MCC's", "city": "Malden", "state": "MA", "country": "US", "id": "KMAMALDE6", "lat": 42.435493, "lon": -71.038391, "distance_km": 0, "distance_mi": 0}, {"neighborhood": "Webster St", "city": "Malden", "state": "MA", "country": "US", "id": "KMAMALDE8", "lat": 42.431988, "lon": -71.040199, "distance_km": 0, "distance_mi": 0}, {"neighborhood": "PAPA'S PLACE", "city": "MALDEN", "state": "MA", "country": "US", "id": "KMAMALDE1", "lat": 42.439201, "lon": -71.051399, "distance_km": 1, "distance_mi": 0}, {"neighborhood": "Glendale", "city": "Everett", "state": "MA", "country": "US", "id": "KMAEVERE4", "lat": 42.413029, "lon": -71.039413, "distance_km": 2, "distance_mi": 1}, {"neighborhood": "Northwest Pine Banks", "city": "Melrose", "state": "MA", "country": "US", "id": "KMAMELRO13", "lat": 42.445686, "lon": -71.066185, "distance_km": 2, "distance_mi": 1}, {"neighborhood": "Oak Grove", "city": "Malden", "state": "MA", "country": "US", "id": "KMAMALDE11", "lat": 42.43713, "lon": -71.071281, "distance_km": 2, "distance_mi": 1}, {"neighborhood": "East Side Melrose", "city": "Melrose", "state": "MA", "country": "US", "id": "KMAMELRO1", "lat": 42.460545, "lon": -71.053864, "distance_km": 3, "distance_mi": 1}, {"neighborhood": "Prattville hills", "city": "Chelsea", "state": "MA", "country": "US", "id": "KMACHELS2", "lat": 42.40741, "lon": -71.035759, "distance_km": 3, "distance_mi": 1}, {"neighborhood": "Malden West", "city": "Malden", "state": "MA", "country": "US", "id": "KMAMALDE3", "lat": 42.426998, "lon": -71.074997, "distance_km": 3, "distance_mi": 1}, {"neighborhood": "Cottage Street", "city": "Melrose", "state": "MA", "country": "US", "id": "KMAMELRO16", "lat": 42.452171, "lon": -71.072372, "distance_km": 3, "distance_mi": 2}, {"neighborhood": "Malden West End", "city": "Malden", "state": "MA", "country": "US", "id": "KMAMALDE9", "lat": 42.432465, "lon": -71.08107, "distance_km": 3, "distance_mi": 2}, {"neighborhood": "Edgeworth", "city": "Malden", "state": "MA", "country": "US", "id": "KMAMALDE15", "lat": 42.421875, "lon": -71.082962, "distance_km": 3, "distance_mi": 2}, {"neighborhood": "Horace Mann", "city": "Melrose", "state": "MA", "country": "US", "id": "KMAMELRO12", "lat": 42.46978, "lon": -71.060951, "distance_km": 4, "distance_mi": 2}, {"neighborhood": "Highlands", "city": "Melrose", "state": "MA", "country": "US", "id": "KMAMELRO6", "lat": 42.463642, "lon": -71.074821, "distance_km": 4, "distance_mi": 2}, {"neighborhood": "Murray Hill Rd, Medford", "city": "Medford", "state": "MA", "country": "US", "id": "KMAMEDFO28", "lat": 42.426556, "lon": -71.09063, "distance_km": 4, "distance_mi": 2}, {"neighborhood": "Chelsea", "city": "Chelsea", "state": "MA", "country": "US", "id": "KMACHELS6", "lat": 42.395206, "lon": -71.035606, "distance_km": 4, "distance_mi": 2}, {"neighborhood": "Melrose Highlands", "city": "Melrose", "state": "MA", "country": "US", "id": "KMAMELRO11", "lat": 42.471741, "lon": -71.064835, "distance_km": 4, "distance_mi": 2}, {"neighborhood": "Northwest Melrose", "city": "Melrose", "state": "MA", "country": "US", "id": "KMAMELRO10", "lat": 42.471951, "lon": -71.066109, "distance_km": 4, "distance_mi": 2}, {"neighborhood": "Melrose Street", "city": "Stoneham", "state": "MA", "country": "US", "id": "KMASTONE10", "lat": 42.469063, "lon": -71.075066, "distance_km": 4, "distance_mi": 2}, {"neighborhood": "Greenwood", "city": "Wakefield", "state": "MA", "country": "US", "id": "KMAWAKEF11", "lat": 42.477005, "lon": -71.067184, "distance_km": 5, "distance_mi": 3}, {"neighborhood": "AmeliaDam", "city": "Everett", "state": "MA", "country": "US", "id": "KMAEVERE2", "lat": 42.394878, "lon": -71.075539, "distance_km": 5, "distance_mi": 3}, {"neighborhood": "Emerson St. Across from Police Station", "city": "Medford", "state": "MA", "country": "US", "id": "KMAMEDFO4", "lat": 42.415516, "lon": -71.111511, "distance_km": 6, "distance_mi": 3}, {"neighborhood": "Lawrence Estates Garden Society", "city": "Medford", "state": "MA", "country": "US", "id": "KMAMEDFO16", "lat": 42.426685, "lon": -71.118439, "distance_km": 6, "distance_mi": 3}, {"neighborhood": "Somerville", "city": "Medford", "state": "MA", "country": "US", "id": "KMAMEDFO29", "lat": 42.391888, "lon": -71.10038, "distance_km": 7, "distance_mi": 4}, {"neighborhood": "West Medford", "city": "Medford", "state": "MA", "country": "US", "id": "KMAMEDFO14", "lat": 42.426517, "lon": -71.123611, "distance_km": 7, "distance_mi": 4}, {"neighborhood": "Hillside", "city": "Medford", "state": "MA", "country": "US", "id": "KMAMEDFO34", "lat": 42.410072, "lon": -71.118439, "distance_km": 7, "distance_mi": 4}, {"neighborhood": "Tufts University", "city": "Medford", "state": "MA", "country": "US", "id": "KMAMEDFO17", "lat": 42.408577, "lon": -71.118286, "distance_km": 7, "distance_mi": 4}, {"neighborhood": "Medford, MA", "city": "Medford", "state": "MA", "country": "US", "id": "KMAMEDFO31", "lat": 42.414062, "lon": -71.123375, "distance_km": 7, "distance_mi": 4}, {"neighborhood": "West Medford", "city": "Medford", "state": "MA", "country": "US", "id": "KMAMEDFO33", "lat": 42.42979, "lon": -71.130653, "distance_km": 7, "distance_mi": 4}, {"neighborhood": "Stoneham", "city": "Melrose", "state": "MA", "country": "US", "id": "KMAMELRO17", "lat": 42.461231, "lon": -71.07901, "distance_km": 4, "distance_mi": 2}]}}}, "current_observation": {"image": {"url": "http://icons.wxug.com/graphics/wu2/logo_130x80.png", "title": "Weather Underground", "link": "http://www.wunderground.com"}, "display_location": {"full": "Malden, MA", "city": "Malden", "state": "MA", "state_name": "Massachusetts", "country": "US", "country_iso3166": "US", "zip": "02148", "magic": "1", "wmo": "99999", "latitude": "42.435493", "longitude": "-71.038391", "elevation": "5.2"}, "observation_location": {"full": "Maplewood Sq @ MCC's, Malden, Massachusetts", "city": "Maplewood Sq @ MCC's, Malden", "state": "Massachusetts", "country": "US", "country_iso3166": "US", "latitude": "42.435493", "longitude": "-71.038391", "elevation": "46 ft"}, "estimated": {}, "station_id": "KMAMALDE6", "observation_time": "Last Updated on July 11, 4:59 AM EDT", "observation_time_rfc822": "Tue, 11 Jul 2017 04:59:40 -0400", "observation_epoch": "1499763580", "local_time_rfc822": "Tue, 11 Jul 2017 04:59:52 -0400", "local_epoch": "1499763592", "local_tz_short": "EDT", "local_tz_long": "America/New_York", "local_tz_offset": "-0400", "weather": "Rain", "temperature_string": "70.0 F (21.1 C)", "temp_f": 70.0, "temp_c": 21.1, "relative_humidity": "92%", "wind_string": "Calm", "wind_dir": "West", "wind_degrees": 273, "wind_mph": 0.2, "wind_gust_mph": "2.5", "wind_kph": 0, "wind_gust_kph": "4.0", "pressure_mb": "1015", "pressure_in": "29.96", "pressure_trend": "-", "dewpoint_string": "68 F (20 C)", "dewpoint_f": 68, "dewpoint_c": 20, "heat_index_string": "NA", "heat_index_f": "NA", "heat_index_c": "NA", "windchill_string": "NA", "windchill_f": "NA", "windchill_c": "NA", "feelslike_string": "70.0 F (21.1 C)", "feelslike_f": "70.0", "feelslike_c": "21.1", "visibility_mi": "10.0", "visibility_km": "16.1", "solarradiation": "0", "UV": "0.0", "precip_1hr_string": "0.00 in ( 0 mm)", "precip_1hr_in": "0.00", "precip_1hr_metric": " 0", "precip_today_string": "0.20 in (5 mm)", "precip_today_in": "0.20", "precip_today_metric": "5", "icon": "rain", "icon_url": "http://icons.wxug.com/i/c/k/nt_rain.gif", "forecast_url": "http://www.wunderground.com/US/MA/Malden.html", "history_url": "http://www.wunderground.com/weatherstation/WXDailyHistory.asp?ID=KMAMALDE6", "ob_url": "http://www.wunderground.com/cgi-bin/findweather/getForecast?query=42.435493,-71.038391", "nowcast": ""}, "forecast": {"txt_forecast": {"date": "4:05 AM EDT", "forecastday": [{"period": 0, "icon": "chancerain", "icon_url": "http://icons.wxug.com/i/c/k/chancerain.gif", "title": "Tuesday", "fcttext": "Showers and a few thunderstorms likely. Gusty winds and small hail are possible. High 84F. Winds SSW at 10 to 15 mph. Chance of rain 100%.", "fcttext_metric": "Showers and a few thunderstorms likely. Gusty winds and small hail are possible. High 29C. Winds SSW at 15 to 25 km/h. Chance of rain 100%.", "pop": "100"}, {"period": 1, "icon": "nt_partlycloudy", "icon_url": "http://icons.wxug.com/i/c/k/nt_partlycloudy.gif", "title": "Tuesday Night", "fcttext": "Partly cloudy. A stray shower or thunderstorm is possible. Low around 70F. Winds SW at 5 to 10 mph.", "fcttext_metric": "A few clouds. A stray shower or thunderstorm is possible. Low 21C. Winds SW at 10 to 15 km/h.", "pop": "20"}, {"period": 2, "icon": "chancetstorms", "icon_url": "http://icons.wxug.com/i/c/k/chancetstorms.gif", "title": "Wednesday", "fcttext": "Partly cloudy in the morning followed by scattered thunderstorms in the afternoon. High 83F. Winds SE at 5 to 10 mph. Chance of rain 40%.", "fcttext_metric": "Partial cloudiness early, with scattered showers and thunderstorms in the afternoon. High 28C. Winds SE at 10 to 15 km/h. Chance of rain 40%.", "pop": "40"}, {"period": 3, "icon": "nt_chancetstorms", "icon_url": "http://icons.wxug.com/i/c/k/nt_chancetstorms.gif", "title": "Wednesday Night", "fcttext": "Scattered thunderstorms during the evening, then cloudy skies overnight. Low 68F. Winds ESE at 5 to 10 mph. Chance of rain 50%.", "fcttext_metric": "Scattered thunderstorms in the evening. Cloudy skies overnight. Low near 20C. Winds light and variable. Chance of rain 50%.", "pop": "50"}, {"period": 4, "icon": "tstorms", "icon_url": "http://icons.wxug.com/i/c/k/tstorms.gif", "title": "Thursday", "fcttext": "Scattered thunderstorms in the morning, then mainly cloudy during the afternoon with thunderstorms likely. High 77F. SW winds shifting to NE at 10 to 15 mph. Chance of rain 90%.", "fcttext_metric": "Scattered thunderstorms in the morning becoming more widespread in the afternoon. High around 25C. SW winds shifting to NE at 15 to 25 km/h. Chance of rain 90%.", "pop": "90"}, {"period": 5, "icon": "nt_chancetstorms", "icon_url": "http://icons.wxug.com/i/c/k/nt_chancetstorms.gif", "title": "Thursday Night", "fcttext": "Thunderstorms in the evening will give way to cloudy skies overnight. Low around 60F. Winds NE at 5 to 10 mph. Chance of rain 80%.", "fcttext_metric": "Thunderstorms in the evening will give way to cloudy skies overnight. Low around 15C. Winds NE at 10 to 15 km/h. Chance of rain 80%.", "pop": "80"}, {"period": 6, "icon": "chancerain", "icon_url": "http://icons.wxug.com/i/c/k/chancerain.gif", "title": "Friday", "fcttext": "Considerable cloudiness with occasional rain showers. High 69F. Winds ENE at 5 to 10 mph. Chance of rain 60%.", "fcttext_metric": "Cloudy with occasional rain showers. High near 20C. Winds ENE at 10 to 15 km/h. Chance of rain 60%.", "pop": "60"}, {"period": 7, "icon": "nt_chancerain", "icon_url": "http://icons.wxug.com/i/c/k/nt_chancerain.gif", "title": "Friday Night", "fcttext": "Showers in the evening, then cloudy overnight. Low 62F. Winds ENE at 5 to 10 mph. Chance of rain 60%.", "fcttext_metric": "Showers in the evening, then cloudy overnight. Low 17C. Winds ENE at 10 to 15 km/h. Chance of rain 60%.", "pop": "60"}]}, "simpleforecast": {"forecastday": [{"date": {"epoch": "1499814000", "pretty": "7:00 PM EDT on July 11, 2017", "day": 11, "month": 7, "year": 2017, "yday": 191, "hour": 19, "min": "00", "sec": 0, "isdst": "1", "monthname": "July", "monthname_short": "Jul", "weekday_short": "Tue", "weekday": "Tuesday", "ampm": "PM", "tz_short": "EDT", "tz_long": "America/New_York"}, "period": 1, "high": {"fahrenheit": "84", "celsius": "29"}, "low": {"fahrenheit": "70", "celsius": "21"}, "conditions": "Chance of Rain", "icon": "chancerain", "icon_url": "http://icons.wxug.com/i/c/k/chancerain.gif", "skyicon": "", "pop": 100, "qpf_allday": {"in": 0.55, "mm": 14}, "qpf_day": {"in": 0.62, "mm": 16}, "qpf_night": {"in": 0.0, "mm": 0}, "snow_allday": {"in": 0.0, "cm": 0.0}, "snow_day": {"in": 0.0, "cm": 0.0}, "snow_night": {"in": 0.0, "cm": 0.0}, "maxwind": {"mph": 15, "kph": 24, "dir": "SSW", "degrees": 204}, "avewind": {"mph": 10, "kph": 16, "dir": "SSW", "degrees": 204}, "avehumidity": 79, "maxhumidity": 0, "minhumidity": 0}, {"date": {"epoch": "1499900400", "pretty": "7:00 PM EDT on July 12, 2017", "day": 12, "month": 7, "year": 2017, "yday": 192, "hour": 19, "min": "00", "sec": 0, "isdst": "1", "monthname": "July", "monthname_short": "Jul", "weekday_short": "Wed", "weekday": "Wednesday", "ampm": "PM", "tz_short": "EDT", "tz_long": "America/New_York"}, "period": 2, "high": {"fahrenheit": "83", "celsius": "28"}, "low": {"fahrenheit": "68", "celsius": "20"}, "conditions": "Chance of a Thunderstorm", "icon": "chancetstorms", "icon_url": "http://icons.wxug.com/i/c/k/chancetstorms.gif", "skyicon": "", "pop": 40, "qpf_allday": {"in": 0.06, "mm": 2}, "qpf_day": {"in": 0.03, "mm": 1}, "qpf_night": {"in": 0.03, "mm": 1}, "snow_allday": {"in": 0.0, "cm": 0.0}, "snow_day": {"in": 0.0, "cm": 0.0}, "snow_night": {"in": 0.0, "cm": 0.0}, "maxwind": {"mph": 10, "kph": 16, "dir": "SE", "degrees": 128}, "avewind": {"mph": 8, "kph": 13, "dir": "SE", "degrees": 128}, "avehumidity": 71, "maxhumidity": 0, "minhumidity": 0}, {"date": {"epoch": "1499986800", "pretty": "7:00 PM EDT on July 13, 2017", "day": 13, "month": 7, "year": 2017, "yday": 193, "hour": 19, "min": "00", "sec": 0, "isdst": "1", "monthname": "July", "monthname_short": "Jul", "weekday_short": "Thu", "weekday": "Thursday", "ampm": "PM", "tz_short": "EDT", "tz_long": "America/New_York"}, "period": 3, "high": {"fahrenheit": "77", "celsius": "25"}, "low": {"fahrenheit": "60", "celsius": "16"}, "conditions": "Thunderstorm", "icon": "tstorms", "icon_url": "http://icons.wxug.com/i/c/k/tstorms.gif", "skyicon": "", "pop": 90, "qpf_allday": {"in": 0.3, "mm": 8}, "qpf_day": {"in": 0.24, "mm": 6}, "qpf_night": {"in": 0.06, "mm": 2}, "snow_allday": {"in": 0.0, "cm": 0.0}, "snow_day": {"in": 0.0, "cm": 0.0}, "snow_night": {"in": 0.0, "cm": 0.0}, "maxwind": {"mph": 15, "kph": 24, "dir": "NE", "degrees": 54}, "avewind": {"mph": 11, "kph": 18, "dir": "NE", "degrees": 54}, "avehumidity": 83, "maxhumidity": 0, "minhumidity": 0}, {"date": {"epoch": "1500073200", "pretty": "7:00 PM EDT on July 14, 2017", "day": 14, "month": 7, "year": 2017, "yday": 194, "hour": 19, "min": "00", "sec": 0, "isdst": "1", "monthname": "July", "monthname_short": "Jul", "weekday_short": "Fri", "weekday": "Friday", "ampm": "PM", "tz_short": "EDT", "tz_long": "America/New_York"}, "period": 4, "high": {"fahrenheit": "69", "celsius": "21"}, "low": {"fahrenheit": "62", "celsius": "17"}, "conditions": "Chance of Rain", "icon": "chancerain", "icon_url": "http://icons.wxug.com/i/c/k/chancerain.gif", "skyicon": "", "pop": 60, "qpf_allday": {"in": 0.39, "mm": 10}, "qpf_day": {"in": 0.25, "mm": 6}, "qpf_night": {"in": 0.15, "mm": 4}, "snow_allday": {"in": 0.0, "cm": 0.0}, "snow_day": {"in": 0.0, "cm": 0.0}, "snow_night": {"in": 0.0, "cm": 0.0}, "maxwind": {"mph": 10, "kph": 16, "dir": "ENE", "degrees": 65}, "avewind": {"mph": 9, "kph": 14, "dir": "ENE", "degrees": 65}, "avehumidity": 76, "maxhumidity": 0, "minhumidity": 0}]}}}, "Medford": {"response": {"version": "0.1", "termsofService": "http://www.wunderground.com/weather/api/d/terms.html", "features": {"forecast": 1, "geolookup": 1, "conditions": 1}}, "location": {"type": "CITY", "country": "US", "country_iso3166": "US", "country_name": "USA", "state": "MA", "city": "Medford", "tz_short": "EDT", "tz_long": "America/New_York", "lat": "42.415516", "lon": "-71.111511", "zip": "02155", "magic": "1", "wmo": "99999", "l": "/q/zmw:02155.1.99999", "requesturl": "US/MA/Medford.html", "wuiurl": "https://www.wunderground.com/US/MA/Medford.html", "nearby_weather_stations": {"airport": {"station": [{"city": "Boston", "state": "MA", "country": "US", "icao": "KBOS", "lat": "42.36000061", "lon": "-71.00000000"}, {"city": "Bedford", "state": "MA", "country": "US", "icao": "KBED", "lat": "42.47000122", "lon": "-71.29000092"}, {"city": "East Milton", "state": "MA", "country": "US", "icao": "KMQE", "lat": "42.20999908", "lon": "-71.11000061"}, {"city": "Beverly", "state": "MA", "country": "US", "icao": "KBVY", "lat": "42.58000183", "lon": "-70.91999817"}]}, "pws": {"station": [{"neighborhood": "Emerson St. Across from Police Station", "city": "Medford", "state": "MA", "country": "US", "id": "KMAMEDFO4", "lat": 42.415516, "lon": -71.111511, "distance_km": 0, "distance_mi": 0}, {"neighborhood": "Emerson St. Across from Police Station", "city": "Medford", "state": "MA", "country": "US", "id": "KMAMEDFO4", "lat": 42.415516, "lon": -71.111511, "distance_km": 0, "distance_mi": 0}, {"neighborhood": "Hillside", "city": "Medford", "state": "MA", "country": "US", "id": "KMAMEDFO34", "lat": 42.410072, "lon": -71.118439, "distance_km": 0, "distance_mi": 0}, {"neighborhood": "Tufts University", "city": "Medford", "state": "MA", "country": "US", "id": "KMAMEDFO17", "lat": 42.408577, "lon": -71.118286, "distance_km": 0, "distance_mi": 0}, {"neighborhood": "Medford, MA", "city": "Medford", "state": "MA", "country": "US", "id": "KMAMEDFO31", "lat": 42.414062, "lon": -71.123375, "distance_km": 0, "distance_mi": 0}, {"neighborhood": "Lawrence Estates Garden Society", "city": "Medford", "state": "MA", "country": "US", "id": "KMAMEDFO16", "lat": 42.426685, "lon": -71.118439, "distance_km": 1, "distance_mi": 0}, {"neighborhood": "West Medford", "city": "Medford", "state": "MA", "country": "US", "id": "KMAMEDFO14", "lat": 42.426517, "lon": -71.123611, "distance_km": 1, "distance_mi": 0}, {"neighborhood": "Tufts", "city": "Somerville", "state": "MA", "country": "US", "id": "KMASOMER44", "lat": 42.402313, "lon": -71.123253, "distance_km": 1, "distance_mi": 1}, {"neighborhood": "West Medford (Harvard/Boston Ave)", "city": "Medford", "state": "MA", "country": "US", "id": "KMAMEDFO30", "lat": 42.41848, "lon": -71.134476, "distance_km": 1, "distance_mi": 1}, {"neighborhood": "Davis Square in Somerville", "city": "Somerville", "state": "MA", "country": "US", "id": "KMASOMER48", "lat": 42.400345, "lon": -71.12281, "distance_km": 1, "distance_mi": 1}, {"neighborhood": "Somerville", "city": "Somerville", "state": "MA", "country": "US", "id": "KMASOMER53", "lat": 42.399235, "lon": -71.121704, "distance_km": 1, "distance_mi": 1}, {"neighborhood": "Murray Hill Rd, Medford", "city": "Medford", "state": "MA", "country": "US", "id": "KMAMEDFO28", "lat": 42.426556, "lon": -71.09063, "distance_km": 2, "distance_mi": 1}, {"neighborhood": "West Somerville, MA", "city": "Somerville", "state": "MA", "country": "US", "id": "KMASOMER60", "lat": 42.404793, "lon": -71.132713, "distance_km": 2, "distance_mi": 1}, {"neighborhood": "West Medford", "city": "Medford", "state": "MA", "country": "US", "id": "KMAMEDFO33", "lat": 42.42979, "lon": -71.130653, "distance_km": 2, "distance_mi": 1}, {"neighborhood": "Hancock Bike Path", "city": "Somerville", "state": "MA", "country": "US", "id": "KMASOMER61", "lat": 42.393936, "lon": -71.114845, "distance_km": 2, "distance_mi": 1}, {"neighborhood": "Edgeworth", "city": "Malden", "state": "MA", "country": "US", "id": "KMAMALDE15", "lat": 42.421875, "lon": -71.082962, "distance_km": 2, "distance_mi": 1}, {"neighborhood": "East Arlington", "city": "Arlington", "state": "MA", "country": "US", "id": "KMAARLIN4", "lat": 42.403801, "lon": -71.137604, "distance_km": 2, "distance_mi": 1}, {"neighborhood": "Albion", "city": "Somerville", "state": "MA", "country": "US", "id": "KMASOMER9", "lat": 42.391739, "lon": -71.112427, "distance_km": 2, "distance_mi": 1}, {"neighborhood": "East Arlington", "city": "Arlington", "state": "MA", "country": "US", "id": "KMAARLIN19", "lat": 42.414982, "lon": -71.144119, "distance_km": 2, "distance_mi": 1}, {"neighborhood": "Somerville", "city": "Medford", "state": "MA", "country": "US", "id": "KMAMEDFO29", "lat": 42.391888, "lon": -71.10038, "distance_km": 2, "distance_mi": 1}, {"neighborhood": "Arlington Center", "city": "Arlington", "state": "MA", "country": "US", "id": "KMAARLIN9", "lat": 42.414703, "lon": -71.148865, "distance_km": 3, "distance_mi": 1}, {"neighborhood": "Malden West End", "city": "Malden", "state": "MA", "country": "US", "id": "KMAMALDE9", "lat": 42.432465, "lon": -71.08107, "distance_km": 3, "distance_mi": 1}, {"neighborhood": "Porter Square", "city": "Cambridge", "state": "MA", "country": "US", "id": "KMACAMBR14", "lat": 42.387863, "lon": -71.124321, "distance_km": 3, "distance_mi": 1}, {"neighborhood": "Malden West", "city": "Malden", "state": "MA", "country": "US", "id": "KMAMALDE3", "lat": 42.426998, "lon": -71.074997, "distance_km": 3, "distance_mi": 1}, {"neighborhood": "Neighborhood Nine", "city": "Cambridge", "state": "MA", "country": "US", "id": "KMACAMBR35", "lat": 42.386368, "lon": -71.121513, "distance_km": 3, "distance_mi": 2}, {"neighborhood": "Wedgemere", "city": "Winchester", "state": "MA", "country": "US", "id": "KMAWINCH52", "lat": 42.438446, "lon": -71.142197, "distance_km": 3, "distance_mi": 2}, {"neighborhood": "AmeliaDam", "city": "Everett", "state": "MA", "country": "US", "id": "KMAEVERE2", "lat": 42.394878, "lon": -71.075539, "distance_km": 3, "distance_mi": 2}, {"neighborhood": "Highland Ave Winchester", "city": "Winchester", "state": "MA", "country": "US", "id": "KMAWINCH55", "lat": 42.447369, "lon": -71.131042, "distance_km": 3, "distance_mi": 2}, {"neighborhood": "Grove Place", "city": "Winchester", "state": "MA", "country": "US", "id": "KMAWINCH42", "lat": 42.442928, "lon": -71.141022, "distance_km": 3, "distance_mi": 2}, {"neighborhood": "Oak Grove", "city": "Malden", "state": "MA", "country": "US", "id": "KMAMALDE11", "lat": 42.43713, "lon": -71.071281, "distance_km": 4, "distance_mi": 2}]}}}, "current_observation": {"image": {"url": "http://icons.wxug.com/graphics/wu2/logo_130x80.png", "title": "Weather Underground", "link": "http://www.wunderground.com"}, "display_location": {"full": "Medford, MA", "city": "Medford", "state": "MA", "state_name": "Massachusetts", "country": "US", "country_iso3166": "US", "zip": "02155", "magic": "1", "wmo": "99999", "latitude": "42.415516", "longitude": "-71.111511", "elevation": "27.1"}, "observation_location": {"full": "Emerson St. Across from Police Station, Medford, Massachusetts", "city": "Emerson St. Across from Police Station, Medford", "state": "Massachusetts", "country": "US", "country_iso3166": "US", "latitude": "42.415516", "longitude": "-71.111511", "elevation": "12 ft"}, "estimated": {}, "station_id": "KMAMEDFO4", "observation_time": "Last Updated on July 11, 4:59 AM EDT", "observation_time_rfc822": "Tue, 11 Jul 2017 04:59:48 -0400", "observation_epoch": "1499763588", "local_time_rfc822": "Tue, 11 Jul 2017 04:59:53 -0400", "local_epoch": "1499763593", "local_tz_short": "EDT", "local_tz_long": "America/New_York", "local_tz_offset": "-0400", "weather": "Rain", "temperature_string": "69.6 F (20.9 C)", "temp_f": 69.6, "temp_c": 20.9, "relative_humidity": "93%", "wind_string": "From the WSW at 3.0 MPH Gusting to 3.0 MPH", "wind_dir": "WSW", "wind_degrees": 243, "wind_mph": 3.0, "wind_gust_mph": "3.0", "wind_kph": 4.8, "wind_gust_kph": "4.8", "pressure_mb": "1015", "pressure_in": "29.96", "pressure_trend": "-", "dewpoint_string": "68 F (20 C)", "dewpoint_f": 68, "dewpoint_c": 20, "heat_index_string": "NA", "heat_index_f": "NA", "heat_index_c": "NA", "windchill_string": "NA", "windchill_f": "NA", "windchill_c": "NA", "feelslike_string": "69.6 F (20.9 C)", "feelslike_f": "69.6", "feelslike_c": "20.9", "visibility_mi": "10.0", "visibility_km": "16.1", "solarradiation": "--", "UV": "0", "precip_1hr_string": "0.00 in ( 0 mm)", "precip_1hr_in": "0.00", "precip_1hr_metric": " 0", "precip_today_string": "0.11 in (3 mm)", "precip_today_in": "0.11", "precip_today_metric": "3", "icon": "rain", "icon_url": "http://icons.wxug.com/i/c/k/nt_rain.gif", "forecast_url": "http://www.wunderground.com/US/MA/Medford.html", "history_url": "http://www.wunderground.com/weatherstation/WXDailyHistory.asp?ID=KMAMEDFO4", "ob_url": "http://www.wunderground.com/cgi-bin/findweather/getForecast?query=42.415516,-71.111511", "nowcast": ""}, "forecast": {"txt_forecast": {"date": "4:17 AM EDT", "forecastday": [{"period": 0, "icon": "chancerain", "icon_url": "http://icons.wxug.com/i/c/k/chancerain.gif", "title": "Tuesday", "fcttext": "Showers and a few thunderstorms likely. Gusty winds and small hail are possible. High around 85F. Winds SSW at 10 to 15 mph. Chance of rain 100%.", "fcttext_metric": "Showers and thunderstorms. Gusty winds and small hail are possible. High 29C. Winds SSW at 15 to 25 km/h. Chance of rain 100%.", "pop": "100"}, {"period": 1, "icon": "nt_partlycloudy", "icon_url": "http://icons.wxug.com/i/c/k/nt_partlycloudy.gif", "title": "Tuesday Night", "fcttext": "A few clouds. A stray shower or thunderstorm is possible. Low around 70F. Winds SW at 5 to 10 mph.", "fcttext_metric": "Some clouds. A stray shower or thunderstorm is possible. Low 21C. Winds SW at 10 to 15 km/h.", "pop": "20"}, {"period": 2, "icon": "chancetstorms", "icon_url": "http://icons.wxug.com/i/c/k/chancetstorms.gif", "title": "Wednesday", "fcttext": "Partly cloudy with afternoon showers or thunderstorms. High around 85F. Winds ESE at 5 to 10 mph. Chance of rain 40%.", "fcttext_metric": "Partial cloudiness early, with scattered showers and thunderstorms in the afternoon. High 29C. Winds ESE at 10 to 15 km/h. Chance of rain 50%.", "pop": "40"}, {"period": 3, "icon": "nt_chancetstorms", "icon_url": "http://icons.wxug.com/i/c/k/nt_chancetstorms.gif", "title": "Wednesday Night", "fcttext": "Scattered thunderstorms in the evening. Cloudy skies overnight. Low 69F. Winds ESE at 5 to 10 mph. Chance of rain 50%.", "fcttext_metric": "Scattered thunderstorms in the evening. Cloudy skies overnight. Low near 20C. Winds ESE at 10 to 15 km/h. Chance of rain 50%.", "pop": "50"}, {"period": 4, "icon": "tstorms", "icon_url": "http://icons.wxug.com/i/c/k/tstorms.gif", "title": "Thursday", "fcttext": "Scattered thunderstorms in the morning, then mainly cloudy during the afternoon with thunderstorms likely. High 78F. SW winds shifting to NE at 10 to 15 mph. Chance of rain 80%.", "fcttext_metric": "Scattered thunderstorms in the morning, then mainly cloudy during the afternoon with thunderstorms likely. High near 25C. SW winds shifting to NE at 15 to 25 km/h. Chance of rain 80%.", "pop": "80"}, {"period": 5, "icon": "nt_chancetstorms", "icon_url": "http://icons.wxug.com/i/c/k/nt_chancetstorms.gif", "title": "Thursday Night", "fcttext": "Scattered thunderstorms during the evening, then cloudy skies overnight. Low around 60F. Winds NE at 5 to 10 mph. Chance of rain 60%.", "fcttext_metric": "Scattered thunderstorms during the evening, then cloudy skies overnight. Low 16C. Winds NE at 10 to 15 km/h. Chance of rain 60%.", "pop": "60"}, {"period": 6, "icon": "chancerain", "icon_url": "http://icons.wxug.com/i/c/k/chancerain.gif", "title": "Friday", "fcttext": "Cloudy with occasional rain showers. High 69F. Winds ENE at 10 to 15 mph. Chance of rain 60%.", "fcttext_metric": "Overcast with rain showers at times. High around 20C. Winds ENE at 10 to 15 km/h. Chance of rain 60%.", "pop": "60"}, {"period": 7, "icon": "nt_chancerain", "icon_url": "http://icons.wxug.com/i/c/k/nt_chancerain.gif", "title": "Friday Night", "fcttext": "Showers in the evening, then cloudy overnight. Low 62F. Winds ENE at 5 to 10 mph. Chance of rain 60%.", "fcttext_metric": "Showers in the evening, then cloudy overnight. Low 17C. Winds ENE at 10 to 15 km/h. Chance of rain 60%.", "pop": "60"}]}, "simpleforecast": {"forecastday": [{"date": {"epoch": "1499814000", "pretty": "7:00 PM EDT on July 11, 2017", "day": 11, "month": 7, "year": 2017, "yday": 191, "hour": 19, "min": "00", "sec": 0, "isdst": "1", "monthname": "July", "monthname_short": "Jul", "weekday_short": "Tue", "weekday": "Tuesday", "ampm": "PM", "tz_short": "EDT", "tz_long": "America/New_York"}, "period": 1, "high": {"fahrenheit": "85", "celsius": "29"}, "low": {"fahrenheit": "70", "celsius": "21"}, "conditions": "Chance of Rain", "icon": "chancerain", "icon_url": "http://icons.wxug.com/i/c/k/chancerain.gif", "skyicon": "", "pop": 100, "qpf_allday": {"in": 0.43, "mm": 11}, "qpf_day": {"in": 0.51, "mm": 13}, "qpf_night": {"in": 0.0, "mm": 0}, "snow_allday": {"in": 0.0, "cm": 0.0}, "snow_day": {"in": 0.0, "cm": 0.0}, "snow_night": {"in": 0.0, "cm": 0.0}, "maxwind": {"mph": 15, "kph": 24, "dir": "SSW", "degrees": 209}, "avewind": {"mph": 11, "kph": 18, "dir": "SSW", "degrees": 209}, "avehumidity": 77, "maxhumidity": 0, "minhumidity": 0}, {"date": {"epoch": "1499900400", "pretty": "7:00 PM EDT on July 12, 2017", "day": 12, "month": 7, "year": 2017, "yday": 192, "hour": 19, "min": "00", "sec": 0, "isdst": "1", "monthname": "July", "monthname_short": "Jul", "weekday_short": "Wed", "weekday": "Wednesday", "ampm": "PM", "tz_short": "EDT", "tz_long": "America/New_York"}, "period": 2, "high": {"fahrenheit": "85", "celsius": "29"}, "low": {"fahrenheit": "69", "celsius": "21"}, "conditions": "Chance of a Thunderstorm", "icon": "chancetstorms", "icon_url": "http://icons.wxug.com/i/c/k/chancetstorms.gif", "skyicon": "", "pop": 40, "qpf_allday": {"in": 0.11, "mm": 3}, "qpf_day": {"in": 0.09, "mm": 2}, "qpf_night": {"in": 0.02, "mm": 1}, "snow_allday": {"in": 0.0, "cm": 0.0}, "snow_day": {"in": 0.0, "cm": 0.0}, "snow_night": {"in": 0.0, "cm": 0.0}, "maxwind": {"mph": 10, "kph": 16, "dir": "ESE", "degrees": 106}, "avewind": {"mph": 8, "kph": 13, "dir": "ESE", "degrees": 106}, "avehumidity": 67, "maxhumidity": 0, "minhumidity": 0}, {"date": {"epoch": "1499986800", "pretty": "7:00 PM EDT on July 13, 2017", "day": 13, "month": 7, "year": 2017, "yday": 193, "hour": 19, "min": "00", "sec": 0, "isdst": "1", "monthname": "July", "monthname_short": "Jul", "weekday_short": "Thu", "weekday": "Thursday", "ampm": "PM", "tz_short": "EDT", "tz_long": "America/New_York"}, "period": 3, "high": {"fahrenheit": "78", "celsius": "26"}, "low": {"fahrenheit": "60", "celsius": "16"}, "conditions": "Thunderstorm", "icon": "tstorms", "icon_url": "http://icons.wxug.com/i/c/k/tstorms.gif", "skyicon": "", "pop": 80, "qpf_allday": {"in": 0.28, "mm": 7}, "qpf_day": {"in": 0.22, "mm": 6}, "qpf_night": {"in": 0.06, "mm": 2}, "snow_allday": {"in": 0.0, "cm": 0.0}, "snow_day": {"in": 0.0, "cm": 0.0}, "snow_night": {"in": 0.0, "cm": 0.0}, "maxwind": {"mph": 15, "kph": 24, "dir": "ENE", "degrees": 57}, "avewind": {"mph": 11, "kph": 18, "dir": "ENE", "degrees": 57}, "avehumidity": 82, "maxhumidity": 0, "minhumidity": 0}, {"date": {"epoch": "1500073200", "pretty": "7:00 PM EDT on July 14, 2017", "day": 14, "month": 7, "year": 2017, "yday": 194, "hour": 19, "min": "00", "sec": 0, "isdst": "1", "monthname": "July", "monthname_short": "Jul", "weekday_short": "Fri", "weekday": "Friday", "ampm": "PM", "tz_short": "EDT", "tz_long": "America/New_York"}, "period": 4, "high": {"fahrenheit": "69", "celsius": "21"}, "low": {"fahrenheit": "62", "celsius": "17"}, "conditions": "Chance of Rain", "icon": "chancerain", "icon_url": "http://icons.wxug.com/i/c/k/chancerain.gif", "skyicon": "", "pop": 60, "qpf_allday": {"in": 0.42, "mm": 11}, "qpf_day": {"in": 0.31, "mm": 8}, "qpf_night": {"in": 0.11, "mm": 3}, "snow_allday": {"in": 0.0, "cm": 0.0}, "snow_day": {"in": 0.0, "cm": 0.0}, "snow_night": {"in": 0.0, "cm": 0.0}, "maxwind": {"mph": 15, "kph": 24, "dir": "ENE", "degrees": 69}, "avewind": {"mph": 10, "kph": 16, "dir": "ENE", "degrees": 69}, "avehumidity": 76, "maxhumidity": 0, "minhumidity": 0}]}}}, "Waban": {"response": {"version": "0.1", "termsofService": "http://www.wunderground.com/weather/api/d/terms.html", "features": {"forecast": 1, "geolookup": 1, "conditions": 1}}, "location": {"type": "CITY", "country": "US", "country_iso3166": "US", "country_name": "USA", "state": "MA", "city": "Waban", "tz_short": "EDT", "tz_long": "America/New_York", "lat": "42.331001", "lon": "-71.224998", "zip": "02468", "magic": "1", "wmo": "99999", "l": "/q/zmw:02468.1.99999", "requesturl": "US/MA/Waban.html", "wuiurl": "https://www.wunderground.com/US/MA/Waban.html", "nearby_weather_stations": {"airport": {"station": [{"city": "Norwood", "state": "MA", "country": "US", "icao": "KOWD", "lat": "42.18999863", "lon": "-71.16999817"}, {"city": "East Milton", "state": "MA", "country": "US", "icao": "KMQE", "lat": "42.20999908", "lon": "-71.11000061"}, {"city": "Bedford", "state": "MA", "country": "US", "icao": "KBED", "lat": "42.47000122", "lon": "-71.29000092"}, {"city": "Boston", "state": "MA", "country": "US", "icao": "KBOS", "lat": "42.36000061", "lon": "-71.00000000"}]}, "pws": {"station": [{"neighborhood": "Waban MA", "city": "Waban", "state": "MA", "country": "US", "id": "KMAWABAN1", "lat": 42.331001, "lon": -71.224998, "distance_km": 0, "distance_mi": 0}, {"neighborhood": "Waban MA", "city": "Waban", "state": "MA", "country": "US", "id": "KMAWABAN1", "lat": 42.331001, "lon": -71.224998, "distance_km": 0, "distance_mi": 0}, {"neighborhood": "Waban/NewtonHighlands", "city": "Waban", "state": "MA", "country": "US", "id": "KMAWABAN2", "lat": 42.323822, "lon": -71.220444, "distance_km": 0, "distance_mi": 0}, {"neighborhood": "West Newton", "city": "Newton", "state": "MA", "country": "US", "id": "KMANEWTO14", "lat": 42.345531, "lon": -71.221031, "distance_km": 1, "distance_mi": 0}, {"neighborhood": "West Newton", "city": "Newton", "state": "MA", "country": "US", "id": "KMANEWTO10", "lat": 42.346039, "lon": -71.223694, "distance_km": 1, "distance_mi": 1}, {"neighborhood": "Newton Centre", "city": "Newton", "state": "MA", "country": "US", "id": "KMANEWTO39", "lat": 42.335358, "lon": -71.202934, "distance_km": 1, "distance_mi": 1}, {"neighborhood": "Newton Centre", "city": "Newton", "state": "MA", "country": "US", "id": "KMANEWTO42", "lat": 42.33532, "lon": -71.202316, "distance_km": 1, "distance_mi": 1}, {"neighborhood": "Newton Centre", "city": "Newton", "state": "MA", "country": "US", "id": "KMANEWTO37", "lat": 42.334751, "lon": -71.201584, "distance_km": 1, "distance_mi": 1}, {"neighborhood": "Newton Centre", "city": "Newton", "state": "MA", "country": "US", "id": "KMANEWTO33", "lat": 42.330555, "lon": -71.200851, "distance_km": 1, "distance_mi": 1}, {"neighborhood": "Newton Upper Falls", "city": "Newton", "state": "MA", "country": "US", "id": "KMANEWTO41", "lat": 42.312721, "lon": -71.21769, "distance_km": 2, "distance_mi": 1}, {"neighborhood": "West Newton", "city": "Waltham", "state": "MA", "country": "US", "id": "KMAWALTH15", "lat": 42.3512, "lon": -71.23053, "distance_km": 2, "distance_mi": 1}, {"neighborhood": "Newton Lower Falls", "city": "Wellesley", "state": "MA", "country": "US", "id": "KMAWELLE25", "lat": 42.327778, "lon": -71.25679, "distance_km": 2, "distance_mi": 1}, {"neighborhood": "Newton Centre", "city": "Newton", "state": "MA", "country": "US", "id": "KMANEWTO12", "lat": 42.331764, "lon": -71.189774, "distance_km": 2, "distance_mi": 1}, {"neighborhood": "Newton Centre", "city": "Newton", "state": "MA", "country": "US", "id": "KMANEWTO35", "lat": 42.313511, "lon": -71.194786, "distance_km": 3, "distance_mi": 1}, {"neighborhood": "West Newton", "city": "Waltham", "state": "MA", "country": "US", "id": "KMAWALTH11", "lat": 42.360397, "lon": -71.229828, "distance_km": 3, "distance_mi": 1}, {"neighborhood": "Newton Centre", "city": "Newton", "state": "MA", "country": "US", "id": "KMANEWTO16", "lat": 42.332993, "lon": -71.182465, "distance_km": 3, "distance_mi": 2}, {"neighborhood": "Wellesley Standish", "city": "Wellesley", "state": "MA", "country": "US", "id": "KMAWELLE23", "lat": 42.309853, "lon": -71.25798, "distance_km": 3, "distance_mi": 2}, {"neighborhood": "Chestnut Hill", "city": "Chestnut Hill", "state": "MA", "country": "US", "id": "KMACHEST3", "lat": 42.333607, "lon": -71.181183, "distance_km": 3, "distance_mi": 2}, {"neighborhood": "South Waltham", "city": "Waltham", "state": "MA", "country": "US", "id": "KMAWALTH25", "lat": 42.364166, "lon": -71.228058, "distance_km": 3, "distance_mi": 2}, {"neighborhood": "Village Circle", "city": "Newton", "state": "MA", "country": "US", "id": "KMANEWTO29", "lat": 42.306908, "lon": -71.188835, "distance_km": 4, "distance_mi": 2}, {"neighborhood": "South Waltham", "city": "Waltham", "state": "MA", "country": "US", "id": "KMAWALTH9", "lat": 42.368469, "lon": -71.231201, "distance_km": 4, "distance_mi": 2}, {"neighborhood": "Watertown", "city": "Newton", "state": "MA", "country": "US", "id": "KMANEWTO43", "lat": 42.367809, "lon": -71.211395, "distance_km": 4, "distance_mi": 2}, {"neighborhood": "Watertown/ Newton Corner", "city": "Watertown", "state": "MA", "country": "US", "id": "KMAWATER10", "lat": 42.360954, "lon": -71.191414, "distance_km": 4, "distance_mi": 2}, {"neighborhood": "Sky View Circle", "city": "Newton", "state": "MA", "country": "US", "id": "KMANEWTO19", "lat": 42.304619, "lon": -71.185776, "distance_km": 4, "distance_mi": 2}, {"neighborhood": "Bleachery", "city": "Waltham", "state": "MA", "country": "US", "id": "KMAWALTH32", "lat": 42.371117, "lon": -71.223206, "distance_km": 4, "distance_mi": 2}, {"neighborhood": "Nardell Road", "city": "Boston", "state": "MA", "country": "US", "id": "KMABOSTO114", "lat": 42.309151, "lon": -71.178581, "distance_km": 4, "distance_mi": 2}, {"neighborhood": "Boston College WeatherSTEM", "city": "Boston", "state": "MA", "country": "US", "id": "KMABOSTO137", "lat": 42.334755, "lon": -71.170204, "distance_km": 4, "distance_mi": 2}, {"neighborhood": "Weston", "city": "Weston", "state": "MA", "country": "US", "id": "KMAWESTO11", "lat": 42.354088, "lon": -71.272064, "distance_km": 4, "distance_mi": 2}, {"neighborhood": "The Chemistry", "city": "Waltham", "state": "MA", "country": "US", "id": "KMAWALTH18", "lat": 42.37215, "lon": -71.237312, "distance_km": 4, "distance_mi": 2}, {"neighborhood": "Ober Road", "city": "Newton", "state": "MA", "country": "US", "id": "KMANEWTO13", "lat": 42.300735, "lon": -71.184532, "distance_km": 4, "distance_mi": 2}, {"neighborhood": "Needham", "city": "Needham Heights", "state": "MA", "country": "US", "id": "KMANEEDH15", "lat": 42.285793, "lon": -71.219376, "distance_km": 5, "distance_mi": 3}, {"neighborhood": "Webster Street", "city": "Needham", "state": "MA", "country": "US", "id": "KMANEEDH10", "lat": 42.284428, "lon": -71.229385, "distance_km": 5, "distance_mi": 3}]}}}, "current_observation": {"image": {"url": "http://icons.wxug.com/graphics/wu2/logo_130x80.png", "title": "Weather Underground", "link": "http://www.wunderground.com"}, "display_location": {"full": "Waban, MA", "city": "Waban", "state": "MA", "state_name": "Massachusetts", "country": "US", "country_iso3166": "US", "zip": "02468", "magic": "1", "wmo": "99999", "latitude": "42.331001", "longitude": "-71.224998", "elevation": "37.5"}, "observation_location": {"full": "Waban MA, Waban, Massachusetts", "city": "Waban MA, Waban", "state": "Massachusetts", "country": "US", "country_iso3166": "US", "latitude": "42.331001", "longitude": "-71.224998", "elevation": "142 ft"}, "estimated": {}, "station_id": "KMAWABAN1", "observation_time": "Last Updated on July 11, 4:59 AM EDT", "observation_time_rfc822": "Tue, 11 Jul 2017 04:59:48 -0400", "observation_epoch": "1499763588", "local_time_rfc822": "Tue, 11 Jul 2017 04:59:53 -0400", "local_epoch": "1499763593", "local_tz_short": "EDT", "local_tz_long": "America/New_York", "local_tz_offset": "-0400", "weather": "Rain", "temperature_string": "68.8 F (20.4 C)", "temp_f": 68.8, "temp_c": 20.4, "relative_humidity": "94%", "wind_string": "Calm", "wind_dir": "NE", "wind_degrees": 49, "wind_mph": 0.0, "wind_gust_mph": "1.0", "wind_kph": 0, "wind_gust_kph": "1.6", "pressure_mb": "1015", "pressure_in": "29.96", "pressure_trend": "0", "dewpoint_string": "67 F (19 C)", "dewpoint_f": 67, "dewpoint_c": 19, "heat_index_string": "NA", "heat_index_f": "NA", "heat_index_c": "NA", "windchill_string": "NA", "windchill_f": "NA", "windchill_c": "NA", "feelslike_string": "68.8 F (20.4 C)", "feelslike_f": "68.8", "feelslike_c": "20.4", "visibility_mi": "9.0", "visibility_km": "14.5", "solarradiation": "--", "UV": "0", "precip_1hr_string": "0.00 in ( 0 mm)", "precip_1hr_in": "0.00", "precip_1hr_metric": " 0", "precip_today_string": "0.13 in (3 mm)", "precip_today_in": "0.13", "precip_today_metric": "3", "icon": "rain", "icon_url": "http://icons.wxug.com/i/c/k/nt_rain.gif", "forecast_url": "http://www.wunderground.com/US/MA/Waban.html", "history_url": "http://www.wunderground.com/weatherstation/WXDailyHistory.asp?ID=KMAWABAN1", "ob_url": "http://www.wunderground.com/cgi-bin/findweather/getForecast?query=42.331001,-71.224998", "nowcast": ""}, "forecast": {"txt_forecast": {"date": "4:15 AM EDT", "forecastday": [{"period": 0, "icon": "chancerain", "icon_url": "http://icons.wxug.com/i/c/k/chancerain.gif", "title": "Tuesday", "fcttext": "Variable clouds with showers and scattered thunderstorms. Gusty winds and small hail are possible. High 84F. Winds SSW at 10 to 15 mph. Chance of rain 100%.", "fcttext_metric": "Thunderstorms likely this morning. Then the chance of scattered thunderstorms this afternoon. Gusty winds and small hail are possible. High 29C. Winds SSW at 10 to 15 km/h. Chance of rain 100%.", "pop": "100"}, {"period": 1, "icon": "nt_partlycloudy", "icon_url": "http://icons.wxug.com/i/c/k/nt_partlycloudy.gif", "title": "Tuesday Night", "fcttext": "Partly cloudy skies. A stray shower or thunderstorm is possible. Low 68F. Winds SW at 5 to 10 mph.", "fcttext_metric": "Some clouds. A stray shower or thunderstorm is possible. Low near 20C. Winds SW at 10 to 15 km/h.", "pop": "20"}, {"period": 2, "icon": "chancetstorms", "icon_url": "http://icons.wxug.com/i/c/k/chancetstorms.gif", "title": "Wednesday", "fcttext": "Partly cloudy with afternoon showers or thunderstorms. High 89F. Winds NNW at 5 to 10 mph. Chance of rain 40%.", "fcttext_metric": "Partly cloudy with afternoon showers or thunderstorms. High 31C. Winds NW at 10 to 15 km/h. Chance of rain 40%.", "pop": "40"}, {"period": 3, "icon": "nt_chancetstorms", "icon_url": "http://icons.wxug.com/i/c/k/nt_chancetstorms.gif", "title": "Wednesday Night", "fcttext": "Partly to mostly cloudy skies with scattered thunderstorms mainly before midnight. Low 68F. Winds light and variable. Chance of rain 40%.", "fcttext_metric": "Variably cloudy with scattered thunderstorms. Low near 20C. Winds light and variable. Chance of rain 50%.", "pop": "40"}, {"period": 4, "icon": "tstorms", "icon_url": "http://icons.wxug.com/i/c/k/tstorms.gif", "title": "Thursday", "fcttext": "Scattered thunderstorms in the morning becoming more widespread in the afternoon. High 79F. Winds NNE at 5 to 10 mph. Chance of rain 80%.", "fcttext_metric": "Scattered thunderstorms in the morning, then mainly cloudy during the afternoon with thunderstorms likely. High 26C. Winds NNE at 10 to 15 km/h. Chance of rain 80%.", "pop": "80"}, {"period": 5, "icon": "nt_chancetstorms", "icon_url": "http://icons.wxug.com/i/c/k/nt_chancetstorms.gif", "title": "Thursday Night", "fcttext": "Scattered thunderstorms during the evening, then cloudy skies overnight. Low 59F. Winds NE at 5 to 10 mph. Chance of rain 60%.", "fcttext_metric": "Scattered thunderstorms in the evening. Cloudy skies overnight. Low around 15C. Winds NE at 10 to 15 km/h. Chance of rain 60%.", "pop": "60"}, {"period": 6, "icon": "chancerain", "icon_url": "http://icons.wxug.com/i/c/k/chancerain.gif", "title": "Friday", "fcttext": "Overcast with rain showers at times. High near 70F. Winds ENE at 5 to 10 mph. Chance of rain 60%.", "fcttext_metric": "Cloudy with occasional rain showers. High 21C. Winds ENE at 10 to 15 km/h. Chance of rain 60%.", "pop": "60"}, {"period": 7, "icon": "nt_chancerain", "icon_url": "http://icons.wxug.com/i/c/k/nt_chancerain.gif", "title": "Friday Night", "fcttext": "Showers in the evening, then cloudy overnight. Low 61F. Winds ENE at 5 to 10 mph. Chance of rain 60%.", "fcttext_metric": "Rain showers early with overcast skies late. Low 16C. Winds ENE at 10 to 15 km/h. Chance of rain 60%.", "pop": "60"}]}, "simpleforecast": {"forecastday": [{"date": {"epoch": "1499814000", "pretty": "7:00 PM EDT on July 11, 2017", "day": 11, "month": 7, "year": 2017, "yday": 191, "hour": 19, "min": "00", "sec": 0, "isdst": "1", "monthname": "July", "monthname_short": "Jul", "weekday_short": "Tue", "weekday": "Tuesday", "ampm": "PM", "tz_short": "EDT", "tz_long": "America/New_York"}, "period": 1, "high": {"fahrenheit": "84", "celsius": "29"}, "low": {"fahrenheit": "68", "celsius": "20"}, "conditions": "Chance of Rain", "icon": "chancerain", "icon_url": "http://icons.wxug.com/i/c/k/chancerain.gif", "skyicon": "", "pop": 100, "qpf_allday": {"in": 0.55, "mm": 14}, "qpf_day": {"in": 0.66, "mm": 17}, "qpf_night": {"in": 0.0, "mm": 0}, "snow_allday": {"in": 0.0, "cm": 0.0}, "snow_day": {"in": 0.0, "cm": 0.0}, "snow_night": {"in": 0.0, "cm": 0.0}, "maxwind": {"mph": 15, "kph": 24, "dir": "SSW", "degrees": 208}, "avewind": {"mph": 10, "kph": 16, "dir": "SSW", "degrees": 208}, "avehumidity": 76, "maxhumidity": 0, "minhumidity": 0}, {"date": {"epoch": "1499900400", "pretty": "7:00 PM EDT on July 12, 2017", "day": 12, "month": 7, "year": 2017, "yday": 192, "hour": 19, "min": "00", "sec": 0, "isdst": "1", "monthname": "July", "monthname_short": "Jul", "weekday_short": "Wed", "weekday": "Wednesday", "ampm": "PM", "tz_short": "EDT", "tz_long": "America/New_York"}, "period": 2, "high": {"fahrenheit": "89", "celsius": "32"}, "low": {"fahrenheit": "68", "celsius": "20"}, "conditions": "Chance of a Thunderstorm", "icon": "chancetstorms", "icon_url": "http://icons.wxug.com/i/c/k/chancetstorms.gif", "skyicon": "", "pop": 40, "qpf_allday": {"in": 0.13, "mm": 3}, "qpf_day": {"in": 0.09, "mm": 2}, "qpf_night": {"in": 0.03, "mm": 1}, "snow_allday": {"in": 0.0, "cm": 0.0}, "snow_day": {"in": 0.0, "cm": 0.0}, "snow_night": {"in": 0.0, "cm": 0.0}, "maxwind": {"mph": 10, "kph": 16, "dir": "NNW", "degrees": 334}, "avewind": {"mph": 7, "kph": 11, "dir": "NNW", "degrees": 334}, "avehumidity": 65, "maxhumidity": 0, "minhumidity": 0}, {"date": {"epoch": "1499986800", "pretty": "7:00 PM EDT on July 13, 2017", "day": 13, "month": 7, "year": 2017, "yday": 193, "hour": 19, "min": "00", "sec": 0, "isdst": "1", "monthname": "July", "monthname_short": "Jul", "weekday_short": "Thu", "weekday": "Thursday", "ampm": "PM", "tz_short": "EDT", "tz_long": "America/New_York"}, "period": 3, "high": {"fahrenheit": "79", "celsius": "26"}, "low": {"fahrenheit": "59", "celsius": "15"}, "conditions": "Thunderstorm", "icon": "tstorms", "icon_url": "http://icons.wxug.com/i/c/k/tstorms.gif", "skyicon": "", "pop": 80, "qpf_allday": {"in": 0.29, "mm": 7}, "qpf_day": {"in": 0.23, "mm": 6}, "qpf_night": {"in": 0.06, "mm": 2}, "snow_allday": {"in": 0.0, "cm": 0.0}, "snow_day": {"in": 0.0, "cm": 0.0}, "snow_night": {"in": 0.0, "cm": 0.0}, "maxwind": {"mph": 10, "kph": 16, "dir": "NNE", "degrees": 24}, "avewind": {"mph": 9, "kph": 14, "dir": "NNE", "degrees": 24}, "avehumidity": 79, "maxhumidity": 0, "minhumidity": 0}, {"date": {"epoch": "1500073200", "pretty": "7:00 PM EDT on July 14, 2017", "day": 14, "month": 7, "year": 2017, "yday": 194, "hour": 19, "min": "00", "sec": 0, "isdst": "1", "monthname": "July", "monthname_short": "Jul", "weekday_short": "Fri", "weekday": "Friday", "ampm": "PM", "tz_short": "EDT", "tz_long": "America/New_York"}, "period": 4, "high": {"fahrenheit": "70", "celsius": "21"}, "low": {"fahrenheit": "61", "celsius": "16"}, "conditions": "Chance of Rain", "icon": "chancerain", "icon_url": "http://icons.wxug.com/i/c/k/chancerain.gif", "skyicon": "", "pop": 60, "qpf_allday": {"in": 0.38, "mm": 10}, "qpf_day": {"in": 0.29, "mm": 7}, "qpf_night": {"in": 0.09, "mm": 2}, "snow_allday": {"in": 0.0, "cm": 0.0}, "snow_day": {"in": 0.0, "cm": 0.0}, "snow_night": {"in": 0.0, "cm": 0.0}, "maxwind": {"mph": 10, "kph": 16, "dir": "ENE", "degrees": 68}, "avewind": {"mph": 9, "kph": 14, "dir": "ENE", "degrees": 68}, "avehumidity": 75, "maxhumidity": 0, "minhumidity": 0}]}}}}}