{"07-10_19-00": {"BackBay": {"response": {"version": "0.1", "termsofService": "http://www.wunderground.com/weather/api/d/terms.html", "features": {"forecast": 1, "geolookup": 1, "conditions": 1}}, "location": {"type": "CITY", "country": "US", "country_iso3166": "US", "country_name": "USA", "state": "MA", "city": "Boston", "tz_short": "EDT", "tz_long": "America/New_York", "lat": "42.348248", "lon": "-71.084167", "zip": "02199", "magic": "1", "wmo": "99999", "l": "/q/zmw:02199.1.99999", "requesturl": "US/MA/Boston.html", "wuiurl": "https://www.wunderground.com/US/MA/Boston.html", "nearby_weather_stations": {"airport": {"station": [{"city": "Boston", "state": "MA", "country": "US", "icao": "KBOS", "lat": "42.36000061", "lon": "-71.00000000"}, {"city": "East Milton", "state": "MA", "country": "US", "icao": "KMQE", "lat": "42.20999908", "lon": "-71.11000061"}, {"city": "Norwood", "state": "MA", "country": "US", "icao": "KOWD", "lat": "42.18999863", "lon": "-71.16999817"}, {"city": "Bedford", "state": "MA", "country": "US", "icao": "KBED", "lat": "42.47000122", "lon": "-71.29000092"}]}, "pws": {"station": [{"neighborhood": "Back Bay West", "city": "Cambridge", "state": "MA", "country": "US", "id": "KMACAMBR34", "lat": 42.3517, "lon": -71.08625, "distance_km": 0, "distance_mi": 0}, {"neighborhood": "Columbus", "city": "Boston", "state": "MA", "country": "US", "id": "KMABOSTO158", "lat": 42.342751, "lon": -71.080803, "distance_km": 0, "distance_mi": 0}, {"neighborhood": "Columbus", "city": "Boston", "state": "MA", "country": "US", "id": "KMABOSTO68", "lat": 42.34164, "lon": -71.080498, "distance_km": 0, "distance_mi": 0}, {"neighborhood": "south end", "city": "Boston", "state": "MA", "country": "US", "id": "KMABOSTO197", "lat": 42.346802, "lon": -71.071365, "distance_km": 1, "distance_mi": 0}, {"neighborhood": "MIT (Green Bld Roof)", "city": "Cambridge", "state": "MA", "country": "US", "id": "KMACAMBR9", "lat": 42.360298, "lon": -71.089401, "distance_km": 1, "distance_mi": 0}, {"neighborhood": "South End", "city": "Boston", "state": "MA", "country": "US", "id": "KMABOSTO279", "lat": 42.341648, "lon": -71.069443, "distance_km": 1, "distance_mi": 0}, {"neighborhood": "Northeastern University WeatherSTEM", "city": "Boston", "state": "MA", "country": "US", "id": "KMABOSTO269", "lat": 42.335865, "lon": -71.088364, "distance_km": 1, "distance_mi": 0}, {"neighborhood": "Boston", "city": "Boston", "state": "MA", "country": "US", "id": "KMABOSTO257", "lat": 42.337036, "lon": -71.073914, "distance_km": 1, "distance_mi": 0}, {"neighborhood": "Boston - South End", "city": "Boston", "state": "MA", "country": "US", "id": "KMABOSTO22", "lat": 42.342987, "lon": -71.066826, "distance_km": 1, "distance_mi": 0}, {"neighborhood": "Cambridge, Charles River", "city": "Cambridge", "state": "MA", "country": "US", "id": "KMACAMBR70", "lat": 42.363503, "lon": -71.077904, "distance_km": 1, "distance_mi": 1}, {"neighborhood": "Beacon & Carlton Street", "city": "Brookline", "state": "MA", "country": "US", "id": "KMABROOK5", "lat": 42.345982, "lon": -71.109337, "distance_km": 2, "distance_mi": 1}, {"neighborhood": "Area IV", "city": "Cambridge", "state": "MA", "country": "US", "id": "KMACAMBR47", "lat": 42.363949, "lon": -71.099426, "distance_km": 2, "distance_mi": 1}, {"neighborhood": "South Boston", "city": "Boston", "state": "MA", "country": "US", "id": "KMABOSTO35", "lat": 42.343105, "lon": -71.058197, "distance_km": 2, "distance_mi": 1}, {"neighborhood": "Cambridge", "city": "Cambridgeport", "state": "MA", "country": "US", "id": "KMACAMBR111", "lat": 42.363483, "lon": -71.101807, "distance_km": 2, "distance_mi": 1}, {"neighborhood": "Cambridgeport", "city": "Cambridge", "state": "MA", "country": "US", "id": "KMACAMBR85", "lat": 42.358242, "lon": -71.110779, "distance_km": 2, "distance_mi": 1}, {"neighborhood": "Central Square", "city": "Cambridge", "state": "MA", "country": "US", "id": "KMACAMBR4", "lat": 42.3633, "lon": -71.107529, "distance_km": 2, "distance_mi": 1}, {"neighborhood": "Boston", "city": "Boston", "state": "MA", "country": "US", "id": "KMABOSTO277", "lat": 42.340935, "lon": -71.052971, "distance_km": 2, "distance_mi": 1}, {"neighborhood": "Downtown", "city": "Boston", "state": "MA", "country": "US", "id": "KMABOSTO49", "lat": 42.358009, "lon": -71.049797, "distance_km": 3, "distance_mi": 1}, {"neighborhood": "North End, Boston", "city": "Boston", "state": "MA", "country": "US", "id": "KMABOSTO132", "lat": 42.366951, "lon": -71.056152, "distance_km": 3, "distance_mi": 1}, {"neighborhood": "North End", "city": "Boston", "state": "MA", "country": "US", "id": "KMABOSTO100", "lat": 42.368164, "lon": -71.057655, "distance_km": 3, "distance_mi": 1}]}}}, "current_observation": {"image": {"url": "http://icons.wxug.com/graphics/wu2/logo_130x80.png", "title": "Weather Underground", "link": "http://www.wunderground.com"}, "display_location": {"full": "Boston, MA", "city": "Boston", "state": "MA", "state_name": "Massachusetts", "country": "US", "country_iso3166": "US", "zip": "02199", "magic": "1", "wmo": "99999", "latitude": "42.348248", "longitude": "-71.084167", "elevation": "5.8"}, "observation_location": {"full": "Back Bay, Boston, Massachusetts", "city": "Back Bay, Boston", "state": "Massachusetts", "country": "", "country_iso3166": "US", "latitude": "42.348248", "longitude": "-71.084167", "elevation": "10 ft"}, "estimated": {}, "station_id": "KMABOSTO278", "observation_time": "Last Updated on July 10, 2:59 PM EDT", "observation_time_rfc822": "Mon, 10 Jul 2017 14:59:13 -0400", "observation_epoch": "1499713153", "local_time_rfc822": "Mon, 10 Jul 2017 14:59:50 -0400", "local_epoch": "1499713190", "local_tz_short": "EDT", "local_tz_long": "America/New_York", "local_tz_offset": "-0400", "weather": "Partly Cloudy", "temperature_string": "83.7 F (28.7 C)", "temp_f": 83.7, "temp_c": 28.7, "relative_humidity": "29%", "wind_string": "From the SW at 18.1 MPH Gusting to 24.8 MPH", "wind_dir": "SW", "wind_degrees": 234, "wind_mph": 18.1, "wind_gust_mph": "24.8", "wind_kph": 29.1, "wind_gust_kph": "39.9", "pressure_mb": "1016", "pressure_in": "29.99", "pressure_trend": "-", "dewpoint_string": "48.0 F (8.9 C)", "dewpoint_f": 48.0, "dewpoint_c": 8.9, "heat_index_string": "NA", "heat_index_f": "NA", "heat_index_c": "NA", "windchill_string": "NA", "windchill_f": "NA", "windchill_c": "NA", "feelslike_string": "83.7 F (28.7 C)", "feelslike_f": "83.7", "feelslike_c": "28.7", "visibility_mi": "10.0", "visibility_km": "16.1", "solarradiation": "205", "UV": "2.0", "precip_1hr_string": "0.00 in (0.0 mm)", "precip_1hr_in": "0.00", "precip_1hr_metric": "0.0", "precip_today_string": "0.00 in (0 mm)", "precip_today_in": "0.00", "precip_today_metric": "0", "icon": "partlycloudy", "icon_url": "http://icons.wxug.com/i/c/k/partlycloudy.gif", "forecast_url": "http://www.wunderground.com/US/MA/Boston.html", "history_url": "http://www.wunderground.com/weatherstation/WXDailyHistory.asp?ID=KMABOSTO278", "ob_url": "http://www.wunderground.com/cgi-bin/findweather/getForecast?query=42.348248,-71.084167", "nowcast": ""}, "forecast": {"txt_forecast": {"date": "2:14 PM EDT", "forecastday": [{"period": 0, "icon": "partlycloudy", "icon_url": "http://icons.wxug.com/i/c/k/partlycloudy.gif", "title": "Monday", "fcttext": "Partly cloudy. High 86F. Winds SW at 10 to 20 mph.", "fcttext_metric": "Sun and clouds mixed. High near 30C. Winds SW at 15 to 30 km/h.", "pop": "0"}, {"period": 1, "icon": "nt_partlycloudy", "icon_url": "http://icons.wxug.com/i/c/k/nt_partlycloudy.gif", "title": "Monday Night", "fcttext": "Partly cloudy skies. Low 68F. Winds SSW at 10 to 20 mph.", "fcttext_metric": "Partly cloudy skies. Low near 20C. Winds SSW at 15 to 30 km/h.", "pop": "20"}, {"period": 2, "icon": "chancetstorms", "icon_url": "http://icons.wxug.com/i/c/k/chancetstorms.gif", "title": "Tuesday", "fcttext": "Scattered thunderstorms. A few storms may be severe. High 84F. Winds SSW at 10 to 20 mph. Chance of rain 60%.", "fcttext_metric": "Mixed clouds and sun with scattered thunderstorms. A few storms may be severe. High 29C. Winds SSW at 15 to 30 km/h. Chance of rain 50%.", "pop": "60"}, {"period": 3, "icon": "nt_partlycloudy", "icon_url": "http://icons.wxug.com/i/c/k/nt_partlycloudy.gif", "title": "Tuesday Night", "fcttext": "Partly cloudy. A stray shower or thunderstorm is possible. Low 69F. Winds WSW at 10 to 15 mph.", "fcttext_metric": "Partly cloudy skies. A stray shower or thunderstorm is possible. Low 21C. Winds WSW at 15 to 25 km/h.", "pop": "20"}, {"period": 4, "icon": "clear", "icon_url": "http://icons.wxug.com/i/c/k/clear.gif", "title": "Wednesday", "fcttext": "Except for a few afternoon clouds, mainly sunny. High 83F. Winds ENE at 10 to 15 mph.", "fcttext_metric": "Sunny, along with a few afternoon clouds. High 28C. Winds ENE at 10 to 15 km/h.", "pop": "10"}, {"period": 5, "icon": "nt_tstorms", "icon_url": "http://icons.wxug.com/i/c/k/nt_tstorms.gif", "title": "Wednesday Night", "fcttext": "Scattered thunderstorms in the evening, then mainly cloudy overnight with thunderstorms likely. Low 66F. Winds E at 5 to 10 mph. Chance of rain 80%.", "fcttext_metric": "Scattered thunderstorms during the evening becoming more widespread overnight. Low 19C. Winds E at 10 to 15 km/h. Chance of rain 80%.", "pop": "80"}, {"period": 6, "icon": "tstorms", "icon_url": "http://icons.wxug.com/i/c/k/tstorms.gif", "title": "Thursday", "fcttext": "Thunderstorms likely. High 74F. Winds ENE at 10 to 15 mph. Chance of rain 100%.", "fcttext_metric": "Thunderstorms. High 23C. Winds ENE at 15 to 25 km/h. Chance of rain 100%.", "pop": "100"}, {"period": 7, "icon": "nt_cloudy", "icon_url": "http://icons.wxug.com/i/c/k/nt_cloudy.gif", "title": "Thursday Night", "fcttext": "Cloudy skies. Low 59F. Winds NE at 10 to 15 mph.", "fcttext_metric": "Cloudy skies. Low near 15C. Winds NE at 15 to 25 km/h.", "pop": "20"}]}, "simpleforecast": {"forecastday": [{"date": {"epoch": "1499727600", "pretty": "7:00 PM EDT on July 10, 2017", "day": 10, "month": 7, "year": 2017, "yday": 190, "hour": 19, "min": "00", "sec": 0, "isdst": "1", "monthname": "July", "monthname_short": "Jul", "weekday_short": "Mon", "weekday": "Monday", "ampm": "PM", "tz_short": "EDT", "tz_long": "America/New_York"}, "period": 1, "high": {"fahrenheit": "86", "celsius": "30"}, "low": {"fahrenheit": "68", "celsius": "20"}, "conditions": "Partly Cloudy", "icon": "partlycloudy", "icon_url": "http://icons.wxug.com/i/c/k/partlycloudy.gif", "skyicon": "", "pop": 0, "qpf_allday": {"in": 0.0, "mm": 0}, "qpf_day": {"in": 0.0, "mm": 0}, "qpf_night": {"in": 0.0, "mm": 0}, "snow_allday": {"in": 0.0, "cm": 0.0}, "snow_day": {"in": 0.0, "cm": 0.0}, "snow_night": {"in": 0.0, "cm": 0.0}, "maxwind": {"mph": 20, "kph": 32, "dir": "SW", "degrees": 228}, "avewind": {"mph": 13, "kph": 21, "dir": "SW", "degrees": 228}, "avehumidity": 35, "maxhumidity": 0, "minhumidity": 0}, {"date": {"epoch": "1499814000", "pretty": "7:00 PM EDT on July 11, 2017", "day": 11, "month": 7, "year": 2017, "yday": 191, "hour": 19, "min": "00", "sec": 0, "isdst": "1", "monthname": "July", "monthname_short": "Jul", "weekday_short": "Tue", "weekday": "Tuesday", "ampm": "PM", "tz_short": "EDT", "tz_long": "America/New_York"}, "period": 2, "high": {"fahrenheit": "84", "celsius": "29"}, "low": {"fahrenheit": "69", "celsius": "21"}, "conditions": "Chance of a Thunderstorm", "icon": "chancetstorms", "icon_url": "http://icons.wxug.com/i/c/k/chancetstorms.gif", "skyicon": "", "pop": 60, "qpf_allday": {"in": 0.11, "mm": 3}, "qpf_day": {"in": 0.11, "mm": 3}, "qpf_night": {"in": 0.0, "mm": 0}, "snow_allday": {"in": 0.0, "cm": 0.0}, "snow_day": {"in": 0.0, "cm": 0.0}, "snow_night": {"in": 0.0, "cm": 0.0}, "maxwind": {"mph": 20, "kph": 32, "dir": "SSW", "degrees": 207}, "avewind": {"mph": 14, "kph": 23, "dir": "SSW", "degrees": 207}, "avehumidity": 71, "maxhumidity": 0, "minhumidity": 0}, {"date": {"epoch": "1499900400", "pretty": "7:00 PM EDT on July 12, 2017", "day": 12, "month": 7, "year": 2017, "yday": 192, "hour": 19, "min": "00", "sec": 0, "isdst": "1", "monthname": "July", "monthname_short": "Jul", "weekday_short": "Wed", "weekday": "Wednesday", "ampm": "PM", "tz_short": "EDT", "tz_long": "America/New_York"}, "period": 3, "high": {"fahrenheit": "83", "celsius": "28"}, "low": {"fahrenheit": "66", "celsius": "19"}, "conditions": "Clear", "icon": "clear", "icon_url": "http://icons.wxug.com/i/c/k/clear.gif", "skyicon": "", "pop": 10, "qpf_allday": {"in": 0.11, "mm": 3}, "qpf_day": {"in": 0.0, "mm": 0}, "qpf_night": {"in": 0.11, "mm": 3}, "snow_allday": {"in": 0.0, "cm": 0.0}, "snow_day": {"in": 0.0, "cm": 0.0}, "snow_night": {"in": 0.0, "cm": 0.0}, "maxwind": {"mph": 15, "kph": 24, "dir": "ENE", "degrees": 70}, "avewind": {"mph": 10, "kph": 16, "dir": "ENE", "degrees": 70}, "avehumidity": 62, "maxhumidity": 0, "minhumidity": 0}, {"date": {"epoch": "1499986800", "pretty": "7:00 PM EDT on July 13, 2017", "day": 13, "month": 7, "year": 2017, "yday": 193, "hour": 19, "min": "00", "sec": 0, "isdst": "1", "monthname": "July", "monthname_short": "Jul", "weekday_short": "Thu", "weekday": "Thursday", "ampm": "PM", "tz_short": "EDT", "tz_long": "America/New_York"}, "period": 4, "high": {"fahrenheit": "74", "celsius": "23"}, "low": {"fahrenheit": "59", "celsius": "15"}, "conditions": "Thunderstorm", "icon": "tstorms", "icon_url": "http://icons.wxug.com/i/c/k/tstorms.gif", "skyicon": "", "pop": 100, "qpf_allday": {"in": 0.56, "mm": 14}, "qpf_day": {"in": 0.55, "mm": 14}, "qpf_night": {"in": 0.0, "mm": 0}, "snow_allday": {"in": 0.0, "cm": 0.0}, "snow_day": {"in": 0.0, "cm": 0.0}, "snow_night": {"in": 0.0, "cm": 0.0}, "maxwind": {"mph": 15, "kph": 24, "dir": "ENE", "degrees": 63}, "avewind": {"mph": 11, "kph": 18, "dir": "ENE", "degrees": 63}, "avehumidity": 83, "maxhumidity": 0, "minhumidity": 0}]}}}, "Logan": {"response": {"version": "0.1", "termsofService": "http://www.wunderground.com/weather/api/d/terms.html", "features": {"forecast": 1, "geolookup": 1, "conditions": 1}, "error": {"type": "Station:OFFLINE"}}}, "Dorchester": {"response": {"version": "0.1", "termsofService": "http://www.wunderground.com/weather/api/d/terms.html", "features": {"forecast": 1, "geolookup": 1, "conditions": 1}}, "location": {"type": "CITY", "country": "US", "country_iso3166": "US", "country_name": "USA", "state": "MA", "city": "Boston", "tz_short": "EDT", "tz_long": "America/New_York", "lat": "42.313976", "lon": "-71.062218", "zip": "02125", "magic": "1", "wmo": "99999", "l": "/q/zmw:02125.1.99999", "requesturl": "US/MA/Boston.html", "wuiurl": "https://www.wunderground.com/US/MA/Boston.html", "nearby_weather_stations": {"airport": {"station": [{"city": "Boston", "state": "MA", "country": "US", "icao": "KBOS", "lat": "42.36000061", "lon": "-71.00000000"}, {"city": "East Milton", "state": "MA", "country": "US", "icao": "KMQE", "lat": "42.20999908", "lon": "-71.11000061"}, {"city": "Norwood", "state": "MA", "country": "US", "icao": "KOWD", "lat": "42.18999863", "lon": "-71.16999817"}, {"city": "Bedford", "state": "MA", "country": "US", "icao": "KBED", "lat": "42.47000122", "lon": "-71.29000092"}]}, "pws": {"station": [{"neighborhood": "Dorchester @ Climax", "city": "Boston", "state": "MA", "country": "US", "id": "KMABOSTO268", "lat": 42.313976, "lon": -71.062218, "distance_km": 0, "distance_mi": 0}, {"neighborhood": "Dorchester @ Climax", "city": "Boston", "state": "MA", "country": "US", "id": "KMABOSTO268", "lat": 42.313976, "lon": -71.062218, "distance_km": 0, "distance_mi": 0}, {"neighborhood": "Dorchester", "city": "Quincy", "state": "MA", "country": "US", "id": "KMAQUINC21", "lat": 42.313194, "lon": -71.073921, "distance_km": 0, "distance_mi": 0}, {"neighborhood": "Dorchester", "city": "Quincy", "state": "MA", "country": "US", "id": "KMAQUINC35", "lat": 42.309444, "lon": -71.045998, "distance_km": 1, "distance_mi": 0}, {"neighborhood": "Clam Point", "city": "Dorchester", "state": "MA", "country": "US", "id": "KMADORCH5", "lat": 42.301571, "lon": -71.052872, "distance_km": 1, "distance_mi": 0}, {"neighborhood": "Moss Hill", "city": "Boston", "state": "MA", "country": "US", "id": "KMABOSTO271", "lat": 42.305901, "lon": -71.085899, "distance_km": 2, "distance_mi": 1}, {"neighborhood": "Telegraph Hill", "city": "Boston", "state": "MA", "country": "US", "id": "KMABOSTO167", "lat": 42.33297, "lon": -71.04319, "distance_km": 2, "distance_mi": 1}, {"neighborhood": "Boston", "city": "Boston", "state": "MA", "country": "US", "id": "KMABOSTO257", "lat": 42.337036, "lon": -71.073914, "distance_km": 2, "distance_mi": 1}, {"neighborhood": "Boston", "city": "Boston", "state": "MA", "country": "US", "id": "KMABOSTO277", "lat": 42.340935, "lon": -71.052971, "distance_km": 3, "distance_mi": 1}, {"neighborhood": "South End", "city": "Boston", "state": "MA", "country": "US", "id": "KMABOSTO279", "lat": 42.341648, "lon": -71.069443, "distance_km": 3, "distance_mi": 1}, {"neighborhood": "Boston - South End", "city": "Boston", "state": "MA", "country": "US", "id": "KMABOSTO22", "lat": 42.342987, "lon": -71.066826, "distance_km": 3, "distance_mi": 1}, {"neighborhood": "Northeastern University WeatherSTEM", "city": "Boston", "state": "MA", "country": "US", "id": "KMABOSTO269", "lat": 42.335865, "lon": -71.088364, "distance_km": 3, "distance_mi": 1}, {"neighborhood": "South Boston", "city": "Boston", "state": "MA", "country": "US", "id": "KMABOSTO35", "lat": 42.343105, "lon": -71.058197, "distance_km": 3, "distance_mi": 1}, {"neighborhood": "Columbus", "city": "Boston", "state": "MA", "country": "US", "id": "KMABOSTO68", "lat": 42.34164, "lon": -71.080498, "distance_km": 3, "distance_mi": 2}, {"neighborhood": "Columbus", "city": "Boston", "state": "MA", "country": "US", "id": "KMABOSTO158", "lat": 42.342751, "lon": -71.080803, "distance_km": 3, "distance_mi": 2}, {"neighborhood": "Jamaica Plain", "city": "Boston", "state": "MA", "country": "US", "id": "KMABOSTO52", "lat": 42.316456, "lon": -71.105362, "distance_km": 3, "distance_mi": 2}, {"neighborhood": "Jamaica Plain", "city": "Boston", "state": "MA", "country": "US", "id": "KMABOSTO173", "lat": 42.318333, "lon": -71.105835, "distance_km": 3, "distance_mi": 2}, {"neighborhood": "south end", "city": "Boston", "state": "MA", "country": "US", "id": "KMABOSTO197", "lat": 42.346802, "lon": -71.071365, "distance_km": 3, "distance_mi": 2}, {"neighborhood": "Back Bay West", "city": "Cambridge", "state": "MA", "country": "US", "id": "KMACAMBR34", "lat": 42.3517, "lon": -71.08625, "distance_km": 4, "distance_mi": 2}, {"neighborhood": "Downtown", "city": "Boston", "state": "MA", "country": "US", "id": "KMABOSTO49", "lat": 42.358009, "lon": -71.049797, "distance_km": 5, "distance_mi": 3}]}}}, "current_observation": {"image": {"url": "http://icons.wxug.com/graphics/wu2/logo_130x80.png", "title": "Weather Underground", "link": "http://www.wunderground.com"}, "display_location": {"full": "Boston, MA", "city": "Boston", "state": "MA", "state_name": "Massachusetts", "country": "US", "country_iso3166": "US", "zip": "02125", "magic": "1", "wmo": "99999", "latitude": "42.313976", "longitude": "-71.062218", "elevation": "29.9"}, "observation_location": {"full": "Dorchester @ Climax, Boston, Massachusetts", "city": "Dorchester @ Climax, Boston", "state": "Massachusetts", "country": "US", "country_iso3166": "US", "latitude": "42.313976", "longitude": "-71.062218", "elevation": "118 ft"}, "estimated": {}, "station_id": "KMABOSTO268", "observation_time": "Last Updated on July 10, 2:59 PM EDT", "observation_time_rfc822": "Mon, 10 Jul 2017 14:59:30 -0400", "observation_epoch": "1499713170", "local_time_rfc822": "Mon, 10 Jul 2017 14:59:51 -0400", "local_epoch": "1499713191", "local_tz_short": "EDT", "local_tz_long": "America/New_York", "local_tz_offset": "-0400", "weather": "Partly Cloudy", "temperature_string": "92.1 F (33.4 C)", "temp_f": 92.1, "temp_c": 33.4, "relative_humidity": "30%", "wind_string": "From the West at 8.0 MPH", "wind_dir": "West", "wind_degrees": 270, "wind_mph": 8.0, "wind_gust_mph": 0, "wind_kph": 12.9, "wind_gust_kph": 0, "pressure_mb": "1016", "pressure_in": "29.99", "pressure_trend": "-", "dewpoint_string": "57 F (14 C)", "dewpoint_f": 57, "dewpoint_c": 14, "heat_index_string": "90 F (32 C)", "heat_index_f": 90, "heat_index_c": 32, "windchill_string": "NA", "windchill_f": "NA", "windchill_c": "NA", "feelslike_string": "90 F (32 C)", "feelslike_f": "90", "feelslike_c": "32", "visibility_mi": "10.0", "visibility_km": "16.1", "solarradiation": "--", "UV": "5", "precip_1hr_string": "0.00 in ( 0 mm)", "precip_1hr_in": "0.00", "precip_1hr_metric": " 0", "precip_today_string": "0.00 in (0 mm)", "precip_today_in": "0.00", "precip_today_metric": "0", "icon": "partlycloudy", "icon_url": "http://icons.wxug.com/i/c/k/partlycloudy.gif", "forecast_url": "http://www.wunderground.com/US/MA/Boston.html", "history_url": "http://www.wunderground.com/weatherstation/WXDailyHistory.asp?ID=KMABOSTO268", "ob_url": "http://www.wunderground.com/cgi-bin/findweather/getForecast?query=42.313976,-71.062218", "nowcast": ""}, "forecast": {"txt_forecast": {"date": "1:44 PM EDT", "forecastday": [{"period": 0, "icon": "partlycloudy", "icon_url": "http://icons.wxug.com/i/c/k/partlycloudy.gif", "title": "Monday", "fcttext": "Sun and clouds mixed. High near 85F. Winds SW at 10 to 20 mph.", "fcttext_metric": "Sun and clouds mixed. High 29C. Winds SW at 15 to 30 km/h.", "pop": "0"}, {"period": 1, "icon": "nt_clear", "icon_url": "http://icons.wxug.com/i/c/k/nt_clear.gif", "title": "Monday Night", "fcttext": "Mainly clear. Low 68F. Winds SSW at 10 to 20 mph.", "fcttext_metric": "Mainly clear. Low near 20C. Winds SSW at 15 to 30 km/h.", "pop": "10"}, {"period": 2, "icon": "chancetstorms", "icon_url": "http://icons.wxug.com/i/c/k/chancetstorms.gif", "title": "Tuesday", "fcttext": "Partial cloudiness early, with scattered showers and thunderstorms in the afternoon. A few storms may be severe. High 83F. Winds SSW at 10 to 20 mph. Chance of rain 50%.", "fcttext_metric": "Partly cloudy with afternoon showers or thunderstorms. A few storms may be severe. High 28C. Winds SSW at 15 to 30 km/h. Chance of rain 50%.", "pop": "50"}, {"period": 3, "icon": "nt_partlycloudy", "icon_url": "http://icons.wxug.com/i/c/k/nt_partlycloudy.gif", "title": "Tuesday Night", "fcttext": "Considerable clouds early. Some decrease in clouds late. A stray shower or thunderstorm is possible. Low near 70F. Winds SW at 10 to 15 mph.", "fcttext_metric": "Partly to mostly cloudy. A stray shower or thunderstorm is possible. Low 21C. Winds SW at 15 to 30 km/h.", "pop": "20"}, {"period": 4, "icon": "partlycloudy", "icon_url": "http://icons.wxug.com/i/c/k/partlycloudy.gif", "title": "Wednesday", "fcttext": "Some sun in the morning with increasing clouds during the afternoon. Slight chance of a rain shower. High near 80F. Winds ENE at 10 to 15 mph.", "fcttext_metric": "Some sun in the morning with increasing clouds during the afternoon. Slight chance of a rain shower. High 27C. Winds ENE at 10 to 15 km/h.", "pop": "20"}, {"period": 5, "icon": "nt_rain", "icon_url": "http://icons.wxug.com/i/c/k/nt_rain.gif", "title": "Wednesday Night", "fcttext": "Partly cloudy in the evening then becoming cloudy with periods of rain after midnight. Thunder possible. Low around 65F. Winds E at 10 to 15 mph. Chance of rain 90%.", "fcttext_metric": "Partly cloudy in the evening then becoming cloudy with periods of rain after midnight. Thunder possible. Low 18C. Winds E at 10 to 15 km/h. Chance of rain 90%.", "pop": "90"}, {"period": 6, "icon": "tstorms", "icon_url": "http://icons.wxug.com/i/c/k/tstorms.gif", "title": "Thursday", "fcttext": "Thunderstorms. High 71F. Winds ENE at 10 to 15 mph. Chance of rain 100%.", "fcttext_metric": "Thunderstorms. High 22C. Winds ENE at 15 to 25 km/h. Chance of rain 100%.", "pop": "100"}, {"period": 7, "icon": "nt_chancetstorms", "icon_url": "http://icons.wxug.com/i/c/k/nt_chancetstorms.gif", "title": "Thursday Night", "fcttext": "Scattered thunderstorms in the evening. Cloudy skies overnight. Low 62F. Winds NE at 10 to 15 mph. Chance of rain 40%.", "fcttext_metric": "Scattered thunderstorms during the evening, then cloudy skies overnight. Low 16C. Winds NE at 15 to 25 km/h. Chance of rain 40%.", "pop": "40"}]}, "simpleforecast": {"forecastday": [{"date": {"epoch": "1499727600", "pretty": "7:00 PM EDT on July 10, 2017", "day": 10, "month": 7, "year": 2017, "yday": 190, "hour": 19, "min": "00", "sec": 0, "isdst": "1", "monthname": "July", "monthname_short": "Jul", "weekday_short": "Mon", "weekday": "Monday", "ampm": "PM", "tz_short": "EDT", "tz_long": "America/New_York"}, "period": 1, "high": {"fahrenheit": "85", "celsius": "29"}, "low": {"fahrenheit": "68", "celsius": "20"}, "conditions": "Partly Cloudy", "icon": "partlycloudy", "icon_url": "http://icons.wxug.com/i/c/k/partlycloudy.gif", "skyicon": "", "pop": 0, "qpf_allday": {"in": 0.0, "mm": 0}, "qpf_day": {"in": 0.0, "mm": 0}, "qpf_night": {"in": 0.0, "mm": 0}, "snow_allday": {"in": 0.0, "cm": 0.0}, "snow_day": {"in": 0.0, "cm": 0.0}, "snow_night": {"in": 0.0, "cm": 0.0}, "maxwind": {"mph": 20, "kph": 32, "dir": "SW", "degrees": 228}, "avewind": {"mph": 13, "kph": 21, "dir": "SW", "degrees": 228}, "avehumidity": 36, "maxhumidity": 0, "minhumidity": 0}, {"date": {"epoch": "1499814000", "pretty": "7:00 PM EDT on July 11, 2017", "day": 11, "month": 7, "year": 2017, "yday": 191, "hour": 19, "min": "00", "sec": 0, "isdst": "1", "monthname": "July", "monthname_short": "Jul", "weekday_short": "Tue", "weekday": "Tuesday", "ampm": "PM", "tz_short": "EDT", "tz_long": "America/New_York"}, "period": 2, "high": {"fahrenheit": "83", "celsius": "28"}, "low": {"fahrenheit": "70", "celsius": "21"}, "conditions": "Chance of a Thunderstorm", "icon": "chancetstorms", "icon_url": "http://icons.wxug.com/i/c/k/chancetstorms.gif", "skyicon": "", "pop": 50, "qpf_allday": {"in": 0.04, "mm": 1}, "qpf_day": {"in": 0.04, "mm": 1}, "qpf_night": {"in": 0.0, "mm": 0}, "snow_allday": {"in": 0.0, "cm": 0.0}, "snow_day": {"in": 0.0, "cm": 0.0}, "snow_night": {"in": 0.0, "cm": 0.0}, "maxwind": {"mph": 20, "kph": 32, "dir": "SSW", "degrees": 204}, "avewind": {"mph": 16, "kph": 26, "dir": "SSW", "degrees": 204}, "avehumidity": 71, "maxhumidity": 0, "minhumidity": 0}, {"date": {"epoch": "1499900400", "pretty": "7:00 PM EDT on July 12, 2017", "day": 12, "month": 7, "year": 2017, "yday": 192, "hour": 19, "min": "00", "sec": 0, "isdst": "1", "monthname": "July", "monthname_short": "Jul", "weekday_short": "Wed", "weekday": "Wednesday", "ampm": "PM", "tz_short": "EDT", "tz_long": "America/New_York"}, "period": 3, "high": {"fahrenheit": "80", "celsius": "27"}, "low": {"fahrenheit": "65", "celsius": "18"}, "conditions": "Partly Cloudy", "icon": "partlycloudy", "icon_url": "http://icons.wxug.com/i/c/k/partlycloudy.gif", "skyicon": "", "pop": 20, "qpf_allday": {"in": 0.15, "mm": 4}, "qpf_day": {"in": 0.0, "mm": 0}, "qpf_night": {"in": 0.15, "mm": 4}, "snow_allday": {"in": 0.0, "cm": 0.0}, "snow_day": {"in": 0.0, "cm": 0.0}, "snow_night": {"in": 0.0, "cm": 0.0}, "maxwind": {"mph": 15, "kph": 24, "dir": "ENE", "degrees": 62}, "avewind": {"mph": 10, "kph": 16, "dir": "ENE", "degrees": 62}, "avehumidity": 67, "maxhumidity": 0, "minhumidity": 0}, {"date": {"epoch": "1499986800", "pretty": "7:00 PM EDT on July 13, 2017", "day": 13, "month": 7, "year": 2017, "yday": 193, "hour": 19, "min": "00", "sec": 0, "isdst": "1", "monthname": "July", "monthname_short": "Jul", "weekday_short": "Thu", "weekday": "Thursday", "ampm": "PM", "tz_short": "EDT", "tz_long": "America/New_York"}, "period": 4, "high": {"fahrenheit": "71", "celsius": "22"}, "low": {"fahrenheit": "62", "celsius": "17"}, "conditions": "Thunderstorm", "icon": "tstorms", "icon_url": "http://icons.wxug.com/i/c/k/tstorms.gif", "skyicon": "", "pop": 100, "qpf_allday": {"in": 0.83, "mm": 21}, "qpf_day": {"in": 0.79, "mm": 20}, "qpf_night": {"in": 0.04, "mm": 1}, "snow_allday": {"in": 0.0, "cm": 0.0}, "snow_day": {"in": 0.0, "cm": 0.0}, "snow_night": {"in": 0.0, "cm": 0.0}, "maxwind": {"mph": 15, "kph": 24, "dir": "ENE", "degrees": 69}, "avewind": {"mph": 12, "kph": 19, "dir": "ENE", "degrees": 69}, "avehumidity": 85, "maxhumidity": 0, "minhumidity": 0}]}}}, "ChestnutHill": {"response": {"version": "0.1", "termsofService": "http://www.wunderground.com/weather/api/d/terms.html", "features": {"forecast": 1, "geolookup": 1, "conditions": 1}}, "location": {"type": "CITY", "country": "US", "country_iso3166": "US", "country_name": "USA", "state": "MA", "city": "Brookline", "tz_short": "EDT", "tz_long": "America/New_York", "lat": "42.332382", "lon": "-71.138641", "zip": "02445", "magic": "1", "wmo": "99999", "l": "/q/zmw:02445.1.99999", "requesturl": "US/MA/Brookline.html", "wuiurl": "https://www.wunderground.com/US/MA/Brookline.html", "nearby_weather_stations": {"airport": {"station": [{"city": "Boston", "state": "MA", "country": "US", "icao": "KBOS", "lat": "42.36000061", "lon": "-71.00000000"}, {"city": "East Milton", "state": "MA", "country": "US", "icao": "KMQE", "lat": "42.20999908", "lon": "-71.11000061"}, {"city": "Norwood", "state": "MA", "country": "US", "icao": "KOWD", "lat": "42.18999863", "lon": "-71.16999817"}, {"city": "Bedford", "state": "MA", "country": "US", "icao": "KBED", "lat": "42.47000122", "lon": "-71.29000092"}]}, "pws": {"station": [{"neighborhood": "Fisher Hill", "city": "Brookline", "state": "MA", "country": "US", "id": "KMABROOK7", "lat": 42.332382, "lon": -71.138641, "distance_km": 0, "distance_mi": 0}, {"neighborhood": "Fisher Hill", "city": "Brookline", "state": "MA", "country": "US", "id": "KMABROOK7", "lat": 42.332382, "lon": -71.138641, "distance_km": 0, "distance_mi": 0}, {"neighborhood": "Rudolfstra\u00dfe", "city": "Brookline", "state": "MA", "country": "US", "id": "KMABROOK13", "lat": 42.330151, "lon": -71.141266, "distance_km": 0, "distance_mi": 0}, {"neighborhood": "Beacon Street", "city": "Brookline", "state": "MA", "country": "US", "id": "KMABROOK24", "lat": 42.339447, "lon": -71.134766, "distance_km": 0, "distance_mi": 0}, {"neighborhood": "Brookline", "city": "Brookline", "state": "MA", "country": "US", "id": "KMABROOK38", "lat": 42.332584, "lon": -71.125008, "distance_km": 1, "distance_mi": 0}, {"neighborhood": "Corey Hill", "city": "Brookline", "state": "MA", "country": "US", "id": "KMABROOK19", "lat": 42.342426, "lon": -71.132095, "distance_km": 1, "distance_mi": 0}, {"neighborhood": "Brookline", "city": "Brookline", "state": "MA", "country": "US", "id": "KMABROOK36", "lat": 42.335861, "lon": -71.122353, "distance_km": 1, "distance_mi": 0}, {"neighborhood": "Route de Cugy", "city": "Brookline", "state": "MA", "country": "US", "id": "KMABROOK33", "lat": 42.343906, "lon": -71.132065, "distance_km": 1, "distance_mi": 0}, {"neighborhood": "Coolidge Corner South Side", "city": "Brookline", "state": "MA", "country": "US", "id": "KMABROOK10", "lat": 42.337185, "lon": -71.121864, "distance_km": 1, "distance_mi": 0}, {"neighborhood": "Jamaica Hills / Pond", "city": "Boston", "state": "MA", "country": "US", "id": "KMABOSTO182", "lat": 42.321877, "lon": -71.121407, "distance_km": 1, "distance_mi": 1}, {"neighborhood": "Allston", "city": "Brookline", "state": "MA", "country": "US", "id": "KMABROOK12", "lat": 42.351528, "lon": -71.139091, "distance_km": 2, "distance_mi": 1}, {"neighborhood": "Jamaica Plain", "city": "Jamaica Plain", "state": "MA", "country": "US", "id": "KMAJAMAI10", "lat": 42.318947, "lon": -71.115013, "distance_km": 2, "distance_mi": 1}, {"neighborhood": "Boston College WeatherSTEM", "city": "Boston", "state": "MA", "country": "US", "id": "KMABOSTO137", "lat": 42.334755, "lon": -71.170204, "distance_km": 2, "distance_mi": 1}, {"neighborhood": "Beacon & Carlton Street", "city": "Brookline", "state": "MA", "country": "US", "id": "KMABROOK5", "lat": 42.345982, "lon": -71.109337, "distance_km": 2, "distance_mi": 1}, {"neighborhood": "Pond", "city": "Jamaica Plain", "state": "MA", "country": "US", "id": "KMAJAMAI7", "lat": 42.312229, "lon": -71.116882, "distance_km": 2, "distance_mi": 1}, {"neighborhood": "Jamaica Plain", "city": "Boston", "state": "MA", "country": "US", "id": "KMABOSTO173", "lat": 42.318333, "lon": -71.105835, "distance_km": 3, "distance_mi": 1}, {"neighborhood": "Allston", "city": "Brookline", "state": "MA", "country": "US", "id": "KMABROOK30", "lat": 42.360741, "lon": -71.136169, "distance_km": 3, "distance_mi": 1}, {"neighborhood": "Jamaica Plain", "city": "Boston", "state": "MA", "country": "US", "id": "KMABOSTO176", "lat": 42.307335, "lon": -71.118729, "distance_km": 3, "distance_mi": 1}, {"neighborhood": "Jamaica Plain", "city": "Boston", "state": "MA", "country": "US", "id": "KMABOSTO52", "lat": 42.316456, "lon": -71.105362, "distance_km": 3, "distance_mi": 1}, {"neighborhood": "Jamaica Plain", "city": "Boston", "state": "MA", "country": "US", "id": "KMABOSTO246", "lat": 42.305786, "lon": -71.118507, "distance_km": 3, "distance_mi": 2}, {"neighborhood": "Cambridgeport", "city": "Cambridge", "state": "MA", "country": "US", "id": "KMACAMBR85", "lat": 42.358242, "lon": -71.110779, "distance_km": 3, "distance_mi": 2}, {"neighborhood": "", "city": "(Arnold Arboretum ) Roslindale", "state": "MA", "country": "US", "id": "KMAJAMAI4", "lat": 42.295361, "lon": -71.133606, "distance_km": 4, "distance_mi": 2}, {"neighborhood": "Northeastern University WeatherSTEM", "city": "Boston", "state": "MA", "country": "US", "id": "KMABOSTO269", "lat": 42.335865, "lon": -71.088364, "distance_km": 4, "distance_mi": 2}, {"neighborhood": "Brighton", "city": "Brighton", "state": "MA", "country": "US", "id": "KMABRIGH5", "lat": 42.346478, "lon": -71.150719, "distance_km": 1, "distance_mi": 1}]}}}, "current_observation": {"image": {"url": "http://icons.wxug.com/graphics/wu2/logo_130x80.png", "title": "Weather Underground", "link": "http://www.wunderground.com"}, "display_location": {"full": "Brookline, MA", "city": "Brookline", "state": "MA", "state_name": "Massachusetts", "country": "US", "country_iso3166": "US", "zip": "02445", "magic": "1", "wmo": "99999", "latitude": "42.332382", "longitude": "-71.138641", "elevation": "49.1"}, "observation_location": {"full": "Fisher Hill, Brookline, Massachusetts", "city": "Fisher Hill, Brookline", "state": "Massachusetts", "country": "US", "country_iso3166": "US", "latitude": "42.332382", "longitude": "-71.138641", "elevation": "177 ft"}, "estimated": {}, "station_id": "KMABROOK7", "observation_time": "Last Updated on July 10, 2:59 PM EDT", "observation_time_rfc822": "Mon, 10 Jul 2017 14:59:51 -0400", "observation_epoch": "1499713191", "local_time_rfc822": "Mon, 10 Jul 2017 14:59:51 -0400", "local_epoch": "1499713191", "local_tz_short": "EDT", "local_tz_long": "America/New_York", "local_tz_offset": "-0400", "weather": "Partly Cloudy", "temperature_string": "89.0 F (31.7 C)", "temp_f": 89.0, "temp_c": 31.7, "relative_humidity": "32%", "wind_string": "Calm", "wind_dir": "WNW", "wind_degrees": 292, "wind_mph": 0.0, "wind_gust_mph": "9.0", "wind_kph": 0, "wind_gust_kph": "14.5", "pressure_mb": "1016", "pressure_in": "29.99", "pressure_trend": "-", "dewpoint_string": "55 F (13 C)", "dewpoint_f": 55, "dewpoint_c": 13, "heat_index_string": "87 F (31 C)", "heat_index_f": 87, "heat_index_c": 31, "windchill_string": "NA", "windchill_f": "NA", "windchill_c": "NA", "feelslike_string": "87 F (31 C)", "feelslike_f": "87", "feelslike_c": "31", "visibility_mi": "10.0", "visibility_km": "16.1", "solarradiation": "--", "UV": "5", "precip_1hr_string": "0.00 in ( 0 mm)", "precip_1hr_in": "0.00", "precip_1hr_metric": " 0", "precip_today_string": "0.00 in (0 mm)", "precip_today_in": "0.00", "precip_today_metric": "0", "icon": "partlycloudy", "icon_url": "http://icons.wxug.com/i/c/k/partlycloudy.gif", "forecast_url": "http://www.wunderground.com/US/MA/Brookline.html", "history_url": "http://www.wunderground.com/weatherstation/WXDailyHistory.asp?ID=KMABROOK7", "ob_url": "http://www.wunderground.com/cgi-bin/findweather/getForecast?query=42.332382,-71.138641", "nowcast": ""}, "forecast": {"txt_forecast": {"date": "1:54 PM EDT", "forecastday": [{"period": 0, "icon": "partlycloudy", "icon_url": "http://icons.wxug.com/i/c/k/partlycloudy.gif", "title": "Monday", "fcttext": "Sun and clouds mixed. High 87F. Winds SW at 10 to 20 mph.", "fcttext_metric": "Sun and clouds mixed. High 31C. Winds SW at 15 to 30 km/h.", "pop": "0"}, {"period": 1, "icon": "nt_clear", "icon_url": "http://icons.wxug.com/i/c/k/nt_clear.gif", "title": "Monday Night", "fcttext": "Mainly clear. Low 68F. Winds SSW at 10 to 15 mph.", "fcttext_metric": "Mainly clear. Low around 20C. Winds SSW at 15 to 30 km/h.", "pop": "10"}, {"period": 2, "icon": "chancetstorms", "icon_url": "http://icons.wxug.com/i/c/k/chancetstorms.gif", "title": "Tuesday", "fcttext": "Cloudy skies during the morning hours followed by scattered showers and thunderstorms in the afternoon. A few storms may be severe. High 84F. Winds SSW at 10 to 20 mph. Chance of rain 50%.", "fcttext_metric": "Scattered thunderstorms developing during the afternoon. A few storms may be severe. High 29C. Winds SSW at 15 to 30 km/h. Chance of rain 50%.", "pop": "50"}, {"period": 3, "icon": "nt_partlycloudy", "icon_url": "http://icons.wxug.com/i/c/k/nt_partlycloudy.gif", "title": "Tuesday Night", "fcttext": "Partly cloudy skies. A stray shower or thunderstorm is possible. Low near 70F. Winds WSW at 10 to 15 mph.", "fcttext_metric": "A few clouds from time to time. A stray shower or thunderstorm is possible. Low 21C. Winds WSW at 15 to 25 km/h.", "pop": "20"}, {"period": 4, "icon": "partlycloudy", "icon_url": "http://icons.wxug.com/i/c/k/partlycloudy.gif", "title": "Wednesday", "fcttext": "Partly cloudy. High 82F. Winds ENE at 10 to 15 mph.", "fcttext_metric": "Some sun in the morning with increasing clouds during the afternoon. Slight chance of a rain shower. High 28C. Winds ENE at 10 to 15 km/h.", "pop": "10"}, {"period": 5, "icon": "nt_rain", "icon_url": "http://icons.wxug.com/i/c/k/nt_rain.gif", "title": "Wednesday Night", "fcttext": "Showers early becoming a steady rain late. Thunder possible. Low 64F. Winds E at 5 to 10 mph. Chance of rain 90%.", "fcttext_metric": "A few showers in the evening becoming a steady rain overnight. Thunder possible. Low 18C. Winds E at 10 to 15 km/h. Chance of rain 90%.", "pop": "90"}, {"period": 6, "icon": "tstorms", "icon_url": "http://icons.wxug.com/i/c/k/tstorms.gif", "title": "Thursday", "fcttext": "Thunderstorms. High 71F. Winds ENE at 10 to 15 mph. Chance of rain 100%.", "fcttext_metric": "Thunderstorms. High 22C. Winds ENE at 15 to 25 km/h. Chance of rain 100%.", "pop": "100"}, {"period": 7, "icon": "nt_chancetstorms", "icon_url": "http://icons.wxug.com/i/c/k/nt_chancetstorms.gif", "title": "Thursday Night", "fcttext": "Scattered thunderstorms in the evening. Cloudy skies overnight. Low around 60F. Winds NE at 10 to 15 mph. Chance of rain 40%.", "fcttext_metric": "Scattered thunderstorms in the evening. Cloudy skies overnight. Low 16C. Winds NE at 15 to 25 km/h. Chance of rain 40%.", "pop": "40"}]}, "simpleforecast": {"forecastday": [{"date": {"epoch": "1499727600", "pretty": "7:00 PM EDT on July 10, 2017", "day": 10, "month": 7, "year": 2017, "yday": 190, "hour": 19, "min": "00", "sec": 0, "isdst": "1", "monthname": "July", "monthname_short": "Jul", "weekday_short": "Mon", "weekday": "Monday", "ampm": "PM", "tz_short": "EDT", "tz_long": "America/New_York"}, "period": 1, "high": {"fahrenheit": "90", "celsius": "32"}, "low": {"fahrenheit": "68", "celsius": "20"}, "conditions": "Partly Cloudy", "icon": "partlycloudy", "icon_url": "http://icons.wxug.com/i/c/k/partlycloudy.gif", "skyicon": "", "pop": 0, "qpf_allday": {"in": 0.0, "mm": 0}, "qpf_day": {"in": 0.0, "mm": 0}, "qpf_night": {"in": 0.0, "mm": 0}, "snow_allday": {"in": 0.0, "cm": 0.0}, "snow_day": {"in": 0.0, "cm": 0.0}, "snow_night": {"in": 0.0, "cm": 0.0}, "maxwind": {"mph": 20, "kph": 32, "dir": "SW", "degrees": 229}, "avewind": {"mph": 13, "kph": 21, "dir": "SW", "degrees": 229}, "avehumidity": 34, "maxhumidity": 0, "minhumidity": 0}, {"date": {"epoch": "1499814000", "pretty": "7:00 PM EDT on July 11, 2017", "day": 11, "month": 7, "year": 2017, "yday": 191, "hour": 19, "min": "00", "sec": 0, "isdst": "1", "monthname": "July", "monthname_short": "Jul", "weekday_short": "Tue", "weekday": "Tuesday", "ampm": "PM", "tz_short": "EDT", "tz_long": "America/New_York"}, "period": 2, "high": {"fahrenheit": "84", "celsius": "29"}, "low": {"fahrenheit": "70", "celsius": "21"}, "conditions": "Chance of a Thunderstorm", "icon": "chancetstorms", "icon_url": "http://icons.wxug.com/i/c/k/chancetstorms.gif", "skyicon": "", "pop": 50, "qpf_allday": {"in": 0.05, "mm": 1}, "qpf_day": {"in": 0.05, "mm": 1}, "qpf_night": {"in": 0.0, "mm": 0}, "snow_allday": {"in": 0.0, "cm": 0.0}, "snow_day": {"in": 0.0, "cm": 0.0}, "snow_night": {"in": 0.0, "cm": 0.0}, "maxwind": {"mph": 20, "kph": 32, "dir": "SSW", "degrees": 205}, "avewind": {"mph": 15, "kph": 24, "dir": "SSW", "degrees": 205}, "avehumidity": 69, "maxhumidity": 0, "minhumidity": 0}, {"date": {"epoch": "1499900400", "pretty": "7:00 PM EDT on July 12, 2017", "day": 12, "month": 7, "year": 2017, "yday": 192, "hour": 19, "min": "00", "sec": 0, "isdst": "1", "monthname": "July", "monthname_short": "Jul", "weekday_short": "Wed", "weekday": "Wednesday", "ampm": "PM", "tz_short": "EDT", "tz_long": "America/New_York"}, "period": 3, "high": {"fahrenheit": "82", "celsius": "28"}, "low": {"fahrenheit": "64", "celsius": "18"}, "conditions": "Partly Cloudy", "icon": "partlycloudy", "icon_url": "http://icons.wxug.com/i/c/k/partlycloudy.gif", "skyicon": "", "pop": 10, "qpf_allday": {"in": 0.18, "mm": 5}, "qpf_day": {"in": 0.0, "mm": 0}, "qpf_night": {"in": 0.18, "mm": 5}, "snow_allday": {"in": 0.0, "cm": 0.0}, "snow_day": {"in": 0.0, "cm": 0.0}, "snow_night": {"in": 0.0, "cm": 0.0}, "maxwind": {"mph": 15, "kph": 24, "dir": "ENE", "degrees": 66}, "avewind": {"mph": 10, "kph": 16, "dir": "ENE", "degrees": 66}, "avehumidity": 63, "maxhumidity": 0, "minhumidity": 0}, {"date": {"epoch": "1499986800", "pretty": "7:00 PM EDT on July 13, 2017", "day": 13, "month": 7, "year": 2017, "yday": 193, "hour": 19, "min": "00", "sec": 0, "isdst": "1", "monthname": "July", "monthname_short": "Jul", "weekday_short": "Thu", "weekday": "Thursday", "ampm": "PM", "tz_short": "EDT", "tz_long": "America/New_York"}, "period": 4, "high": {"fahrenheit": "71", "celsius": "22"}, "low": {"fahrenheit": "60", "celsius": "16"}, "conditions": "Thunderstorm", "icon": "tstorms", "icon_url": "http://icons.wxug.com/i/c/k/tstorms.gif", "skyicon": "", "pop": 100, "qpf_allday": {"in": 0.74, "mm": 19}, "qpf_day": {"in": 0.7, "mm": 18}, "qpf_night": {"in": 0.03, "mm": 1}, "snow_allday": {"in": 0.0, "cm": 0.0}, "snow_day": {"in": 0.0, "cm": 0.0}, "snow_night": {"in": 0.0, "cm": 0.0}, "maxwind": {"mph": 15, "kph": 24, "dir": "ENE", "degrees": 63}, "avewind": {"mph": 10, "kph": 16, "dir": "ENE", "degrees": 63}, "avehumidity": 83, "maxhumidity": 0, "minhumidity": 0}]}}}, "CambridgePort": {"response": {"version": "0.1", "termsofService": "http://www.wunderground.com/weather/api/d/terms.html", "features": {"forecast": 1, "geolookup": 1, "conditions": 1}}, "location": {"type": "CITY", "country": "US", "country_iso3166": "US", "country_name": "USA", "state": "MA", "city": "Cambridge", "tz_short": "EDT", "tz_long": "America/New_York", "lat": "42.363300", "lon": "-71.107529", "zip": "02139", "magic": "1", "wmo": "99999", "l": "/q/zmw:02139.1.99999", "requesturl": "US/MA/Cambridge.html", "wuiurl": "https://www.wunderground.com/US/MA/Cambridge.html", "nearby_weather_stations": {"airport": {"station": [{"city": "Boston", "state": "MA", "country": "US", "icao": "KBOS", "lat": "42.36000061", "lon": "-71.00000000"}, {"city": "East Milton", "state": "MA", "country": "US", "icao": "KMQE", "lat": "42.20999908", "lon": "-71.11000061"}, {"city": "Bedford", "state": "MA", "country": "US", "icao": "KBED", "lat": "42.47000122", "lon": "-71.29000092"}, {"city": "Norwood", "state": "MA", "country": "US", "icao": "KOWD", "lat": "42.18999863", "lon": "-71.16999817"}]}, "pws": {"station": [{"neighborhood": "Central Square", "city": "Cambridge", "state": "MA", "country": "US", "id": "KMACAMBR4", "lat": 42.3633, "lon": -71.107529, "distance_km": 0, "distance_mi": 0}, {"neighborhood": "Central Square", "city": "Cambridge", "state": "MA", "country": "US", "id": "KMACAMBR4", "lat": 42.3633, "lon": -71.107529, "distance_km": 0, "distance_mi": 0}, {"neighborhood": "Cambridge", "city": "Cambridgeport", "state": "MA", "country": "US", "id": "KMACAMBR111", "lat": 42.363483, "lon": -71.101807, "distance_km": 0, "distance_mi": 0}, {"neighborhood": "Cambridgeport", "city": "Cambridge", "state": "MA", "country": "US", "id": "KMACAMBR85", "lat": 42.358242, "lon": -71.110779, "distance_km": 0, "distance_mi": 0}, {"neighborhood": "Area IV", "city": "Cambridge", "state": "MA", "country": "US", "id": "KMACAMBR47", "lat": 42.363949, "lon": -71.099426, "distance_km": 0, "distance_mi": 0}, {"neighborhood": "MIT (Green Bld Roof)", "city": "Cambridge", "state": "MA", "country": "US", "id": "KMACAMBR9", "lat": 42.360298, "lon": -71.089401, "distance_km": 1, "distance_mi": 0}, {"neighborhood": "West Cambridge", "city": "Cambridge", "state": "MA", "country": "US", "id": "KMACAMBR53", "lat": 42.373035, "lon": -71.123055, "distance_km": 1, "distance_mi": 1}, {"neighborhood": "Beacon & Carlton Street", "city": "Brookline", "state": "MA", "country": "US", "id": "KMABROOK5", "lat": 42.345982, "lon": -71.109337, "distance_km": 1, "distance_mi": 1}, {"neighborhood": "Back Bay West", "city": "Cambridge", "state": "MA", "country": "US", "id": "KMACAMBR34", "lat": 42.3517, "lon": -71.08625, "distance_km": 2, "distance_mi": 1}, {"neighborhood": "Prospect Hill", "city": "Somerville", "state": "MA", "country": "US", "id": "KMASOMER42", "lat": 42.379536, "lon": -71.092232, "distance_km": 2, "distance_mi": 1}, {"neighborhood": "Neighborhood Nine", "city": "Cambridge", "state": "MA", "country": "US", "id": "KMACAMBR27", "lat": 42.379566, "lon": -71.1231, "distance_km": 2, "distance_mi": 1}, {"neighborhood": "Cambridge", "city": "Cambridge", "state": "MA", "country": "US", "id": "KMACAMBR112", "lat": 42.375488, "lon": -71.129402, "distance_km": 2, "distance_mi": 1}, {"neighborhood": "Agassiz", "city": "Cambridge", "state": "MA", "country": "US", "id": "KMACAMBR71", "lat": 42.38356, "lon": -71.114128, "distance_km": 2, "distance_mi": 1}, {"neighborhood": "Cambridge, Charles River", "city": "Cambridge", "state": "MA", "country": "US", "id": "KMACAMBR70", "lat": 42.363503, "lon": -71.077904, "distance_km": 2, "distance_mi": 1}, {"neighborhood": "Spring Hill", "city": "Somerville", "state": "MA", "country": "US", "id": "KMASOMER7", "lat": 42.387711, "lon": -71.109711, "distance_km": 2, "distance_mi": 1}, {"neighborhood": "Neighborhood Nine", "city": "Cambridge", "state": "MA", "country": "US", "id": "KMACAMBR35", "lat": 42.386368, "lon": -71.121513, "distance_km": 2, "distance_mi": 1}, {"neighborhood": "Porter Square", "city": "Cambridge", "state": "MA", "country": "US", "id": "KMACAMBR14", "lat": 42.387863, "lon": -71.124321, "distance_km": 3, "distance_mi": 1}, {"neighborhood": "Albion", "city": "Somerville", "state": "MA", "country": "US", "id": "KMASOMER9", "lat": 42.391739, "lon": -71.112427, "distance_km": 3, "distance_mi": 1}, {"neighborhood": "Somerville", "city": "Medford", "state": "MA", "country": "US", "id": "KMAMEDFO29", "lat": 42.391888, "lon": -71.10038, "distance_km": 3, "distance_mi": 1}, {"neighborhood": "Hancock Bike Path", "city": "Somerville", "state": "MA", "country": "US", "id": "KMASOMER61", "lat": 42.393936, "lon": -71.114845, "distance_km": 3, "distance_mi": 2}, {"neighborhood": "East Somerville", "city": "Boston", "state": "MA", "country": "US", "id": "KMABOSTO102", "lat": 42.389179, "lon": -71.083099, "distance_km": 3, "distance_mi": 2}, {"neighborhood": "Charlestown", "city": "Charlestown", "state": "MA", "country": "US", "id": "KMACHARL15", "lat": 42.38023, "lon": -71.06871, "distance_km": 3, "distance_mi": 2}]}}}, "current_observation": {"image": {"url": "http://icons.wxug.com/graphics/wu2/logo_130x80.png", "title": "Weather Underground", "link": "http://www.wunderground.com"}, "display_location": {"full": "Cambridge, MA", "city": "Cambridge", "state": "MA", "state_name": "Massachusetts", "country": "US", "country_iso3166": "US", "zip": "02139", "magic": "1", "wmo": "99999", "latitude": "42.363300", "longitude": "-71.107529", "elevation": "4.9"}, "observation_location": {"full": "Central Square, Cambridge, Massachusetts", "city": "Central Square, Cambridge", "state": "Massachusetts", "country": "US", "country_iso3166": "US", "latitude": "42.363300", "longitude": "-71.107529", "elevation": "24 ft"}, "estimated": {}, "station_id": "KMACAMBR4", "observation_time": "Last Updated on July 10, 2:59 PM EDT", "observation_time_rfc822": "Mon, 10 Jul 2017 14:59:47 -0400", "observation_epoch": "1499713187", "local_time_rfc822": "Mon, 10 Jul 2017 14:59:51 -0400", "local_epoch": "1499713191", "local_tz_short": "EDT", "local_tz_long": "America/New_York", "local_tz_offset": "-0400", "weather": "Partly Cloudy", "temperature_string": "87.5 F (30.8 C)", "temp_f": 87.5, "temp_c": 30.8, "relative_humidity": "32%", "wind_string": "From the West at 3.0 MPH Gusting to 11.0 MPH", "wind_dir": "West", "wind_degrees": 266, "wind_mph": 3.0, "wind_gust_mph": "11.0", "wind_kph": 4.8, "wind_gust_kph": "17.7", "pressure_mb": "1016", "pressure_in": "29.99", "pressure_trend": "-", "dewpoint_string": "54 F (12 C)", "dewpoint_f": 54, "dewpoint_c": 12, "heat_index_string": "86 F (30 C)", "heat_index_f": 86, "heat_index_c": 30, "windchill_string": "NA", "windchill_f": "NA", "windchill_c": "NA", "feelslike_string": "86 F (30 C)", "feelslike_f": "86", "feelslike_c": "30", "visibility_mi": "10.0", "visibility_km": "16.1", "solarradiation": "789", "UV": "6.9", "precip_1hr_string": "0.00 in ( 0 mm)", "precip_1hr_in": "0.00", "precip_1hr_metric": " 0", "precip_today_string": "0.00 in (0 mm)", "precip_today_in": "0.00", "precip_today_metric": "0", "icon": "partlycloudy", "icon_url": "http://icons.wxug.com/i/c/k/partlycloudy.gif", "forecast_url": "http://www.wunderground.com/US/MA/Cambridge.html", "history_url": "http://www.wunderground.com/weatherstation/WXDailyHistory.asp?ID=KMACAMBR4", "ob_url": "http://www.wunderground.com/cgi-bin/findweather/getForecast?query=42.363300,-71.107529", "nowcast": ""}, "forecast": {"txt_forecast": {"date": "1:44 PM EDT", "forecastday": [{"period": 0, "icon": "partlycloudy", "icon_url": "http://icons.wxug.com/i/c/k/partlycloudy.gif", "title": "Monday", "fcttext": "Sun and clouds mixed. High 87F. Winds SW at 10 to 20 mph.", "fcttext_metric": "A mix of clouds and sun. High 31C. Winds SW at 15 to 30 km/h.", "pop": "0"}, {"period": 1, "icon": "nt_clear", "icon_url": "http://icons.wxug.com/i/c/k/nt_clear.gif", "title": "Monday Night", "fcttext": "Mainly clear. Low 68F. Winds SSW at 10 to 20 mph.", "fcttext_metric": "A few passing clouds. Low around 20C. Winds SSW at 15 to 30 km/h.", "pop": "10"}, {"period": 2, "icon": "chancetstorms", "icon_url": "http://icons.wxug.com/i/c/k/chancetstorms.gif", "title": "Tuesday", "fcttext": "Cloudy early. Scattered thunderstorms developing later in the day. A few storms may be severe. High 84F. Winds SSW at 10 to 20 mph. Chance of rain 50%.", "fcttext_metric": "Cloudy skies during the morning hours followed by scattered showers and thunderstorms in the afternoon. A few storms may be severe. High 29C. Winds SSW at 15 to 30 km/h. Chance of rain 50%.", "pop": "50"}, {"period": 3, "icon": "nt_partlycloudy", "icon_url": "http://icons.wxug.com/i/c/k/nt_partlycloudy.gif", "title": "Tuesday Night", "fcttext": "A few clouds from time to time. A stray shower or thunderstorm is possible. Low near 70F. Winds WSW at 10 to 15 mph.", "fcttext_metric": "Partly cloudy skies. A stray shower or thunderstorm is possible. Low 21C. Winds SW at 15 to 25 km/h.", "pop": "20"}, {"period": 4, "icon": "partlycloudy", "icon_url": "http://icons.wxug.com/i/c/k/partlycloudy.gif", "title": "Wednesday", "fcttext": "Partly cloudy skies in the morning will give way to cloudy skies during the afternoon. Slight chance of a rain shower. High 81F. Winds ENE at 10 to 15 mph.", "fcttext_metric": "Partly to mostly cloudy. Slight chance of a rain shower. High 28C. Winds ENE at 10 to 15 km/h.", "pop": "20"}, {"period": 5, "icon": "nt_rain", "icon_url": "http://icons.wxug.com/i/c/k/nt_rain.gif", "title": "Wednesday Night", "fcttext": "A few showers in the evening becoming a steady rain overnight. Thunder possible. Low near 65F. Winds E at 5 to 10 mph. Chance of rain 90%.", "fcttext_metric": "Showers early becoming a steady rain late. Thunder possible. Low 18C. Winds E at 10 to 15 km/h. Chance of rain 90%.", "pop": "90"}, {"period": 6, "icon": "tstorms", "icon_url": "http://icons.wxug.com/i/c/k/tstorms.gif", "title": "Thursday", "fcttext": "Thunderstorms likely. High 71F. Winds ENE at 10 to 15 mph. Chance of rain 100%.", "fcttext_metric": "Thunderstorms likely. High 22C. Winds ENE at 15 to 25 km/h. Chance of rain 100%.", "pop": "100"}, {"period": 7, "icon": "nt_chancetstorms", "icon_url": "http://icons.wxug.com/i/c/k/nt_chancetstorms.gif", "title": "Thursday Night", "fcttext": "Scattered thunderstorms during the evening, then cloudy skies overnight. Low 61F. Winds NE at 10 to 15 mph. Chance of rain 40%.", "fcttext_metric": "Scattered thunderstorms during the evening, then cloudy skies overnight. Low 16C. Winds NE at 15 to 25 km/h. Chance of rain 40%.", "pop": "40"}]}, "simpleforecast": {"forecastday": [{"date": {"epoch": "1499727600", "pretty": "7:00 PM EDT on July 10, 2017", "day": 10, "month": 7, "year": 2017, "yday": 190, "hour": 19, "min": "00", "sec": 0, "isdst": "1", "monthname": "July", "monthname_short": "Jul", "weekday_short": "Mon", "weekday": "Monday", "ampm": "PM", "tz_short": "EDT", "tz_long": "America/New_York"}, "period": 1, "high": {"fahrenheit": "87", "celsius": "31"}, "low": {"fahrenheit": "68", "celsius": "20"}, "conditions": "Partly Cloudy", "icon": "partlycloudy", "icon_url": "http://icons.wxug.com/i/c/k/partlycloudy.gif", "skyicon": "", "pop": 0, "qpf_allday": {"in": 0.0, "mm": 0}, "qpf_day": {"in": 0.0, "mm": 0}, "qpf_night": {"in": 0.0, "mm": 0}, "snow_allday": {"in": 0.0, "cm": 0.0}, "snow_day": {"in": 0.0, "cm": 0.0}, "snow_night": {"in": 0.0, "cm": 0.0}, "maxwind": {"mph": 20, "kph": 32, "dir": "SW", "degrees": 229}, "avewind": {"mph": 13, "kph": 21, "dir": "SW", "degrees": 229}, "avehumidity": 35, "maxhumidity": 0, "minhumidity": 0}, {"date": {"epoch": "1499814000", "pretty": "7:00 PM EDT on July 11, 2017", "day": 11, "month": 7, "year": 2017, "yday": 191, "hour": 19, "min": "00", "sec": 0, "isdst": "1", "monthname": "July", "monthname_short": "Jul", "weekday_short": "Tue", "weekday": "Tuesday", "ampm": "PM", "tz_short": "EDT", "tz_long": "America/New_York"}, "period": 2, "high": {"fahrenheit": "84", "celsius": "29"}, "low": {"fahrenheit": "70", "celsius": "21"}, "conditions": "Chance of a Thunderstorm", "icon": "chancetstorms", "icon_url": "http://icons.wxug.com/i/c/k/chancetstorms.gif", "skyicon": "", "pop": 50, "qpf_allday": {"in": 0.05, "mm": 1}, "qpf_day": {"in": 0.05, "mm": 1}, "qpf_night": {"in": 0.0, "mm": 0}, "snow_allday": {"in": 0.0, "cm": 0.0}, "snow_day": {"in": 0.0, "cm": 0.0}, "snow_night": {"in": 0.0, "cm": 0.0}, "maxwind": {"mph": 20, "kph": 32, "dir": "SSW", "degrees": 204}, "avewind": {"mph": 15, "kph": 24, "dir": "SSW", "degrees": 204}, "avehumidity": 69, "maxhumidity": 0, "minhumidity": 0}, {"date": {"epoch": "1499900400", "pretty": "7:00 PM EDT on July 12, 2017", "day": 12, "month": 7, "year": 2017, "yday": 192, "hour": 19, "min": "00", "sec": 0, "isdst": "1", "monthname": "July", "monthname_short": "Jul", "weekday_short": "Wed", "weekday": "Wednesday", "ampm": "PM", "tz_short": "EDT", "tz_long": "America/New_York"}, "period": 3, "high": {"fahrenheit": "81", "celsius": "27"}, "low": {"fahrenheit": "65", "celsius": "18"}, "conditions": "Partly Cloudy", "icon": "partlycloudy", "icon_url": "http://icons.wxug.com/i/c/k/partlycloudy.gif", "skyicon": "", "pop": 20, "qpf_allday": {"in": 0.18, "mm": 5}, "qpf_day": {"in": 0.0, "mm": 0}, "qpf_night": {"in": 0.18, "mm": 5}, "snow_allday": {"in": 0.0, "cm": 0.0}, "snow_day": {"in": 0.0, "cm": 0.0}, "snow_night": {"in": 0.0, "cm": 0.0}, "maxwind": {"mph": 15, "kph": 24, "dir": "ENE", "degrees": 67}, "avewind": {"mph": 10, "kph": 16, "dir": "ENE", "degrees": 67}, "avehumidity": 65, "maxhumidity": 0, "minhumidity": 0}, {"date": {"epoch": "1499986800", "pretty": "7:00 PM EDT on July 13, 2017", "day": 13, "month": 7, "year": 2017, "yday": 193, "hour": 19, "min": "00", "sec": 0, "isdst": "1", "monthname": "July", "monthname_short": "Jul", "weekday_short": "Thu", "weekday": "Thursday", "ampm": "PM", "tz_short": "EDT", "tz_long": "America/New_York"}, "period": 4, "high": {"fahrenheit": "71", "celsius": "22"}, "low": {"fahrenheit": "61", "celsius": "16"}, "conditions": "Thunderstorm", "icon": "tstorms", "icon_url": "http://icons.wxug.com/i/c/k/tstorms.gif", "skyicon": "", "pop": 100, "qpf_allday": {"in": 0.71, "mm": 18}, "qpf_day": {"in": 0.68, "mm": 17}, "qpf_night": {"in": 0.03, "mm": 1}, "snow_allday": {"in": 0.0, "cm": 0.0}, "snow_day": {"in": 0.0, "cm": 0.0}, "snow_night": {"in": 0.0, "cm": 0.0}, "maxwind": {"mph": 15, "kph": 24, "dir": "ENE", "degrees": 65}, "avewind": {"mph": 11, "kph": 18, "dir": "ENE", "degrees": 65}, "avehumidity": 84, "maxhumidity": 0, "minhumidity": 0}]}}}, "Belmont": {"response": {"version": "0.1", "termsofService": "http://www.wunderground.com/weather/api/d/terms.html", "features": {"forecast": 1, "geolookup": 1, "conditions": 1}}, "location": {"type": "CITY", "country": "US", "country_iso3166": "US", "country_name": "USA", "state": "MA", "city": "Belmont", "tz_short": "EDT", "tz_long": "America/New_York", "lat": "42.395500", "lon": "-71.181602", "zip": "02478", "magic": "1", "wmo": "99999", "l": "/q/zmw:02478.1.99999", "requesturl": "US/MA/Belmont.html", "wuiurl": "https://www.wunderground.com/US/MA/Belmont.html", "nearby_weather_stations": {"airport": {"station": [{"city": "Bedford", "state": "MA", "country": "US", "icao": "KBED", "lat": "42.47000122", "lon": "-71.29000092"}, {"city": "Boston", "state": "MA", "country": "US", "icao": "KBOS", "lat": "42.36000061", "lon": "-71.00000000"}, {"city": "East Milton", "state": "MA", "country": "US", "icao": "KMQE", "lat": "42.20999908", "lon": "-71.11000061"}, {"city": "Norwood", "state": "MA", "country": "US", "icao": "KOWD", "lat": "42.18999863", "lon": "-71.16999817"}]}, "pws": {"station": [{"neighborhood": "Lantern Road Belmont MA", "city": "Belmont", "state": "MA", "country": "US", "id": "KMABELMO12", "lat": 42.3955, "lon": -71.181602, "distance_km": 0, "distance_mi": 0}, {"neighborhood": "Lantern Road Belmont MA", "city": "Belmont", "state": "MA", "country": "US", "id": "KMABELMO12", "lat": 42.3955, "lon": -71.181602, "distance_km": 0, "distance_mi": 0}, {"neighborhood": "Belmont", "city": "Belmont", "state": "MA", "country": "US", "id": "KMABELMO13", "lat": 42.403305, "lon": -71.171104, "distance_km": 1, "distance_mi": 0}, {"neighborhood": "Belmont - Burbank Elementary School", "city": "Belmont", "state": "MA", "country": "US", "id": "KMABELMO6", "lat": 42.388645, "lon": -71.16407, "distance_km": 1, "distance_mi": 0}, {"neighborhood": "Belmont Hill", "city": "Belmont", "state": "MA", "country": "US", "id": "KMABELMO4", "lat": 42.405403, "lon": -71.197937, "distance_km": 1, "distance_mi": 1}, {"neighborhood": "Belmont", "city": "Payson Park", "state": "MA", "country": "US", "id": "KMAPAYSO2", "lat": 42.387009, "lon": -71.163292, "distance_km": 1, "distance_mi": 1}, {"neighborhood": "Fisher Road", "city": "Arlington", "state": "MA", "country": "US", "id": "KMAARLIN7", "lat": 42.412155, "lon": -71.177887, "distance_km": 1, "distance_mi": 1}, {"neighborhood": "Arlington Heights", "city": "Arlington", "state": "MA", "country": "US", "id": "KMAARLIN22", "lat": 42.407188, "lon": -71.16507, "distance_km": 1, "distance_mi": 1}, {"neighborhood": "Cambridge Highlands", "city": "Cambridge", "state": "MA", "country": "US", "id": "KMACAMBR10", "lat": 42.39283, "lon": -71.156097, "distance_km": 2, "distance_mi": 1}, {"neighborhood": "Hathaway Circle", "city": "Lexington", "state": "MA", "country": "US", "id": "KMALEXIN15", "lat": 42.414478, "lon": -71.190491, "distance_km": 2, "distance_mi": 1}, {"neighborhood": "Kelwyn", "city": "Arlington", "state": "MA", "country": "US", "id": "KMAARLIN10", "lat": 42.403931, "lon": -71.155495, "distance_km": 2, "distance_mi": 1}, {"neighborhood": "Poets Corner", "city": "Arlington", "state": "MA", "country": "US", "id": "KMAARLIN13", "lat": 42.418915, "lon": -71.193169, "distance_km": 2, "distance_mi": 1}, {"neighborhood": "UMass Waltham Center", "city": "Waltham", "state": "MA", "country": "US", "id": "KMAWALTH10", "lat": 42.383987, "lon": -71.212288, "distance_km": 2, "distance_mi": 1}, {"neighborhood": "Cambridge Highlands", "city": "Cambridge", "state": "MA", "country": "US", "id": "KMACAMBR29", "lat": 42.390747, "lon": -71.145973, "distance_km": 2, "distance_mi": 1}, {"neighborhood": "Ottoson", "city": "Arlington", "state": "MA", "country": "US", "id": "KMAARLIN20", "lat": 42.421856, "lon": -71.174553, "distance_km": 2, "distance_mi": 1}, {"neighborhood": "Watertown Center", "city": "Watertown", "state": "MA", "country": "US", "id": "KMAWATER5", "lat": 42.368309, "lon": -71.183922, "distance_km": 3, "distance_mi": 1}, {"neighborhood": "Watertown", "city": "Watertown", "state": "MA", "country": "US", "id": "KMAWATER14", "lat": 42.367432, "lon": -71.173164, "distance_km": 3, "distance_mi": 1}, {"neighborhood": "Arlington Center", "city": "Arlington", "state": "MA", "country": "US", "id": "KMAARLIN9", "lat": 42.414703, "lon": -71.148865, "distance_km": 3, "distance_mi": 2}, {"neighborhood": "The Larches", "city": "Cambridge", "state": "MA", "country": "US", "id": "KMACAMBR82", "lat": 42.378208, "lon": -71.146263, "distance_km": 3, "distance_mi": 2}, {"neighborhood": "Walnut Street", "city": "Watertown", "state": "MA", "country": "US", "id": "KMAWATER8", "lat": 42.365273, "lon": -71.168449, "distance_km": 3, "distance_mi": 2}, {"neighborhood": "Mount Auburn Cemetery", "city": "Watertown", "state": "MA", "country": "US", "id": "KMAWATER3", "lat": 42.373451, "lon": -71.150314, "distance_km": 3, "distance_mi": 2}, {"neighborhood": "West Cambridge", "city": "Cambridge", "state": "MA", "country": "US", "id": "KMACAMBR22", "lat": 42.377537, "lon": -71.145432, "distance_km": 3, "distance_mi": 2}, {"neighborhood": "Dorf", "city": "Cambridge", "state": "MA", "country": "US", "id": "KMACAMBR87", "lat": 42.382679, "lon": -71.140259, "distance_km": 3, "distance_mi": 2}, {"neighborhood": "Arlington Heights", "city": "Arlington", "state": "MA", "country": "US", "id": "KMAARLIN8", "lat": 42.428852, "lon": -71.179298, "distance_km": 3, "distance_mi": 2}, {"neighborhood": "East Arlington", "city": "Arlington", "state": "MA", "country": "US", "id": "KMAARLIN4", "lat": 42.403801, "lon": -71.137604, "distance_km": 3, "distance_mi": 2}, {"neighborhood": "East Arlington", "city": "Arlington", "state": "MA", "country": "US", "id": "KMAARLIN19", "lat": 42.414982, "lon": -71.144119, "distance_km": 3, "distance_mi": 2}, {"neighborhood": "Lansdowne Road", "city": "Arlington", "state": "MA", "country": "US", "id": "KMAARLIN11", "lat": 42.426643, "lon": -71.163307, "distance_km": 3, "distance_mi": 2}, {"neighborhood": "Mt. Ephraim", "city": "Lexington", "state": "MA", "country": "US", "id": "KMALEXIN5", "lat": 42.428169, "lon": -71.194672, "distance_km": 3, "distance_mi": 2}, {"neighborhood": "West Cambridge", "city": "Cambridge", "state": "MA", "country": "US", "id": "KMACAMBR77", "lat": 42.381783, "lon": -71.138863, "distance_km": 3, "distance_mi": 2}, {"neighborhood": "East Lexington", "city": "Lexington", "state": "MA", "country": "US", "id": "KMALEXIN27", "lat": 42.4212, "lon": -71.213013, "distance_km": 3, "distance_mi": 2}, {"neighborhood": "West Somerville, MA", "city": "Somerville", "state": "MA", "country": "US", "id": "KMASOMER60", "lat": 42.404793, "lon": -71.132713, "distance_km": 4, "distance_mi": 2}, {"neighborhood": "Hodge Road", "city": "Winchester", "state": "MA", "country": "US", "id": "KMAWINCH33", "lat": 42.430073, "lon": -71.160378, "distance_km": 4, "distance_mi": 2}, {"neighborhood": "Turkey Hill", "city": "Arlington", "state": "MA", "country": "US", "id": "KMAARLIN21", "lat": 42.434048, "lon": -71.17572, "distance_km": 4, "distance_mi": 2}]}}}, "current_observation": {"image": {"url": "http://icons.wxug.com/graphics/wu2/logo_130x80.png", "title": "Weather Underground", "link": "http://www.wunderground.com"}, "display_location": {"full": "Belmont, MA", "city": "Belmont", "state": "MA", "state_name": "Massachusetts", "country": "US", "country_iso3166": "US", "zip": "02478", "magic": "1", "wmo": "99999", "latitude": "42.395500", "longitude": "-71.181602", "elevation": "13.4"}, "observation_location": {"full": "Lantern Road Belmont MA, Belmont, Massachusetts", "city": "Lantern Road Belmont MA, Belmont", "state": "Massachusetts", "country": "US", "country_iso3166": "US", "latitude": "42.395500", "longitude": "-71.181602", "elevation": "207 ft"}, "estimated": {}, "station_id": "KMABELMO12", "observation_time": "Last Updated on July 10, 2:59 PM EDT", "observation_time_rfc822": "Mon, 10 Jul 2017 14:59:43 -0400", "observation_epoch": "1499713183", "local_time_rfc822": "Mon, 10 Jul 2017 14:59:52 -0400", "local_epoch": "1499713192", "local_tz_short": "EDT", "local_tz_long": "America/New_York", "local_tz_offset": "-0400", "weather": "Partly Cloudy", "temperature_string": "85.3 F (29.6 C)", "temp_f": 85.3, "temp_c": 29.6, "relative_humidity": "39%", "wind_string": "From the NNW at 3.6 MPH Gusting to 4.9 MPH", "wind_dir": "NNW", "wind_degrees": 335, "wind_mph": 3.6, "wind_gust_mph": "4.9", "wind_kph": 5.8, "wind_gust_kph": "7.9", "pressure_mb": "1016", "pressure_in": "30.01", "pressure_trend": "-", "dewpoint_string": "58 F (14 C)", "dewpoint_f": 58, "dewpoint_c": 14, "heat_index_string": "84 F (29 C)", "heat_index_f": 84, "heat_index_c": 29, "windchill_string": "NA", "windchill_f": "NA", "windchill_c": "NA", "feelslike_string": "84 F (29 C)", "feelslike_f": "84", "feelslike_c": "29", "visibility_mi": "10.0", "visibility_km": "16.1", "solarradiation": "902", "UV": "7.0", "precip_1hr_string": "0.00 in ( 0 mm)", "precip_1hr_in": "0.00", "precip_1hr_metric": " 0", "precip_today_string": "0.00 in (0 mm)", "precip_today_in": "0.00", "precip_today_metric": "0", "icon": "partlycloudy", "icon_url": "http://icons.wxug.com/i/c/k/partlycloudy.gif", "forecast_url": "http://www.wunderground.com/US/MA/Belmont.html", "history_url": "http://www.wunderground.com/weatherstation/WXDailyHistory.asp?ID=KMABELMO12", "ob_url": "http://www.wunderground.com/cgi-bin/findweather/getForecast?query=42.395500,-71.181602", "nowcast": ""}, "forecast": {"txt_forecast": {"date": "1:43 PM EDT", "forecastday": [{"period": 0, "icon": "partlycloudy", "icon_url": "http://icons.wxug.com/i/c/k/partlycloudy.gif", "title": "Monday", "fcttext": "A mix of clouds and sun. High 84F. Winds SW at 10 to 15 mph.", "fcttext_metric": "Sun and clouds mixed. High near 30C. Winds SW at 15 to 25 km/h.", "pop": "0"}, {"period": 1, "icon": "nt_partlycloudy", "icon_url": "http://icons.wxug.com/i/c/k/nt_partlycloudy.gif", "title": "Monday Night", "fcttext": "Partly cloudy. Low 67F. Winds SSW at 10 to 15 mph.", "fcttext_metric": "Partly cloudy skies. Low around 20C. Winds SSW at 15 to 25 km/h.", "pop": "10"}, {"period": 2, "icon": "chancetstorms", "icon_url": "http://icons.wxug.com/i/c/k/chancetstorms.gif", "title": "Tuesday", "fcttext": "Cloudy early. Scattered thunderstorms developing later in the day. A few storms may be severe. High 83F. Winds SSW at 10 to 20 mph. Chance of rain 50%.", "fcttext_metric": "Cloudy early. Scattered thunderstorms developing later in the day. A few storms may be severe. High 29C. Winds SSW at 15 to 30 km/h. Chance of rain 50%.", "pop": "50"}, {"period": 3, "icon": "nt_partlycloudy", "icon_url": "http://icons.wxug.com/i/c/k/nt_partlycloudy.gif", "title": "Tuesday Night", "fcttext": "A few clouds. A stray shower or thunderstorm is possible. Low 69F. Winds WSW at 10 to 15 mph.", "fcttext_metric": "Partly cloudy. A stray shower or thunderstorm is possible. Low 21C. Winds WSW at 15 to 25 km/h.", "pop": "20"}, {"period": 4, "icon": "mostlycloudy", "icon_url": "http://icons.wxug.com/i/c/k/mostlycloudy.gif", "title": "Wednesday", "fcttext": "Partly cloudy skies in the morning will give way to cloudy skies during the afternoon. Slight chance of a rain shower. High 82F. Winds ENE at 5 to 10 mph.", "fcttext_metric": "Some sun in the morning with increasing clouds during the afternoon. Slight chance of a rain shower. High 28C. Winds ENE at 10 to 15 km/h.", "pop": "20"}, {"period": 5, "icon": "nt_rain", "icon_url": "http://icons.wxug.com/i/c/k/nt_rain.gif", "title": "Wednesday Night", "fcttext": "Rain developing after midnight. Thunder possible. Low 63F. Winds E at 5 to 10 mph. Chance of rain 90%.", "fcttext_metric": "A few showers in the evening becoming a steady rain overnight. Thunder possible. Low 18C. Winds E at 10 to 15 km/h. Chance of rain 90%.", "pop": "90"}, {"period": 6, "icon": "tstorms", "icon_url": "http://icons.wxug.com/i/c/k/tstorms.gif", "title": "Thursday", "fcttext": "Thunderstorms. High near 70F. Winds ENE at 10 to 15 mph. Chance of rain 100%.", "fcttext_metric": "Thunderstorms. High 22C. Winds ENE at 10 to 15 km/h. Chance of rain 100%.", "pop": "100"}, {"period": 7, "icon": "nt_chancetstorms", "icon_url": "http://icons.wxug.com/i/c/k/nt_chancetstorms.gif", "title": "Thursday Night", "fcttext": "Scattered thunderstorms during the evening, then cloudy skies overnight. Low 59F. Winds NE at 5 to 10 mph. Chance of rain 50%.", "fcttext_metric": "Scattered thunderstorms in the evening. Cloudy skies overnight. Low around 15C. Winds NE at 10 to 15 km/h. Chance of rain 50%.", "pop": "50"}]}, "simpleforecast": {"forecastday": [{"date": {"epoch": "1499727600", "pretty": "7:00 PM EDT on July 10, 2017", "day": 10, "month": 7, "year": 2017, "yday": 190, "hour": 19, "min": "00", "sec": 0, "isdst": "1", "monthname": "July", "monthname_short": "Jul", "weekday_short": "Mon", "weekday": "Monday", "ampm": "PM", "tz_short": "EDT", "tz_long": "America/New_York"}, "period": 1, "high": {"fahrenheit": "84", "celsius": "29"}, "low": {"fahrenheit": "67", "celsius": "19"}, "conditions": "Partly Cloudy", "icon": "partlycloudy", "icon_url": "http://icons.wxug.com/i/c/k/partlycloudy.gif", "skyicon": "", "pop": 0, "qpf_allday": {"in": 0.0, "mm": 0}, "qpf_day": {"in": 0.0, "mm": 0}, "qpf_night": {"in": 0.0, "mm": 0}, "snow_allday": {"in": 0.0, "cm": 0.0}, "snow_day": {"in": 0.0, "cm": 0.0}, "snow_night": {"in": 0.0, "cm": 0.0}, "maxwind": {"mph": 15, "kph": 24, "dir": "SW", "degrees": 231}, "avewind": {"mph": 12, "kph": 19, "dir": "SW", "degrees": 231}, "avehumidity": 35, "maxhumidity": 0, "minhumidity": 0}, {"date": {"epoch": "1499814000", "pretty": "7:00 PM EDT on July 11, 2017", "day": 11, "month": 7, "year": 2017, "yday": 191, "hour": 19, "min": "00", "sec": 0, "isdst": "1", "monthname": "July", "monthname_short": "Jul", "weekday_short": "Tue", "weekday": "Tuesday", "ampm": "PM", "tz_short": "EDT", "tz_long": "America/New_York"}, "period": 2, "high": {"fahrenheit": "83", "celsius": "28"}, "low": {"fahrenheit": "69", "celsius": "21"}, "conditions": "Chance of a Thunderstorm", "icon": "chancetstorms", "icon_url": "http://icons.wxug.com/i/c/k/chancetstorms.gif", "skyicon": "", "pop": 50, "qpf_allday": {"in": 0.05, "mm": 1}, "qpf_day": {"in": 0.05, "mm": 1}, "qpf_night": {"in": 0.0, "mm": 0}, "snow_allday": {"in": 0.0, "cm": 0.0}, "snow_day": {"in": 0.0, "cm": 0.0}, "snow_night": {"in": 0.0, "cm": 0.0}, "maxwind": {"mph": 20, "kph": 32, "dir": "SSW", "degrees": 205}, "avewind": {"mph": 14, "kph": 23, "dir": "SSW", "degrees": 205}, "avehumidity": 69, "maxhumidity": 0, "minhumidity": 0}, {"date": {"epoch": "1499900400", "pretty": "7:00 PM EDT on July 12, 2017", "day": 12, "month": 7, "year": 2017, "yday": 192, "hour": 19, "min": "00", "sec": 0, "isdst": "1", "monthname": "July", "monthname_short": "Jul", "weekday_short": "Wed", "weekday": "Wednesday", "ampm": "PM", "tz_short": "EDT", "tz_long": "America/New_York"}, "period": 3, "high": {"fahrenheit": "82", "celsius": "28"}, "low": {"fahrenheit": "63", "celsius": "17"}, "conditions": "Mostly Cloudy", "icon": "mostlycloudy", "icon_url": "http://icons.wxug.com/i/c/k/mostlycloudy.gif", "skyicon": "", "pop": 20, "qpf_allday": {"in": 0.17, "mm": 4}, "qpf_day": {"in": 0.0, "mm": 0}, "qpf_night": {"in": 0.17, "mm": 4}, "snow_allday": {"in": 0.0, "cm": 0.0}, "snow_day": {"in": 0.0, "cm": 0.0}, "snow_night": {"in": 0.0, "cm": 0.0}, "maxwind": {"mph": 10, "kph": 16, "dir": "ENE", "degrees": 66}, "avewind": {"mph": 9, "kph": 14, "dir": "ENE", "degrees": 66}, "avehumidity": 61, "maxhumidity": 0, "minhumidity": 0}, {"date": {"epoch": "1499986800", "pretty": "7:00 PM EDT on July 13, 2017", "day": 13, "month": 7, "year": 2017, "yday": 193, "hour": 19, "min": "00", "sec": 0, "isdst": "1", "monthname": "July", "monthname_short": "Jul", "weekday_short": "Thu", "weekday": "Thursday", "ampm": "PM", "tz_short": "EDT", "tz_long": "America/New_York"}, "period": 4, "high": {"fahrenheit": "70", "celsius": "21"}, "low": {"fahrenheit": "59", "celsius": "15"}, "conditions": "Thunderstorm", "icon": "tstorms", "icon_url": "http://icons.wxug.com/i/c/k/tstorms.gif", "skyicon": "", "pop": 100, "qpf_allday": {"in": 0.74, "mm": 19}, "qpf_day": {"in": 0.71, "mm": 18}, "qpf_night": {"in": 0.03, "mm": 1}, "snow_allday": {"in": 0.0, "cm": 0.0}, "snow_day": {"in": 0.0, "cm": 0.0}, "snow_night": {"in": 0.0, "cm": 0.0}, "maxwind": {"mph": 15, "kph": 24, "dir": "ENE", "degrees": 59}, "avewind": {"mph": 10, "kph": 16, "dir": "ENE", "degrees": 59}, "avehumidity": 82, "maxhumidity": 0, "minhumidity": 0}]}}}, "Malden": {"response": {"version": "0.1", "termsofService": "http://www.wunderground.com/weather/api/d/terms.html", "features": {"forecast": 1, "geolookup": 1, "conditions": 1}}, "location": {"type": "CITY", "country": "US", "country_iso3166": "US", "country_name": "USA", "state": "MA", "city": "Malden", "tz_short": "EDT", "tz_long": "America/New_York", "lat": "42.435493", "lon": "-71.038391", "zip": "02148", "magic": "1", "wmo": "99999", "l": "/q/zmw:02148.1.99999", "requesturl": "US/MA/Malden.html", "wuiurl": "https://www.wunderground.com/US/MA/Malden.html", "nearby_weather_stations": {"airport": {"station": [{"city": "Boston", "state": "MA", "country": "US", "icao": "KBOS", "lat": "42.36000061", "lon": "-71.00000000"}, {"city": "Bedford", "state": "MA", "country": "US", "icao": "KBED", "lat": "42.47000122", "lon": "-71.29000092"}, {"city": "Beverly", "state": "MA", "country": "US", "icao": "KBVY", "lat": "42.58000183", "lon": "-70.91999817"}, {"city": "East Milton", "state": "MA", "country": "US", "icao": "KMQE", "lat": "42.20999908", "lon": "-71.11000061"}]}, "pws": {"station": [{"neighborhood": "Maplewood Sq @ MCC's", "city": "Malden", "state": "MA", "country": "US", "id": "KMAMALDE6", "lat": 42.435493, "lon": -71.038391, "distance_km": 0, "distance_mi": 0}, {"neighborhood": "Maplewood Sq @ MCC's", "city": "Malden", "state": "MA", "country": "US", "id": "KMAMALDE6", "lat": 42.435493, "lon": -71.038391, "distance_km": 0, "distance_mi": 0}, {"neighborhood": "Webster St", "city": "Malden", "state": "MA", "country": "US", "id": "KMAMALDE8", "lat": 42.431988, "lon": -71.040199, "distance_km": 0, "distance_mi": 0}, {"neighborhood": "PAPA'S PLACE", "city": "MALDEN", "state": "MA", "country": "US", "id": "KMAMALDE1", "lat": 42.439201, "lon": -71.051399, "distance_km": 1, "distance_mi": 0}, {"neighborhood": "Northwest Pine Banks", "city": "Melrose", "state": "MA", "country": "US", "id": "KMAMELRO13", "lat": 42.445686, "lon": -71.066185, "distance_km": 2, "distance_mi": 1}, {"neighborhood": "Oak Grove", "city": "Malden", "state": "MA", "country": "US", "id": "KMAMALDE11", "lat": 42.43713, "lon": -71.071281, "distance_km": 2, "distance_mi": 1}, {"neighborhood": "East Side Melrose", "city": "Melrose", "state": "MA", "country": "US", "id": "KMAMELRO1", "lat": 42.460545, "lon": -71.053864, "distance_km": 3, "distance_mi": 1}, {"neighborhood": "Prattville hills", "city": "Chelsea", "state": "MA", "country": "US", "id": "KMACHELS2", "lat": 42.40741, "lon": -71.035759, "distance_km": 3, "distance_mi": 1}, {"neighborhood": "Malden West", "city": "Malden", "state": "MA", "country": "US", "id": "KMAMALDE3", "lat": 42.426998, "lon": -71.074997, "distance_km": 3, "distance_mi": 1}, {"neighborhood": "Cottage Street", "city": "Melrose", "state": "MA", "country": "US", "id": "KMAMELRO16", "lat": 42.452171, "lon": -71.072372, "distance_km": 3, "distance_mi": 2}, {"neighborhood": "Malden West End", "city": "Malden", "state": "MA", "country": "US", "id": "KMAMALDE9", "lat": 42.432465, "lon": -71.08107, "distance_km": 3, "distance_mi": 2}, {"neighborhood": "Edgeworth", "city": "Malden", "state": "MA", "country": "US", "id": "KMAMALDE15", "lat": 42.421875, "lon": -71.082962, "distance_km": 3, "distance_mi": 2}, {"neighborhood": "Horace Mann", "city": "Melrose", "state": "MA", "country": "US", "id": "KMAMELRO12", "lat": 42.46978, "lon": -71.060951, "distance_km": 4, "distance_mi": 2}, {"neighborhood": "Highlands", "city": "Melrose", "state": "MA", "country": "US", "id": "KMAMELRO6", "lat": 42.463642, "lon": -71.074821, "distance_km": 4, "distance_mi": 2}, {"neighborhood": "Murray Hill Rd, Medford", "city": "Medford", "state": "MA", "country": "US", "id": "KMAMEDFO28", "lat": 42.426556, "lon": -71.09063, "distance_km": 4, "distance_mi": 2}, {"neighborhood": "Melrose Highlands", "city": "Melrose", "state": "MA", "country": "US", "id": "KMAMELRO11", "lat": 42.471741, "lon": -71.064835, "distance_km": 4, "distance_mi": 2}, {"neighborhood": "Northwest Melrose", "city": "Melrose", "state": "MA", "country": "US", "id": "KMAMELRO10", "lat": 42.471951, "lon": -71.066109, "distance_km": 4, "distance_mi": 2}, {"neighborhood": "Melrose Street", "city": "Stoneham", "state": "MA", "country": "US", "id": "KMASTONE10", "lat": 42.469063, "lon": -71.075066, "distance_km": 4, "distance_mi": 2}, {"neighborhood": "Greenwood", "city": "Wakefield", "state": "MA", "country": "US", "id": "KMAWAKEF11", "lat": 42.477005, "lon": -71.067184, "distance_km": 5, "distance_mi": 3}, {"neighborhood": "AmeliaDam", "city": "Everett", "state": "MA", "country": "US", "id": "KMAEVERE2", "lat": 42.394878, "lon": -71.075539, "distance_km": 5, "distance_mi": 3}, {"neighborhood": "East Somerville", "city": "Boston", "state": "MA", "country": "US", "id": "KMABOSTO102", "lat": 42.389179, "lon": -71.083099, "distance_km": 6, "distance_mi": 3}, {"neighborhood": "Emerson St. Across from Police Station", "city": "Medford", "state": "MA", "country": "US", "id": "KMAMEDFO4", "lat": 42.415516, "lon": -71.111511, "distance_km": 6, "distance_mi": 3}, {"neighborhood": "Lawrence Estates Garden Society", "city": "Medford", "state": "MA", "country": "US", "id": "KMAMEDFO16", "lat": 42.426685, "lon": -71.118439, "distance_km": 6, "distance_mi": 3}, {"neighborhood": "Somerville", "city": "Medford", "state": "MA", "country": "US", "id": "KMAMEDFO29", "lat": 42.391888, "lon": -71.10038, "distance_km": 7, "distance_mi": 4}, {"neighborhood": "West Medford", "city": "Medford", "state": "MA", "country": "US", "id": "KMAMEDFO14", "lat": 42.426517, "lon": -71.123611, "distance_km": 7, "distance_mi": 4}, {"neighborhood": "Hillside", "city": "Medford", "state": "MA", "country": "US", "id": "KMAMEDFO34", "lat": 42.410072, "lon": -71.118439, "distance_km": 7, "distance_mi": 4}, {"neighborhood": "Tufts University", "city": "Medford", "state": "MA", "country": "US", "id": "KMAMEDFO17", "lat": 42.408577, "lon": -71.118286, "distance_km": 7, "distance_mi": 4}, {"neighborhood": "Medford, MA", "city": "Medford", "state": "MA", "country": "US", "id": "KMAMEDFO31", "lat": 42.414062, "lon": -71.123375, "distance_km": 7, "distance_mi": 4}, {"neighborhood": "West Medford", "city": "Medford", "state": "MA", "country": "US", "id": "KMAMEDFO33", "lat": 42.42979, "lon": -71.130653, "distance_km": 7, "distance_mi": 4}, {"neighborhood": "Stoneham", "city": "Melrose", "state": "MA", "country": "US", "id": "KMAMELRO17", "lat": 42.461231, "lon": -71.07901, "distance_km": 4, "distance_mi": 2}]}}}, "current_observation": {"image": {"url": "http://icons.wxug.com/graphics/wu2/logo_130x80.png", "title": "Weather Underground", "link": "http://www.wunderground.com"}, "display_location": {"full": "Malden, MA", "city": "Malden", "state": "MA", "state_name": "Massachusetts", "country": "US", "country_iso3166": "US", "zip": "02148", "magic": "1", "wmo": "99999", "latitude": "42.435493", "longitude": "-71.038391", "elevation": "5.2"}, "observation_location": {"full": "Maplewood Sq @ MCC's, Malden, Massachusetts", "city": "Maplewood Sq @ MCC's, Malden", "state": "Massachusetts", "country": "US", "country_iso3166": "US", "latitude": "42.435493", "longitude": "-71.038391", "elevation": "46 ft"}, "estimated": {}, "station_id": "KMAMALDE6", "observation_time": "Last Updated on July 10, 2:59 PM EDT", "observation_time_rfc822": "Mon, 10 Jul 2017 14:59:40 -0400", "observation_epoch": "1499713180", "local_time_rfc822": "Mon, 10 Jul 2017 14:59:52 -0400", "local_epoch": "1499713192", "local_tz_short": "EDT", "local_tz_long": "America/New_York", "local_tz_offset": "-0400", "weather": "Partly Cloudy", "temperature_string": "86.5 F (30.3 C)", "temp_f": 86.5, "temp_c": 30.3, "relative_humidity": "10%", "wind_string": "From the NW at 1.3 MPH Gusting to 2.5 MPH", "wind_dir": "NW", "wind_degrees": 313, "wind_mph": 1.3, "wind_gust_mph": "2.5", "wind_kph": 2.1, "wind_gust_kph": "4.0", "pressure_mb": "1016", "pressure_in": "29.99", "pressure_trend": "-", "dewpoint_string": "24 F (-5 C)", "dewpoint_f": 24, "dewpoint_c": -5, "heat_index_string": "83 F (28 C)", "heat_index_f": 83, "heat_index_c": 28, "windchill_string": "NA", "windchill_f": "NA", "windchill_c": "NA", "feelslike_string": "83 F (28 C)", "feelslike_f": "83", "feelslike_c": "28", "visibility_mi": "10.0", "visibility_km": "16.1", "solarradiation": "798", "UV": "5.0", "precip_1hr_string": "0.00 in ( 0 mm)", "precip_1hr_in": "0.00", "precip_1hr_metric": " 0", "precip_today_string": "0.00 in (0 mm)", "precip_today_in": "0.00", "precip_today_metric": "0", "icon": "partlycloudy", "icon_url": "http://icons.wxug.com/i/c/k/partlycloudy.gif", "forecast_url": "http://www.wunderground.com/US/MA/Malden.html", "history_url": "http://www.wunderground.com/weatherstation/WXDailyHistory.asp?ID=KMAMALDE6", "ob_url": "http://www.wunderground.com/cgi-bin/findweather/getForecast?query=42.435493,-71.038391", "nowcast": ""}, "forecast": {"txt_forecast": {"date": "2:22 PM EDT", "forecastday": [{"period": 0, "icon": "partlycloudy", "icon_url": "http://icons.wxug.com/i/c/k/partlycloudy.gif", "title": "Monday", "fcttext": "Partly cloudy. High 86F. Winds SW at 10 to 15 mph.", "fcttext_metric": "Sun and clouds mixed. High near 30C. Winds SW at 15 to 30 km/h.", "pop": "0"}, {"period": 1, "icon": "nt_partlycloudy", "icon_url": "http://icons.wxug.com/i/c/k/nt_partlycloudy.gif", "title": "Monday Night", "fcttext": "Partly cloudy skies. Low 68F. Winds SSW at 10 to 20 mph.", "fcttext_metric": "A few clouds. Low around 20C. Winds SSW at 15 to 30 km/h.", "pop": "20"}, {"period": 2, "icon": "tstorms", "icon_url": "http://icons.wxug.com/i/c/k/tstorms.gif", "title": "Tuesday", "fcttext": "Thunderstorms likely in the morning. Then the chance of scattered thunderstorms in the afternoon. A few storms may be severe. High 83F. Winds SSW at 10 to 20 mph. Chance of rain 80%.", "fcttext_metric": "Variable clouds with scattered thunderstorms. A few storms may be severe. High 28C. Winds SSW at 15 to 30 km/h. Chance of rain 60%.", "pop": "80"}, {"period": 3, "icon": "nt_partlycloudy", "icon_url": "http://icons.wxug.com/i/c/k/nt_partlycloudy.gif", "title": "Tuesday Night", "fcttext": "A few clouds. A stray shower or thunderstorm is possible. Low 69F. Winds WSW at 10 to 15 mph.", "fcttext_metric": "A few clouds. A stray shower or thunderstorm is possible. Low around 20C. Winds WSW at 15 to 25 km/h.", "pop": "20"}, {"period": 4, "icon": "clear", "icon_url": "http://icons.wxug.com/i/c/k/clear.gif", "title": "Wednesday", "fcttext": "Generally sunny despite a few afternoon clouds. Slight chance of a rain shower. High 82F. Winds ENE at 10 to 15 mph.", "fcttext_metric": "Except for a few afternoon clouds, mainly sunny. High 28C. Winds ENE at 10 to 15 km/h.", "pop": "20"}, {"period": 5, "icon": "nt_tstorms", "icon_url": "http://icons.wxug.com/i/c/k/nt_tstorms.gif", "title": "Wednesday Night", "fcttext": "Partly cloudy during the evening with thunderstorms becoming likely overnight. Low 66F. Winds E at 5 to 10 mph. Chance of rain 80%.", "fcttext_metric": "Partly cloudy skies early. Showers and a possible thunderstorm developing later at night. Low 19C. Winds E at 10 to 15 km/h. Chance of rain 70%.", "pop": "80"}, {"period": 6, "icon": "tstorms", "icon_url": "http://icons.wxug.com/i/c/k/tstorms.gif", "title": "Thursday", "fcttext": "Thunderstorms. High 72F. Winds NE at 10 to 15 mph. Chance of rain 100%.", "fcttext_metric": "Thunderstorms. High 22C. Winds ENE at 15 to 25 km/h. Chance of rain 100%.", "pop": "100"}, {"period": 7, "icon": "nt_cloudy", "icon_url": "http://icons.wxug.com/i/c/k/nt_cloudy.gif", "title": "Thursday Night", "fcttext": "Overcast. Low 59F. Winds NE at 10 to 15 mph.", "fcttext_metric": "Cloudy. Low around 15C. Winds NE at 15 to 25 km/h.", "pop": "20"}]}, "simpleforecast": {"forecastday": [{"date": {"epoch": "1499727600", "pretty": "7:00 PM EDT on July 10, 2017", "day": 10, "month": 7, "year": 2017, "yday": 190, "hour": 19, "min": "00", "sec": 0, "isdst": "1", "monthname": "July", "monthname_short": "Jul", "weekday_short": "Mon", "weekday": "Monday", "ampm": "PM", "tz_short": "EDT", "tz_long": "America/New_York"}, "period": 1, "high": {"fahrenheit": "86", "celsius": "30"}, "low": {"fahrenheit": "68", "celsius": "20"}, "conditions": "Partly Cloudy", "icon": "partlycloudy", "icon_url": "http://icons.wxug.com/i/c/k/partlycloudy.gif", "skyicon": "", "pop": 0, "qpf_allday": {"in": 0.0, "mm": 0}, "qpf_day": {"in": 0.0, "mm": 0}, "qpf_night": {"in": 0.0, "mm": 0}, "snow_allday": {"in": 0.0, "cm": 0.0}, "snow_day": {"in": 0.0, "cm": 0.0}, "snow_night": {"in": 0.0, "cm": 0.0}, "maxwind": {"mph": 15, "kph": 24, "dir": "SW", "degrees": 230}, "avewind": {"mph": 12, "kph": 19, "dir": "SW", "degrees": 230}, "avehumidity": 35, "maxhumidity": 0, "minhumidity": 0}, {"date": {"epoch": "1499814000", "pretty": "7:00 PM EDT on July 11, 2017", "day": 11, "month": 7, "year": 2017, "yday": 191, "hour": 19, "min": "00", "sec": 0, "isdst": "1", "monthname": "July", "monthname_short": "Jul", "weekday_short": "Tue", "weekday": "Tuesday", "ampm": "PM", "tz_short": "EDT", "tz_long": "America/New_York"}, "period": 2, "high": {"fahrenheit": "83", "celsius": "28"}, "low": {"fahrenheit": "69", "celsius": "21"}, "conditions": "Thunderstorm", "icon": "tstorms", "icon_url": "http://icons.wxug.com/i/c/k/tstorms.gif", "skyicon": "", "pop": 80, "qpf_allday": {"in": 0.13, "mm": 3}, "qpf_day": {"in": 0.13, "mm": 3}, "qpf_night": {"in": 0.0, "mm": 0}, "snow_allday": {"in": 0.0, "cm": 0.0}, "snow_day": {"in": 0.0, "cm": 0.0}, "snow_night": {"in": 0.0, "cm": 0.0}, "maxwind": {"mph": 20, "kph": 32, "dir": "SSW", "degrees": 206}, "avewind": {"mph": 13, "kph": 21, "dir": "SSW", "degrees": 206}, "avehumidity": 73, "maxhumidity": 0, "minhumidity": 0}, {"date": {"epoch": "1499900400", "pretty": "7:00 PM EDT on July 12, 2017", "day": 12, "month": 7, "year": 2017, "yday": 192, "hour": 19, "min": "00", "sec": 0, "isdst": "1", "monthname": "July", "monthname_short": "Jul", "weekday_short": "Wed", "weekday": "Wednesday", "ampm": "PM", "tz_short": "EDT", "tz_long": "America/New_York"}, "period": 3, "high": {"fahrenheit": "82", "celsius": "28"}, "low": {"fahrenheit": "66", "celsius": "19"}, "conditions": "Clear", "icon": "clear", "icon_url": "http://icons.wxug.com/i/c/k/clear.gif", "skyicon": "", "pop": 20, "qpf_allday": {"in": 0.07, "mm": 2}, "qpf_day": {"in": 0.0, "mm": 0}, "qpf_night": {"in": 0.07, "mm": 2}, "snow_allday": {"in": 0.0, "cm": 0.0}, "snow_day": {"in": 0.0, "cm": 0.0}, "snow_night": {"in": 0.0, "cm": 0.0}, "maxwind": {"mph": 15, "kph": 24, "dir": "ENE", "degrees": 76}, "avewind": {"mph": 10, "kph": 16, "dir": "ENE", "degrees": 76}, "avehumidity": 64, "maxhumidity": 0, "minhumidity": 0}, {"date": {"epoch": "1499986800", "pretty": "7:00 PM EDT on July 13, 2017", "day": 13, "month": 7, "year": 2017, "yday": 193, "hour": 19, "min": "00", "sec": 0, "isdst": "1", "monthname": "July", "monthname_short": "Jul", "weekday_short": "Thu", "weekday": "Thursday", "ampm": "PM", "tz_short": "EDT", "tz_long": "America/New_York"}, "period": 4, "high": {"fahrenheit": "72", "celsius": "22"}, "low": {"fahrenheit": "59", "celsius": "15"}, "conditions": "Thunderstorm", "icon": "tstorms", "icon_url": "http://icons.wxug.com/i/c/k/tstorms.gif", "skyicon": "", "pop": 100, "qpf_allday": {"in": 0.52, "mm": 13}, "qpf_day": {"in": 0.52, "mm": 13}, "qpf_night": {"in": 0.0, "mm": 0}, "snow_allday": {"in": 0.0, "cm": 0.0}, "snow_day": {"in": 0.0, "cm": 0.0}, "snow_night": {"in": 0.0, "cm": 0.0}, "maxwind": {"mph": 15, "kph": 24, "dir": "NE", "degrees": 56}, "avewind": {"mph": 11, "kph": 18, "dir": "NE", "degrees": 56}, "avehumidity": 85, "maxhumidity": 0, "minhumidity": 0}]}}}, "Medford": {"response": {"version": "0.1", "termsofService": "http://www.wunderground.com/weather/api/d/terms.html", "features": {"forecast": 1, "geolookup": 1, "conditions": 1}}, "location": {"type": "CITY", "country": "US", "country_iso3166": "US", "country_name": "USA", "state": "MA", "city": "Medford", "tz_short": "EDT", "tz_long": "America/New_York", "lat": "42.415516", "lon": "-71.111511", "zip": "02155", "magic": "1", "wmo": "99999", "l": "/q/zmw:02155.1.99999", "requesturl": "US/MA/Medford.html", "wuiurl": "https://www.wunderground.com/US/MA/Medford.html", "nearby_weather_stations": {"airport": {"station": [{"city": "Boston", "state": "MA", "country": "US", "icao": "KBOS", "lat": "42.36000061", "lon": "-71.00000000"}, {"city": "Bedford", "state": "MA", "country": "US", "icao": "KBED", "lat": "42.47000122", "lon": "-71.29000092"}, {"city": "East Milton", "state": "MA", "country": "US", "icao": "KMQE", "lat": "42.20999908", "lon": "-71.11000061"}, {"city": "Beverly", "state": "MA", "country": "US", "icao": "KBVY", "lat": "42.58000183", "lon": "-70.91999817"}]}, "pws": {"station": [{"neighborhood": "Emerson St. Across from Police Station", "city": "Medford", "state": "MA", "country": "US", "id": "KMAMEDFO4", "lat": 42.415516, "lon": -71.111511, "distance_km": 0, "distance_mi": 0}, {"neighborhood": "Emerson St. Across from Police Station", "city": "Medford", "state": "MA", "country": "US", "id": "KMAMEDFO4", "lat": 42.415516, "lon": -71.111511, "distance_km": 0, "distance_mi": 0}, {"neighborhood": "Hillside", "city": "Medford", "state": "MA", "country": "US", "id": "KMAMEDFO34", "lat": 42.410072, "lon": -71.118439, "distance_km": 0, "distance_mi": 0}, {"neighborhood": "Tufts University", "city": "Medford", "state": "MA", "country": "US", "id": "KMAMEDFO17", "lat": 42.408577, "lon": -71.118286, "distance_km": 0, "distance_mi": 0}, {"neighborhood": "Medford, MA", "city": "Medford", "state": "MA", "country": "US", "id": "KMAMEDFO31", "lat": 42.414062, "lon": -71.123375, "distance_km": 0, "distance_mi": 0}, {"neighborhood": "Lawrence Estates Garden Society", "city": "Medford", "state": "MA", "country": "US", "id": "KMAMEDFO16", "lat": 42.426685, "lon": -71.118439, "distance_km": 1, "distance_mi": 0}, {"neighborhood": "West Medford", "city": "Medford", "state": "MA", "country": "US", "id": "KMAMEDFO14", "lat": 42.426517, "lon": -71.123611, "distance_km": 1, "distance_mi": 0}, {"neighborhood": "Tufts", "city": "Somerville", "state": "MA", "country": "US", "id": "KMASOMER44", "lat": 42.402313, "lon": -71.123253, "distance_km": 1, "distance_mi": 1}, {"neighborhood": "West Medford (Harvard/Boston Ave)", "city": "Medford", "state": "MA", "country": "US", "id": "KMAMEDFO30", "lat": 42.41848, "lon": -71.134476, "distance_km": 1, "distance_mi": 1}, {"neighborhood": "Davis Square in Somerville", "city": "Somerville", "state": "MA", "country": "US", "id": "KMASOMER48", "lat": 42.400345, "lon": -71.12281, "distance_km": 1, "distance_mi": 1}, {"neighborhood": "Somerville", "city": "Somerville", "state": "MA", "country": "US", "id": "KMASOMER53", "lat": 42.399235, "lon": -71.121704, "distance_km": 1, "distance_mi": 1}, {"neighborhood": "Murray Hill Rd, Medford", "city": "Medford", "state": "MA", "country": "US", "id": "KMAMEDFO28", "lat": 42.426556, "lon": -71.09063, "distance_km": 2, "distance_mi": 1}, {"neighborhood": "West Somerville, MA", "city": "Somerville", "state": "MA", "country": "US", "id": "KMASOMER60", "lat": 42.404793, "lon": -71.132713, "distance_km": 2, "distance_mi": 1}, {"neighborhood": "West Medford", "city": "Medford", "state": "MA", "country": "US", "id": "KMAMEDFO33", "lat": 42.42979, "lon": -71.130653, "distance_km": 2, "distance_mi": 1}, {"neighborhood": "Hancock Bike Path", "city": "Somerville", "state": "MA", "country": "US", "id": "KMASOMER61", "lat": 42.393936, "lon": -71.114845, "distance_km": 2, "distance_mi": 1}, {"neighborhood": "Edgeworth", "city": "Malden", "state": "MA", "country": "US", "id": "KMAMALDE15", "lat": 42.421875, "lon": -71.082962, "distance_km": 2, "distance_mi": 1}, {"neighborhood": "East Arlington", "city": "Arlington", "state": "MA", "country": "US", "id": "KMAARLIN4", "lat": 42.403801, "lon": -71.137604, "distance_km": 2, "distance_mi": 1}, {"neighborhood": "Albion", "city": "Somerville", "state": "MA", "country": "US", "id": "KMASOMER9", "lat": 42.391739, "lon": -71.112427, "distance_km": 2, "distance_mi": 1}, {"neighborhood": "East Arlington", "city": "Arlington", "state": "MA", "country": "US", "id": "KMAARLIN19", "lat": 42.414982, "lon": -71.144119, "distance_km": 2, "distance_mi": 1}, {"neighborhood": "Somerville", "city": "Medford", "state": "MA", "country": "US", "id": "KMAMEDFO29", "lat": 42.391888, "lon": -71.10038, "distance_km": 2, "distance_mi": 1}, {"neighborhood": "Arlington Center", "city": "Arlington", "state": "MA", "country": "US", "id": "KMAARLIN9", "lat": 42.414703, "lon": -71.148865, "distance_km": 3, "distance_mi": 1}, {"neighborhood": "Spring Hill", "city": "Somerville", "state": "MA", "country": "US", "id": "KMASOMER7", "lat": 42.387711, "lon": -71.109711, "distance_km": 3, "distance_mi": 1}, {"neighborhood": "Malden West End", "city": "Malden", "state": "MA", "country": "US", "id": "KMAMALDE9", "lat": 42.432465, "lon": -71.08107, "distance_km": 3, "distance_mi": 1}, {"neighborhood": "Porter Square", "city": "Cambridge", "state": "MA", "country": "US", "id": "KMACAMBR14", "lat": 42.387863, "lon": -71.124321, "distance_km": 3, "distance_mi": 1}, {"neighborhood": "Malden West", "city": "Malden", "state": "MA", "country": "US", "id": "KMAMALDE3", "lat": 42.426998, "lon": -71.074997, "distance_km": 3, "distance_mi": 1}, {"neighborhood": "Neighborhood Nine", "city": "Cambridge", "state": "MA", "country": "US", "id": "KMACAMBR35", "lat": 42.386368, "lon": -71.121513, "distance_km": 3, "distance_mi": 2}, {"neighborhood": "Wedgemere", "city": "Winchester", "state": "MA", "country": "US", "id": "KMAWINCH52", "lat": 42.438446, "lon": -71.142197, "distance_km": 3, "distance_mi": 2}, {"neighborhood": "AmeliaDam", "city": "Everett", "state": "MA", "country": "US", "id": "KMAEVERE2", "lat": 42.394878, "lon": -71.075539, "distance_km": 3, "distance_mi": 2}, {"neighborhood": "Highland Ave Winchester", "city": "Winchester", "state": "MA", "country": "US", "id": "KMAWINCH55", "lat": 42.447369, "lon": -71.131042, "distance_km": 3, "distance_mi": 2}, {"neighborhood": "Grove Place", "city": "Winchester", "state": "MA", "country": "US", "id": "KMAWINCH42", "lat": 42.442928, "lon": -71.141022, "distance_km": 3, "distance_mi": 2}, {"neighborhood": "Oak Grove", "city": "Malden", "state": "MA", "country": "US", "id": "KMAMALDE11", "lat": 42.43713, "lon": -71.071281, "distance_km": 4, "distance_mi": 2}]}}}, "current_observation": {"image": {"url": "http://icons.wxug.com/graphics/wu2/logo_130x80.png", "title": "Weather Underground", "link": "http://www.wunderground.com"}, "display_location": {"full": "Medford, MA", "city": "Medford", "state": "MA", "state_name": "Massachusetts", "country": "US", "country_iso3166": "US", "zip": "02155", "magic": "1", "wmo": "99999", "latitude": "42.415516", "longitude": "-71.111511", "elevation": "27.1"}, "observation_location": {"full": "Emerson St. Across from Police Station, Medford, Massachusetts", "city": "Emerson St. Across from Police Station, Medford", "state": "Massachusetts", "country": "US", "country_iso3166": "US", "latitude": "42.415516", "longitude": "-71.111511", "elevation": "12 ft"}, "estimated": {}, "station_id": "KMAMEDFO4", "observation_time": "Last Updated on July 10, 2:59 PM EDT", "observation_time_rfc822": "Mon, 10 Jul 2017 14:59:52 -0400", "observation_epoch": "1499713192", "local_time_rfc822": "Mon, 10 Jul 2017 14:59:53 -0400", "local_epoch": "1499713193", "local_tz_short": "EDT", "local_tz_long": "America/New_York", "local_tz_offset": "-0400", "weather": "Partly Cloudy", "temperature_string": "85.4 F (29.7 C)", "temp_f": 85.4, "temp_c": 29.7, "relative_humidity": "50%", "wind_string": "From the WSW at 3.0 MPH Gusting to 17.0 MPH", "wind_dir": "WSW", "wind_degrees": 242, "wind_mph": 3.0, "wind_gust_mph": "17.0", "wind_kph": 4.8, "wind_gust_kph": "27.4", "pressure_mb": "1016", "pressure_in": "29.99", "pressure_trend": "-", "dewpoint_string": "65 F (18 C)", "dewpoint_f": 65, "dewpoint_c": 18, "heat_index_string": "87 F (31 C)", "heat_index_f": 87, "heat_index_c": 31, "windchill_string": "NA", "windchill_f": "NA", "windchill_c": "NA", "feelslike_string": "87 F (31 C)", "feelslike_f": "87", "feelslike_c": "31", "visibility_mi": "10.0", "visibility_km": "16.1", "solarradiation": "--", "UV": "5", "precip_1hr_string": "0.00 in ( 0 mm)", "precip_1hr_in": "0.00", "precip_1hr_metric": " 0", "precip_today_string": "0.00 in (0 mm)", "precip_today_in": "0.00", "precip_today_metric": "0", "icon": "partlycloudy", "icon_url": "http://icons.wxug.com/i/c/k/partlycloudy.gif", "forecast_url": "http://www.wunderground.com/US/MA/Medford.html", "history_url": "http://www.wunderground.com/weatherstation/WXDailyHistory.asp?ID=KMAMEDFO4", "ob_url": "http://www.wunderground.com/cgi-bin/findweather/getForecast?query=42.415516,-71.111511", "nowcast": ""}, "forecast": {"txt_forecast": {"date": "2:11 PM EDT", "forecastday": [{"period": 0, "icon": "partlycloudy", "icon_url": "http://icons.wxug.com/i/c/k/partlycloudy.gif", "title": "Monday", "fcttext": "Partly cloudy. High 88F. Winds SW at 10 to 15 mph.", "fcttext_metric": "Partly cloudy. High 31C. Winds SW at 15 to 25 km/h.", "pop": "0"}, {"period": 1, "icon": "nt_partlycloudy", "icon_url": "http://icons.wxug.com/i/c/k/nt_partlycloudy.gif", "title": "Monday Night", "fcttext": "Partly cloudy. Low 68F. Winds SSW at 10 to 20 mph.", "fcttext_metric": "Some clouds. Low near 20C. Winds SSW at 15 to 30 km/h.", "pop": "20"}, {"period": 2, "icon": "chancetstorms", "icon_url": "http://icons.wxug.com/i/c/k/chancetstorms.gif", "title": "Tuesday", "fcttext": "Variable clouds with scattered thunderstorms. A few storms may be severe. High 83F. Winds SSW at 10 to 20 mph. Chance of rain 60%.", "fcttext_metric": "Scattered showers and thunderstorms. A few storms may be severe. High 28C. Winds SSW at 15 to 30 km/h. Chance of rain 60%.", "pop": "60"}, {"period": 3, "icon": "nt_partlycloudy", "icon_url": "http://icons.wxug.com/i/c/k/nt_partlycloudy.gif", "title": "Tuesday Night", "fcttext": "Partly cloudy. A stray shower or thunderstorm is possible. Low 69F. Winds WSW at 10 to 15 mph.", "fcttext_metric": "A few clouds. A stray shower or thunderstorm is possible. Low 21C. Winds WSW at 15 to 25 km/h.", "pop": "20"}, {"period": 4, "icon": "clear", "icon_url": "http://icons.wxug.com/i/c/k/clear.gif", "title": "Wednesday", "fcttext": "Except for a few afternoon clouds, mainly sunny. High 83F. Winds ENE at 10 to 15 mph.", "fcttext_metric": "Generally sunny despite a few afternoon clouds. High 28C. Winds ENE at 10 to 15 km/h.", "pop": "10"}, {"period": 5, "icon": "nt_tstorms", "icon_url": "http://icons.wxug.com/i/c/k/nt_tstorms.gif", "title": "Wednesday Night", "fcttext": "Isolated thunderstorms during the evening becoming more widespread overnight. Low 66F. Winds E at 5 to 10 mph. Chance of rain 80%.", "fcttext_metric": "Isolated thunderstorms in the evening, then mainly cloudy overnight with thunderstorms likely. Low 19C. Winds E at 10 to 15 km/h. Chance of rain 80%.", "pop": "80"}, {"period": 6, "icon": "tstorms", "icon_url": "http://icons.wxug.com/i/c/k/tstorms.gif", "title": "Thursday", "fcttext": "Thunderstorms. High 73F. Winds ENE at 10 to 15 mph. Chance of rain 100%.", "fcttext_metric": "Thunderstorms likely. High 23C. Winds ENE at 15 to 25 km/h. Chance of rain 100%.", "pop": "100"}, {"period": 7, "icon": "nt_cloudy", "icon_url": "http://icons.wxug.com/i/c/k/nt_cloudy.gif", "title": "Thursday Night", "fcttext": "Cloudy. Low 59F. Winds NE at 10 to 15 mph.", "fcttext_metric": "Cloudy skies. Low near 15C. Winds NE at 15 to 25 km/h.", "pop": "20"}]}, "simpleforecast": {"forecastday": [{"date": {"epoch": "1499727600", "pretty": "7:00 PM EDT on July 10, 2017", "day": 10, "month": 7, "year": 2017, "yday": 190, "hour": 19, "min": "00", "sec": 0, "isdst": "1", "monthname": "July", "monthname_short": "Jul", "weekday_short": "Mon", "weekday": "Monday", "ampm": "PM", "tz_short": "EDT", "tz_long": "America/New_York"}, "period": 1, "high": {"fahrenheit": "88", "celsius": "31"}, "low": {"fahrenheit": "68", "celsius": "20"}, "conditions": "Partly Cloudy", "icon": "partlycloudy", "icon_url": "http://icons.wxug.com/i/c/k/partlycloudy.gif", "skyicon": "", "pop": 0, "qpf_allday": {"in": 0.0, "mm": 0}, "qpf_day": {"in": 0.0, "mm": 0}, "qpf_night": {"in": 0.0, "mm": 0}, "snow_allday": {"in": 0.0, "cm": 0.0}, "snow_day": {"in": 0.0, "cm": 0.0}, "snow_night": {"in": 0.0, "cm": 0.0}, "maxwind": {"mph": 15, "kph": 24, "dir": "SW", "degrees": 229}, "avewind": {"mph": 12, "kph": 19, "dir": "SW", "degrees": 229}, "avehumidity": 33, "maxhumidity": 0, "minhumidity": 0}, {"date": {"epoch": "1499814000", "pretty": "7:00 PM EDT on July 11, 2017", "day": 11, "month": 7, "year": 2017, "yday": 191, "hour": 19, "min": "00", "sec": 0, "isdst": "1", "monthname": "July", "monthname_short": "Jul", "weekday_short": "Tue", "weekday": "Tuesday", "ampm": "PM", "tz_short": "EDT", "tz_long": "America/New_York"}, "period": 2, "high": {"fahrenheit": "83", "celsius": "28"}, "low": {"fahrenheit": "69", "celsius": "21"}, "conditions": "Chance of a Thunderstorm", "icon": "chancetstorms", "icon_url": "http://icons.wxug.com/i/c/k/chancetstorms.gif", "skyicon": "", "pop": 60, "qpf_allday": {"in": 0.1, "mm": 3}, "qpf_day": {"in": 0.1, "mm": 3}, "qpf_night": {"in": 0.0, "mm": 0}, "snow_allday": {"in": 0.0, "cm": 0.0}, "snow_day": {"in": 0.0, "cm": 0.0}, "snow_night": {"in": 0.0, "cm": 0.0}, "maxwind": {"mph": 20, "kph": 32, "dir": "SSW", "degrees": 207}, "avewind": {"mph": 14, "kph": 23, "dir": "SSW", "degrees": 207}, "avehumidity": 72, "maxhumidity": 0, "minhumidity": 0}, {"date": {"epoch": "1499900400", "pretty": "7:00 PM EDT on July 12, 2017", "day": 12, "month": 7, "year": 2017, "yday": 192, "hour": 19, "min": "00", "sec": 0, "isdst": "1", "monthname": "July", "monthname_short": "Jul", "weekday_short": "Wed", "weekday": "Wednesday", "ampm": "PM", "tz_short": "EDT", "tz_long": "America/New_York"}, "period": 3, "high": {"fahrenheit": "83", "celsius": "28"}, "low": {"fahrenheit": "66", "celsius": "19"}, "conditions": "Clear", "icon": "clear", "icon_url": "http://icons.wxug.com/i/c/k/clear.gif", "skyicon": "", "pop": 10, "qpf_allday": {"in": 0.09, "mm": 2}, "qpf_day": {"in": 0.0, "mm": 0}, "qpf_night": {"in": 0.09, "mm": 2}, "snow_allday": {"in": 0.0, "cm": 0.0}, "snow_day": {"in": 0.0, "cm": 0.0}, "snow_night": {"in": 0.0, "cm": 0.0}, "maxwind": {"mph": 15, "kph": 24, "dir": "ENE", "degrees": 73}, "avewind": {"mph": 10, "kph": 16, "dir": "ENE", "degrees": 73}, "avehumidity": 62, "maxhumidity": 0, "minhumidity": 0}, {"date": {"epoch": "1499986800", "pretty": "7:00 PM EDT on July 13, 2017", "day": 13, "month": 7, "year": 2017, "yday": 193, "hour": 19, "min": "00", "sec": 0, "isdst": "1", "monthname": "July", "monthname_short": "Jul", "weekday_short": "Thu", "weekday": "Thursday", "ampm": "PM", "tz_short": "EDT", "tz_long": "America/New_York"}, "period": 4, "high": {"fahrenheit": "73", "celsius": "23"}, "low": {"fahrenheit": "59", "celsius": "15"}, "conditions": "Thunderstorm", "icon": "tstorms", "icon_url": "http://icons.wxug.com/i/c/k/tstorms.gif", "skyicon": "", "pop": 100, "qpf_allday": {"in": 0.53, "mm": 13}, "qpf_day": {"in": 0.53, "mm": 13}, "qpf_night": {"in": 0.0, "mm": 0}, "snow_allday": {"in": 0.0, "cm": 0.0}, "snow_day": {"in": 0.0, "cm": 0.0}, "snow_night": {"in": 0.0, "cm": 0.0}, "maxwind": {"mph": 15, "kph": 24, "dir": "ENE", "degrees": 58}, "avewind": {"mph": 11, "kph": 18, "dir": "ENE", "degrees": 58}, "avehumidity": 84, "maxhumidity": 0, "minhumidity": 0}]}}}, "Waban": {"response": {"version": "0.1", "termsofService": "http://www.wunderground.com/weather/api/d/terms.html", "features": {"forecast": 1, "geolookup": 1, "conditions": 1}}, "location": {"type": "CITY", "country": "US", "country_iso3166": "US", "country_name": "USA", "state": "MA", "city": "Waban", "tz_short": "EDT", "tz_long": "America/New_York", "lat": "42.331001", "lon": "-71.224998", "zip": "02468", "magic": "1", "wmo": "99999", "l": "/q/zmw:02468.1.99999", "requesturl": "US/MA/Waban.html", "wuiurl": "https://www.wunderground.com/US/MA/Waban.html", "nearby_weather_stations": {"airport": {"station": [{"city": "Norwood", "state": "MA", "country": "US", "icao": "KOWD", "lat": "42.18999863", "lon": "-71.16999817"}, {"city": "East Milton", "state": "MA", "country": "US", "icao": "KMQE", "lat": "42.20999908", "lon": "-71.11000061"}, {"city": "Bedford", "state": "MA", "country": "US", "icao": "KBED", "lat": "42.47000122", "lon": "-71.29000092"}, {"city": "Boston", "state": "MA", "country": "US", "icao": "KBOS", "lat": "42.36000061", "lon": "-71.00000000"}]}, "pws": {"station": [{"neighborhood": "Waban MA", "city": "Waban", "state": "MA", "country": "US", "id": "KMAWABAN1", "lat": 42.331001, "lon": -71.224998, "distance_km": 0, "distance_mi": 0}, {"neighborhood": "Waban MA", "city": "Waban", "state": "MA", "country": "US", "id": "KMAWABAN1", "lat": 42.331001, "lon": -71.224998, "distance_km": 0, "distance_mi": 0}, {"neighborhood": "Waban/NewtonHighlands", "city": "Waban", "state": "MA", "country": "US", "id": "KMAWABAN2", "lat": 42.323822, "lon": -71.220444, "distance_km": 0, "distance_mi": 0}, {"neighborhood": "West Newton", "city": "Newton", "state": "MA", "country": "US", "id": "KMANEWTO14", "lat": 42.345531, "lon": -71.221031, "distance_km": 1, "distance_mi": 0}, {"neighborhood": "West Newton", "city": "Newton", "state": "MA", "country": "US", "id": "KMANEWTO10", "lat": 42.346039, "lon": -71.223694, "distance_km": 1, "distance_mi": 1}, {"neighborhood": "Newton Centre", "city": "Newton", "state": "MA", "country": "US", "id": "KMANEWTO42", "lat": 42.33532, "lon": -71.202316, "distance_km": 1, "distance_mi": 1}, {"neighborhood": "Newton Centre", "city": "Newton", "state": "MA", "country": "US", "id": "KMANEWTO37", "lat": 42.334751, "lon": -71.201584, "distance_km": 1, "distance_mi": 1}, {"neighborhood": "Newton Centre", "city": "Newton", "state": "MA", "country": "US", "id": "KMANEWTO33", "lat": 42.330555, "lon": -71.200851, "distance_km": 1, "distance_mi": 1}, {"neighborhood": "Arklay S.Richards Co., Inc.", "city": "Newton Highlands", "state": "MA", "country": "US", "id": "KMANEWTO3", "lat": 42.317215, "lon": -71.208145, "distance_km": 2, "distance_mi": 1}, {"neighborhood": "Newton Upper Falls", "city": "Newton", "state": "MA", "country": "US", "id": "KMANEWTO41", "lat": 42.312721, "lon": -71.21769, "distance_km": 2, "distance_mi": 1}, {"neighborhood": "West Newton", "city": "Waltham", "state": "MA", "country": "US", "id": "KMAWALTH15", "lat": 42.3512, "lon": -71.23053, "distance_km": 2, "distance_mi": 1}, {"neighborhood": "Newton Lower Falls", "city": "Wellesley", "state": "MA", "country": "US", "id": "KMAWELLE25", "lat": 42.327778, "lon": -71.25679, "distance_km": 2, "distance_mi": 1}, {"neighborhood": "Newtonville", "city": "Newton", "state": "MA", "country": "US", "id": "KMANEWTO11", "lat": 42.353699, "lon": -71.211639, "distance_km": 2, "distance_mi": 1}, {"neighborhood": "Newton Centre", "city": "Newton", "state": "MA", "country": "US", "id": "KMANEWTO12", "lat": 42.331764, "lon": -71.189774, "distance_km": 2, "distance_mi": 1}, {"neighborhood": "West Newton", "city": "Waltham", "state": "MA", "country": "US", "id": "KMAWALTH11", "lat": 42.360397, "lon": -71.229828, "distance_km": 3, "distance_mi": 1}, {"neighborhood": "Newton Centre", "city": "Newton", "state": "MA", "country": "US", "id": "KMANEWTO16", "lat": 42.332993, "lon": -71.182465, "distance_km": 3, "distance_mi": 2}, {"neighborhood": "Wellesley Standish", "city": "Wellesley", "state": "MA", "country": "US", "id": "KMAWELLE23", "lat": 42.309853, "lon": -71.25798, "distance_km": 3, "distance_mi": 2}, {"neighborhood": "Chestnut Hill", "city": "Chestnut Hill", "state": "MA", "country": "US", "id": "KMACHEST3", "lat": 42.333607, "lon": -71.181183, "distance_km": 3, "distance_mi": 2}, {"neighborhood": "South Waltham", "city": "Waltham", "state": "MA", "country": "US", "id": "KMAWALTH25", "lat": 42.364166, "lon": -71.228058, "distance_km": 3, "distance_mi": 2}, {"neighborhood": "South Waltham", "city": "Waltham", "state": "MA", "country": "US", "id": "KMAWALTH9", "lat": 42.368469, "lon": -71.231201, "distance_km": 4, "distance_mi": 2}, {"neighborhood": "Watertown", "city": "Newton", "state": "MA", "country": "US", "id": "KMANEWTO43", "lat": 42.367809, "lon": -71.211395, "distance_km": 4, "distance_mi": 2}, {"neighborhood": "Watertown/ Newton Corner", "city": "Watertown", "state": "MA", "country": "US", "id": "KMAWATER10", "lat": 42.360954, "lon": -71.191414, "distance_km": 4, "distance_mi": 2}, {"neighborhood": "Sky View Circle", "city": "Newton", "state": "MA", "country": "US", "id": "KMANEWTO19", "lat": 42.304619, "lon": -71.185776, "distance_km": 4, "distance_mi": 2}, {"neighborhood": "Bleachery", "city": "Waltham", "state": "MA", "country": "US", "id": "KMAWALTH32", "lat": 42.371117, "lon": -71.223206, "distance_km": 4, "distance_mi": 2}, {"neighborhood": "Nardell Road", "city": "Boston", "state": "MA", "country": "US", "id": "KMABOSTO114", "lat": 42.309151, "lon": -71.178581, "distance_km": 4, "distance_mi": 2}, {"neighborhood": "Boston College WeatherSTEM", "city": "Boston", "state": "MA", "country": "US", "id": "KMABOSTO137", "lat": 42.334755, "lon": -71.170204, "distance_km": 4, "distance_mi": 2}, {"neighborhood": "Weston", "city": "Weston", "state": "MA", "country": "US", "id": "KMAWESTO11", "lat": 42.354088, "lon": -71.272064, "distance_km": 4, "distance_mi": 2}, {"neighborhood": "The Chemistry", "city": "Waltham", "state": "MA", "country": "US", "id": "KMAWALTH18", "lat": 42.37215, "lon": -71.237312, "distance_km": 4, "distance_mi": 2}, {"neighborhood": "Ober Road", "city": "Newton", "state": "MA", "country": "US", "id": "KMANEWTO13", "lat": 42.300735, "lon": -71.184532, "distance_km": 4, "distance_mi": 2}, {"neighborhood": "Newton Corner", "city": "Newton", "state": "MA", "country": "US", "id": "KMANEWTO44", "lat": 42.355659, "lon": -71.174316, "distance_km": 4, "distance_mi": 2}, {"neighborhood": "Needham", "city": "Needham Heights", "state": "MA", "country": "US", "id": "KMANEEDH15", "lat": 42.285793, "lon": -71.219376, "distance_km": 5, "distance_mi": 3}, {"neighborhood": "Webster Street", "city": "Needham", "state": "MA", "country": "US", "id": "KMANEEDH10", "lat": 42.284428, "lon": -71.229385, "distance_km": 5, "distance_mi": 3}]}}}, "current_observation": {"image": {"url": "http://icons.wxug.com/graphics/wu2/logo_130x80.png", "title": "Weather Underground", "link": "http://www.wunderground.com"}, "display_location": {"full": "Waban, MA", "city": "Waban", "state": "MA", "state_name": "Massachusetts", "country": "US", "country_iso3166": "US", "zip": "02468", "magic": "1", "wmo": "99999", "latitude": "42.331001", "longitude": "-71.224998", "elevation": "37.5"}, "observation_location": {"full": "Waban MA, Waban, Massachusetts", "city": "Waban MA, Waban", "state": "Massachusetts", "country": "US", "country_iso3166": "US", "latitude": "42.331001", "longitude": "-71.224998", "elevation": "142 ft"}, "estimated": {}, "station_id": "KMAWABAN1", "observation_time": "Last Updated on July 10, 2:59 PM EDT", "observation_time_rfc822": "Mon, 10 Jul 2017 14:59:45 -0400", "observation_epoch": "1499713185", "local_time_rfc822": "Mon, 10 Jul 2017 14:59:54 -0400", "local_epoch": "1499713194", "local_tz_short": "EDT", "local_tz_long": "America/New_York", "local_tz_offset": "-0400", "weather": "Partly Cloudy", "temperature_string": "86.3 F (30.2 C)", "temp_f": 86.3, "temp_c": 30.2, "relative_humidity": "40%", "wind_string": "From the North at 1.0 MPH Gusting to 6.0 MPH", "wind_dir": "North", "wind_degrees": 5, "wind_mph": 1.0, "wind_gust_mph": "6.0", "wind_kph": 1.6, "wind_gust_kph": "9.7", "pressure_mb": "1016", "pressure_in": "29.99", "pressure_trend": "0", "dewpoint_string": "59 F (15 C)", "dewpoint_f": 59, "dewpoint_c": 15, "heat_index_string": "86 F (30 C)", "heat_index_f": 86, "heat_index_c": 30, "windchill_string": "NA", "windchill_f": "NA", "windchill_c": "NA", "feelslike_string": "86 F (30 C)", "feelslike_f": "86", "feelslike_c": "30", "visibility_mi": "10.0", "visibility_km": "16.1", "solarradiation": "--", "UV": "8", "precip_1hr_string": "0.00 in ( 0 mm)", "precip_1hr_in": "0.00", "precip_1hr_metric": " 0", "precip_today_string": "0.00 in (0 mm)", "precip_today_in": "0.00", "precip_today_metric": "0", "icon": "partlycloudy", "icon_url": "http://icons.wxug.com/i/c/k/partlycloudy.gif", "forecast_url": "http://www.wunderground.com/US/MA/Waban.html", "history_url": "http://www.wunderground.com/weatherstation/WXDailyHistory.asp?ID=KMAWABAN1", "ob_url": "http://www.wunderground.com/cgi-bin/findweather/getForecast?query=42.331001,-71.224998", "nowcast": ""}, "forecast": {"txt_forecast": {"date": "1:34 PM EDT", "forecastday": [{"period": 0, "icon": "partlycloudy", "icon_url": "http://icons.wxug.com/i/c/k/partlycloudy.gif", "title": "Monday", "fcttext": "A mix of clouds and sun. High around 85F. Winds SW at 10 to 15 mph.", "fcttext_metric": "Partly cloudy. High near 30C. Winds SW at 15 to 25 km/h.", "pop": "0"}, {"period": 1, "icon": "nt_partlycloudy", "icon_url": "http://icons.wxug.com/i/c/k/nt_partlycloudy.gif", "title": "Monday Night", "fcttext": "Partly cloudy skies. Low 67F. Winds SSW at 10 to 15 mph.", "fcttext_metric": "A few clouds. Low 19C. Winds SSW at 15 to 25 km/h.", "pop": "10"}, {"period": 2, "icon": "chancetstorms", "icon_url": "http://icons.wxug.com/i/c/k/chancetstorms.gif", "title": "Tuesday", "fcttext": "Cloudy in the morning with scattered thunderstorms developing later in the day. A few storms may be severe. High 84F. Winds SSW at 10 to 20 mph. Chance of rain 50%.", "fcttext_metric": "Scattered thunderstorms developing during the afternoon. A few storms may be severe. High 29C. Winds SSW at 15 to 30 km/h. Chance of rain 50%.", "pop": "50"}, {"period": 3, "icon": "nt_partlycloudy", "icon_url": "http://icons.wxug.com/i/c/k/nt_partlycloudy.gif", "title": "Tuesday Night", "fcttext": "Partly cloudy. A stray shower or thunderstorm is possible. Low 69F. Winds WSW at 10 to 15 mph.", "fcttext_metric": "Partly cloudy. A stray shower or thunderstorm is possible. Low around 20C. Winds SW at 10 to 15 km/h.", "pop": "20"}, {"period": 4, "icon": "partlycloudy", "icon_url": "http://icons.wxug.com/i/c/k/partlycloudy.gif", "title": "Wednesday", "fcttext": "Partly cloudy skies in the morning will give way to cloudy skies during the afternoon. Slight chance of a rain shower. High 83F. Winds ENE at 5 to 10 mph.", "fcttext_metric": "Partly to mostly cloudy. Slight chance of a rain shower. High 28C. Winds ENE at 10 to 15 km/h.", "pop": "20"}, {"period": 5, "icon": "nt_rain", "icon_url": "http://icons.wxug.com/i/c/k/nt_rain.gif", "title": "Wednesday Night", "fcttext": "Partly cloudy skies early will give way to cloudy skies and rain later during the night. Thunder possible. Low 64F. Winds E at 5 to 10 mph. Chance of rain 90%.", "fcttext_metric": "Mostly cloudy with showers and a possible thunderstorm late. Low 17C. Winds E at 10 to 15 km/h. Chance of rain 90%.", "pop": "90"}, {"period": 6, "icon": "tstorms", "icon_url": "http://icons.wxug.com/i/c/k/tstorms.gif", "title": "Thursday", "fcttext": "Thunderstorms likely. High 71F. Winds ENE at 10 to 15 mph. Chance of rain 100%.", "fcttext_metric": "Thunderstorms. High 22C. Winds ENE at 10 to 15 km/h. Chance of rain 100%.", "pop": "100"}, {"period": 7, "icon": "nt_chancetstorms", "icon_url": "http://icons.wxug.com/i/c/k/nt_chancetstorms.gif", "title": "Thursday Night", "fcttext": "Scattered thunderstorms in the evening. Cloudy skies overnight. Low 59F. Winds NE at 5 to 10 mph. Chance of rain 50%.", "fcttext_metric": "Scattered thunderstorms in the evening. Cloudy skies overnight. Low around 15C. Winds NE at 10 to 15 km/h. Chance of rain 50%.", "pop": "50"}]}, "simpleforecast": {"forecastday": [{"date": {"epoch": "1499727600", "pretty": "7:00 PM EDT on July 10, 2017", "day": 10, "month": 7, "year": 2017, "yday": 190, "hour": 19, "min": "00", "sec": 0, "isdst": "1", "monthname": "July", "monthname_short": "Jul", "weekday_short": "Mon", "weekday": "Monday", "ampm": "PM", "tz_short": "EDT", "tz_long": "America/New_York"}, "period": 1, "high": {"fahrenheit": "87", "celsius": "30"}, "low": {"fahrenheit": "67", "celsius": "19"}, "conditions": "Partly Cloudy", "icon": "partlycloudy", "icon_url": "http://icons.wxug.com/i/c/k/partlycloudy.gif", "skyicon": "", "pop": 0, "qpf_allday": {"in": 0.0, "mm": 0}, "qpf_day": {"in": 0.0, "mm": 0}, "qpf_night": {"in": 0.0, "mm": 0}, "snow_allday": {"in": 0.0, "cm": 0.0}, "snow_day": {"in": 0.0, "cm": 0.0}, "snow_night": {"in": 0.0, "cm": 0.0}, "maxwind": {"mph": 15, "kph": 24, "dir": "SW", "degrees": 230}, "avewind": {"mph": 12, "kph": 19, "dir": "SW", "degrees": 230}, "avehumidity": 34, "maxhumidity": 0, "minhumidity": 0}, {"date": {"epoch": "1499814000", "pretty": "7:00 PM EDT on July 11, 2017", "day": 11, "month": 7, "year": 2017, "yday": 191, "hour": 19, "min": "00", "sec": 0, "isdst": "1", "monthname": "July", "monthname_short": "Jul", "weekday_short": "Tue", "weekday": "Tuesday", "ampm": "PM", "tz_short": "EDT", "tz_long": "America/New_York"}, "period": 2, "high": {"fahrenheit": "84", "celsius": "29"}, "low": {"fahrenheit": "69", "celsius": "21"}, "conditions": "Chance of a Thunderstorm", "icon": "chancetstorms", "icon_url": "http://icons.wxug.com/i/c/k/chancetstorms.gif", "skyicon": "", "pop": 50, "qpf_allday": {"in": 0.05, "mm": 1}, "qpf_day": {"in": 0.05, "mm": 1}, "qpf_night": {"in": 0.0, "mm": 0}, "snow_allday": {"in": 0.0, "cm": 0.0}, "snow_day": {"in": 0.0, "cm": 0.0}, "snow_night": {"in": 0.0, "cm": 0.0}, "maxwind": {"mph": 20, "kph": 32, "dir": "SSW", "degrees": 205}, "avewind": {"mph": 14, "kph": 23, "dir": "SSW", "degrees": 205}, "avehumidity": 69, "maxhumidity": 0, "minhumidity": 0}, {"date": {"epoch": "1499900400", "pretty": "7:00 PM EDT on July 12, 2017", "day": 12, "month": 7, "year": 2017, "yday": 192, "hour": 19, "min": "00", "sec": 0, "isdst": "1", "monthname": "July", "monthname_short": "Jul", "weekday_short": "Wed", "weekday": "Wednesday", "ampm": "PM", "tz_short": "EDT", "tz_long": "America/New_York"}, "period": 3, "high": {"fahrenheit": "83", "celsius": "28"}, "low": {"fahrenheit": "64", "celsius": "18"}, "conditions": "Partly Cloudy", "icon": "partlycloudy", "icon_url": "http://icons.wxug.com/i/c/k/partlycloudy.gif", "skyicon": "", "pop": 20, "qpf_allday": {"in": 0.18, "mm": 5}, "qpf_day": {"in": 0.0, "mm": 0}, "qpf_night": {"in": 0.18, "mm": 5}, "snow_allday": {"in": 0.0, "cm": 0.0}, "snow_day": {"in": 0.0, "cm": 0.0}, "snow_night": {"in": 0.0, "cm": 0.0}, "maxwind": {"mph": 10, "kph": 16, "dir": "ENE", "degrees": 63}, "avewind": {"mph": 9, "kph": 14, "dir": "ENE", "degrees": 63}, "avehumidity": 61, "maxhumidity": 0, "minhumidity": 0}, {"date": {"epoch": "1499986800", "pretty": "7:00 PM EDT on July 13, 2017", "day": 13, "month": 7, "year": 2017, "yday": 193, "hour": 19, "min": "00", "sec": 0, "isdst": "1", "monthname": "July", "monthname_short": "Jul", "weekday_short": "Thu", "weekday": "Thursday", "ampm": "PM", "tz_short": "EDT", "tz_long": "America/New_York"}, "period": 4, "high": {"fahrenheit": "71", "celsius": "22"}, "low": {"fahrenheit": "59", "celsius": "15"}, "conditions": "Thunderstorm", "icon": "tstorms", "icon_url": "http://icons.wxug.com/i/c/k/tstorms.gif", "skyicon": "", "pop": 100, "qpf_allday": {"in": 0.8, "mm": 20}, "qpf_day": {"in": 0.77, "mm": 20}, "qpf_night": {"in": 0.03, "mm": 1}, "snow_allday": {"in": 0.0, "cm": 0.0}, "snow_day": {"in": 0.0, "cm": 0.0}, "snow_night": {"in": 0.0, "cm": 0.0}, "maxwind": {"mph": 15, "kph": 24, "dir": "ENE", "degrees": 59}, "avewind": {"mph": 10, "kph": 16, "dir": "ENE", "degrees": 59}, "avehumidity": 83, "maxhumidity": 0, "minhumidity": 0}]}}}}}