{"07-08_16-00": {"BackBay": {"response": {"version": "0.1", "termsofService": "http://www.wunderground.com/weather/api/d/terms.html", "features": {"forecast": 1, "geolookup": 1, "conditions": 1}}, "location": {"type": "CITY", "country": "US", "country_iso3166": "US", "country_name": "USA", "state": "MA", "city": "Boston", "tz_short": "EDT", "tz_long": "America/New_York", "lat": "42.348248", "lon": "-71.084167", "zip": "02199", "magic": "1", "wmo": "99999", "l": "/q/zmw:02199.1.99999", "requesturl": "US/MA/Boston.html", "wuiurl": "https://www.wunderground.com/US/MA/Boston.html", "nearby_weather_stations": {"airport": {"station": [{"city": "Boston", "state": "MA", "country": "US", "icao": "KBOS", "lat": "42.36000061", "lon": "-71.00000000"}, {"city": "East Milton", "state": "MA", "country": "US", "icao": "KMQE", "lat": "42.20999908", "lon": "-71.11000061"}, {"city": "Norwood", "state": "MA", "country": "US", "icao": "KOWD", "lat": "42.18999863", "lon": "-71.16999817"}, {"city": "Bedford", "state": "MA", "country": "US", "icao": "KBED", "lat": "42.47000122", "lon": "-71.29000092"}]}, "pws": {"station": [{"neighborhood": "Back Bay West", "city": "Cambridge", "state": "MA", "country": "US", "id": "KMACAMBR34", "lat": 42.3517, "lon": -71.08625, "distance_km": 0, "distance_mi": 0}, {"neighborhood": "Columbus", "city": "Boston", "state": "MA", "country": "US", "id": "KMABOSTO106", "lat": 42.345158, "lon": -71.077545, "distance_km": 0, "distance_mi": 0}, {"neighborhood": "Columbus", "city": "Boston", "state": "MA", "country": "US", "id": "KMABOSTO158", "lat": 42.342751, "lon": -71.080803, "distance_km": 0, "distance_mi": 0}, {"neighborhood": "Columbus", "city": "Boston", "state": "MA", "country": "US", "id": "KMABOSTO68", "lat": 42.34164, "lon": -71.080498, "distance_km": 0, "distance_mi": 0}, {"neighborhood": "south end", "city": "Boston", "state": "MA", "country": "US", "id": "KMABOSTO197", "lat": 42.346802, "lon": -71.071365, "distance_km": 1, "distance_mi": 0}, {"neighborhood": "MIT (Green Bld Roof)", "city": "Cambridge", "state": "MA", "country": "US", "id": "KMACAMBR9", "lat": 42.360298, "lon": -71.089401, "distance_km": 1, "distance_mi": 0}, {"neighborhood": "South End", "city": "Boston", "state": "MA", "country": "US", "id": "KMABOSTO279", "lat": 42.341648, "lon": -71.069443, "distance_km": 1, "distance_mi": 0}, {"neighborhood": "Northeastern University WeatherSTEM", "city": "Boston", "state": "MA", "country": "US", "id": "KMABOSTO269", "lat": 42.335865, "lon": -71.088364, "distance_km": 1, "distance_mi": 0}, {"neighborhood": "Boston", "city": "Boston", "state": "MA", "country": "US", "id": "KMABOSTO257", "lat": 42.337036, "lon": -71.073914, "distance_km": 1, "distance_mi": 0}, {"neighborhood": "Boston - South End", "city": "Boston", "state": "MA", "country": "US", "id": "KMABOSTO22", "lat": 42.342987, "lon": -71.066826, "distance_km": 1, "distance_mi": 0}, {"neighborhood": "Beacon Hill", "city": "Cambridge", "state": "MA", "country": "US", "id": "KMACAMBR41", "lat": 42.357903, "lon": -71.070343, "distance_km": 1, "distance_mi": 0}, {"neighborhood": "Cambridge, Charles River", "city": "Cambridge", "state": "MA", "country": "US", "id": "KMACAMBR70", "lat": 42.363503, "lon": -71.077904, "distance_km": 1, "distance_mi": 1}, {"neighborhood": "East Cambridge", "city": "Cambridge", "state": "MA", "country": "US", "id": "KMACAMBR94", "lat": 42.366394, "lon": -71.084282, "distance_km": 2, "distance_mi": 1}, {"neighborhood": "Beacon & Carlton Street", "city": "Brookline", "state": "MA", "country": "US", "id": "KMABROOK5", "lat": 42.345982, "lon": -71.109337, "distance_km": 2, "distance_mi": 1}, {"neighborhood": "Area IV", "city": "Cambridge", "state": "MA", "country": "US", "id": "KMACAMBR47", "lat": 42.363949, "lon": -71.099426, "distance_km": 2, "distance_mi": 1}, {"neighborhood": "South Boston", "city": "Boston", "state": "MA", "country": "US", "id": "KMABOSTO35", "lat": 42.343105, "lon": -71.058197, "distance_km": 2, "distance_mi": 1}, {"neighborhood": "Cambridge", "city": "Cambridgeport", "state": "MA", "country": "US", "id": "KMACAMBR111", "lat": 42.363483, "lon": -71.101807, "distance_km": 2, "distance_mi": 1}, {"neighborhood": "Longwood", "city": "Boston", "state": "MA", "country": "US", "id": "KMABOSTO130", "lat": 42.343025, "lon": -71.11042, "distance_km": 2, "distance_mi": 1}, {"neighborhood": "Boston", "city": "Boston", "state": "MA", "country": "US", "id": "KMABOSTO270", "lat": 42.358707, "lon": -71.058456, "distance_km": 2, "distance_mi": 1}, {"neighborhood": "Cambridgeport", "city": "Cambridge", "state": "MA", "country": "US", "id": "KMACAMBR85", "lat": 42.358242, "lon": -71.110779, "distance_km": 2, "distance_mi": 1}, {"neighborhood": "Downtown", "city": "Boston", "state": "MA", "country": "US", "id": "KMABOSTO116", "lat": 42.360081, "lon": -71.058884, "distance_km": 2, "distance_mi": 1}, {"neighborhood": "Central Square", "city": "Cambridge", "state": "MA", "country": "US", "id": "KMACAMBR4", "lat": 42.3633, "lon": -71.107529, "distance_km": 2, "distance_mi": 1}, {"neighborhood": "Boston", "city": "Boston", "state": "MA", "country": "US", "id": "KMABOSTO277", "lat": 42.340935, "lon": -71.052971, "distance_km": 2, "distance_mi": 1}, {"neighborhood": "Downtown", "city": "Boston", "state": "MA", "country": "US", "id": "KMABOSTO49", "lat": 42.358009, "lon": -71.049797, "distance_km": 3, "distance_mi": 1}, {"neighborhood": "North End, Boston", "city": "Boston", "state": "MA", "country": "US", "id": "KMABOSTO132", "lat": 42.366951, "lon": -71.056152, "distance_km": 3, "distance_mi": 1}, {"neighborhood": "North End", "city": "Boston", "state": "MA", "country": "US", "id": "KMABOSTO100", "lat": 42.368164, "lon": -71.057655, "distance_km": 3, "distance_mi": 1}]}}}, "current_observation": {"image": {"url": "http://icons.wxug.com/graphics/wu2/logo_130x80.png", "title": "Weather Underground", "link": "http://www.wunderground.com"}, "display_location": {"full": "Boston, MA", "city": "Boston", "state": "MA", "state_name": "Massachusetts", "country": "US", "country_iso3166": "US", "zip": "02199", "magic": "1", "wmo": "99999", "latitude": "42.348248", "longitude": "-71.084167", "elevation": "5.8"}, "observation_location": {"full": "Back Bay, Boston, Massachusetts", "city": "Back Bay, Boston", "state": "Massachusetts", "country": "", "country_iso3166": "US", "latitude": "42.348248", "longitude": "-71.084167", "elevation": "10 ft"}, "estimated": {}, "station_id": "KMABOSTO278", "observation_time": "Last Updated on July 8, 11:59 AM EDT", "observation_time_rfc822": "Sat, 08 Jul 2017 11:59:23 -0400", "observation_epoch": "1499529563", "local_time_rfc822": "Sat, 08 Jul 2017 11:59:51 -0400", "local_epoch": "1499529591", "local_tz_short": "EDT", "local_tz_long": "America/New_York", "local_tz_offset": "-0400", "weather": "Partly Cloudy", "temperature_string": "78.8 F (26.0 C)", "temp_f": 78.8, "temp_c": 26.0, "relative_humidity": "65%", "wind_string": "From the WNW at 8.3 MPH Gusting to 12.3 MPH", "wind_dir": "WNW", "wind_degrees": 290, "wind_mph": 8.3, "wind_gust_mph": "12.3", "wind_kph": 13.4, "wind_gust_kph": "19.8", "pressure_mb": "1006", "pressure_in": "29.71", "pressure_trend": "-", "dewpoint_string": "66.0 F (18.9 C)", "dewpoint_f": 66.0, "dewpoint_c": 18.9, "heat_index_string": "81 F (27 C)", "heat_index_f": 81, "heat_index_c": 27, "windchill_string": "NA", "windchill_f": "NA", "windchill_c": "NA", "feelslike_string": "81 F (27 C)", "feelslike_f": "81", "feelslike_c": "27", "visibility_mi": "10.0", "visibility_km": "16.1", "solarradiation": "934", "UV": "8.0", "precip_1hr_string": "0.00 in (0.0 mm)", "precip_1hr_in": "0.00", "precip_1hr_metric": "0.0", "precip_today_string": "0.00 in (0 mm)", "precip_today_in": "0.00", "precip_today_metric": "0", "icon": "partlycloudy", "icon_url": "http://icons.wxug.com/i/c/k/partlycloudy.gif", "forecast_url": "http://www.wunderground.com/US/MA/Boston.html", "history_url": "http://www.wunderground.com/weatherstation/WXDailyHistory.asp?ID=KMABOSTO278", "ob_url": "http://www.wunderground.com/cgi-bin/findweather/getForecast?query=42.348248,-71.084167", "nowcast": ""}, "forecast": {"txt_forecast": {"date": "11:00 AM EDT", "forecastday": [{"period": 0, "icon": "chancetstorms", "icon_url": "http://icons.wxug.com/i/c/k/chancetstorms.gif", "title": "Saturday", "fcttext": "Mixed clouds and sun this morning. Scattered thunderstorms developing this afternoon. A few storms may be severe. High 86F. Winds SW at 10 to 20 mph. Chance of rain 60%.", "fcttext_metric": "Partial cloudiness early, with scattered showers and thunderstorms during the afternoon. A few storms may be severe. High 31C. Winds SW at 15 to 30 km/h. Chance of rain 60%.", "pop": "60"}, {"period": 1, "icon": "nt_partlycloudy", "icon_url": "http://icons.wxug.com/i/c/k/nt_partlycloudy.gif", "title": "Saturday Night", "fcttext": "A stray shower or thunderstorm is possible early. Partly cloudy. Low 63F. Winds W at 5 to 10 mph.", "fcttext_metric": "A stray shower or thunderstorm is possible early. Partly cloudy skies. Low 17C. Winds W at 10 to 15 km/h.", "pop": "20"}, {"period": 2, "icon": "clear", "icon_url": "http://icons.wxug.com/i/c/k/clear.gif", "title": "Sunday", "fcttext": "A mainly sunny sky. High 84F. Winds W at 10 to 15 mph.", "fcttext_metric": "A mainly sunny sky. High 29C. Winds W at 15 to 25 km/h.", "pop": "0"}, {"period": 3, "icon": "nt_clear", "icon_url": "http://icons.wxug.com/i/c/k/nt_clear.gif", "title": "Sunday Night", "fcttext": "A mostly clear sky. Low 63F. Winds WSW at 10 to 15 mph.", "fcttext_metric": "Clear skies. Low 18C. Winds WSW at 10 to 15 km/h.", "pop": "0"}, {"period": 4, "icon": "clear", "icon_url": "http://icons.wxug.com/i/c/k/clear.gif", "title": "Monday", "fcttext": "Generally sunny despite a few afternoon clouds. High 88F. Winds SW at 10 to 20 mph.", "fcttext_metric": "Generally sunny despite a few afternoon clouds. High 31C. Winds SW at 15 to 30 km/h.", "pop": "0"}, {"period": 5, "icon": "nt_partlycloudy", "icon_url": "http://icons.wxug.com/i/c/k/nt_partlycloudy.gif", "title": "Monday Night", "fcttext": "A few clouds. Low 67F. Winds SSW at 10 to 15 mph.", "fcttext_metric": "Partly cloudy. Low near 20C. Winds SSW at 15 to 25 km/h.", "pop": "10"}, {"period": 6, "icon": "chancetstorms", "icon_url": "http://icons.wxug.com/i/c/k/chancetstorms.gif", "title": "Tuesday", "fcttext": "Mixed clouds and sun with scattered thunderstorms. High 87F. Winds SSW at 10 to 20 mph. Chance of rain 60%.", "fcttext_metric": "Cloudy skies during the morning hours followed by scattered showers and thunderstorms in the afternoon. High around 30C. Winds SSW at 15 to 30 km/h. Chance of rain 60%.", "pop": "60"}, {"period": 7, "icon": "nt_chancetstorms", "icon_url": "http://icons.wxug.com/i/c/k/nt_chancetstorms.gif", "title": "Tuesday Night", "fcttext": "Scattered showers and thunderstorms. Low 69F. Winds WSW at 10 to 20 mph. Chance of rain 60%.", "fcttext_metric": "Variable clouds with scattered thunderstorms. Low 21C. Winds WSW at 15 to 30 km/h. Chance of rain 60%.", "pop": "60"}]}, "simpleforecast": {"forecastday": [{"date": {"epoch": "1499554800", "pretty": "7:00 PM EDT on July 08, 2017", "day": 8, "month": 7, "year": 2017, "yday": 188, "hour": 19, "min": "00", "sec": 0, "isdst": "1", "monthname": "July", "monthname_short": "Jul", "weekday_short": "Sat", "weekday": "Saturday", "ampm": "PM", "tz_short": "EDT", "tz_long": "America/New_York"}, "period": 1, "high": {"fahrenheit": "86", "celsius": "30"}, "low": {"fahrenheit": "63", "celsius": "17"}, "conditions": "Chance of a Thunderstorm", "icon": "chancetstorms", "icon_url": "http://icons.wxug.com/i/c/k/chancetstorms.gif", "skyicon": "", "pop": 60, "qpf_allday": {"in": 0.4, "mm": 10}, "qpf_day": {"in": 0.4, "mm": 10}, "qpf_night": {"in": 0.0, "mm": 0}, "snow_allday": {"in": 0.0, "cm": 0.0}, "snow_day": {"in": 0.0, "cm": 0.0}, "snow_night": {"in": 0.0, "cm": 0.0}, "maxwind": {"mph": 20, "kph": 32, "dir": "SW", "degrees": 226}, "avewind": {"mph": 14, "kph": 23, "dir": "SW", "degrees": 226}, "avehumidity": 61, "maxhumidity": 0, "minhumidity": 0}, {"date": {"epoch": "1499641200", "pretty": "7:00 PM EDT on July 09, 2017", "day": 9, "month": 7, "year": 2017, "yday": 189, "hour": 19, "min": "00", "sec": 0, "isdst": "1", "monthname": "July", "monthname_short": "Jul", "weekday_short": "Sun", "weekday": "Sunday", "ampm": "PM", "tz_short": "EDT", "tz_long": "America/New_York"}, "period": 2, "high": {"fahrenheit": "84", "celsius": "29"}, "low": {"fahrenheit": "63", "celsius": "17"}, "conditions": "Clear", "icon": "clear", "icon_url": "http://icons.wxug.com/i/c/k/clear.gif", "skyicon": "", "pop": 0, "qpf_allday": {"in": 0.0, "mm": 0}, "qpf_day": {"in": 0.0, "mm": 0}, "qpf_night": {"in": 0.0, "mm": 0}, "snow_allday": {"in": 0.0, "cm": 0.0}, "snow_day": {"in": 0.0, "cm": 0.0}, "snow_night": {"in": 0.0, "cm": 0.0}, "maxwind": {"mph": 15, "kph": 24, "dir": "W", "degrees": 274}, "avewind": {"mph": 12, "kph": 19, "dir": "W", "degrees": 274}, "avehumidity": 43, "maxhumidity": 0, "minhumidity": 0}, {"date": {"epoch": "1499727600", "pretty": "7:00 PM EDT on July 10, 2017", "day": 10, "month": 7, "year": 2017, "yday": 190, "hour": 19, "min": "00", "sec": 0, "isdst": "1", "monthname": "July", "monthname_short": "Jul", "weekday_short": "Mon", "weekday": "Monday", "ampm": "PM", "tz_short": "EDT", "tz_long": "America/New_York"}, "period": 3, "high": {"fahrenheit": "88", "celsius": "31"}, "low": {"fahrenheit": "67", "celsius": "19"}, "conditions": "Clear", "icon": "clear", "icon_url": "http://icons.wxug.com/i/c/k/clear.gif", "skyicon": "", "pop": 0, "qpf_allday": {"in": 0.0, "mm": 0}, "qpf_day": {"in": 0.0, "mm": 0}, "qpf_night": {"in": 0.0, "mm": 0}, "snow_allday": {"in": 0.0, "cm": 0.0}, "snow_day": {"in": 0.0, "cm": 0.0}, "snow_night": {"in": 0.0, "cm": 0.0}, "maxwind": {"mph": 20, "kph": 32, "dir": "SW", "degrees": 226}, "avewind": {"mph": 13, "kph": 21, "dir": "SW", "degrees": 226}, "avehumidity": 43, "maxhumidity": 0, "minhumidity": 0}, {"date": {"epoch": "1499814000", "pretty": "7:00 PM EDT on July 11, 2017", "day": 11, "month": 7, "year": 2017, "yday": 191, "hour": 19, "min": "00", "sec": 0, "isdst": "1", "monthname": "July", "monthname_short": "Jul", "weekday_short": "Tue", "weekday": "Tuesday", "ampm": "PM", "tz_short": "EDT", "tz_long": "America/New_York"}, "period": 4, "high": {"fahrenheit": "87", "celsius": "31"}, "low": {"fahrenheit": "69", "celsius": "21"}, "conditions": "Chance of a Thunderstorm", "icon": "chancetstorms", "icon_url": "http://icons.wxug.com/i/c/k/chancetstorms.gif", "skyicon": "", "pop": 60, "qpf_allday": {"in": 0.19, "mm": 5}, "qpf_day": {"in": 0.12, "mm": 3}, "qpf_night": {"in": 0.08, "mm": 2}, "snow_allday": {"in": 0.0, "cm": 0.0}, "snow_day": {"in": 0.0, "cm": 0.0}, "snow_night": {"in": 0.0, "cm": 0.0}, "maxwind": {"mph": 20, "kph": 32, "dir": "SSW", "degrees": 213}, "avewind": {"mph": 15, "kph": 24, "dir": "SSW", "degrees": 213}, "avehumidity": 65, "maxhumidity": 0, "minhumidity": 0}]}}}, "Logan": {"response": {"version": "0.1", "termsofService": "http://www.wunderground.com/weather/api/d/terms.html", "features": {"forecast": 1, "geolookup": 1, "conditions": 1}, "error": {"type": "Station:OFFLINE"}}}, "Dorchester": {"response": {"version": "0.1", "termsofService": "http://www.wunderground.com/weather/api/d/terms.html", "features": {"forecast": 1, "geolookup": 1, "conditions": 1}}, "location": {"type": "CITY", "country": "US", "country_iso3166": "US", "country_name": "USA", "state": "MA", "city": "Boston", "tz_short": "EDT", "tz_long": "America/New_York", "lat": "42.313976", "lon": "-71.062218", "zip": "02125", "magic": "1", "wmo": "99999", "l": "/q/zmw:02125.1.99999", "requesturl": "US/MA/Boston.html", "wuiurl": "https://www.wunderground.com/US/MA/Boston.html", "nearby_weather_stations": {"airport": {"station": [{"city": "Boston", "state": "MA", "country": "US", "icao": "KBOS", "lat": "42.36000061", "lon": "-71.00000000"}, {"city": "East Milton", "state": "MA", "country": "US", "icao": "KMQE", "lat": "42.20999908", "lon": "-71.11000061"}, {"city": "Norwood", "state": "MA", "country": "US", "icao": "KOWD", "lat": "42.18999863", "lon": "-71.16999817"}, {"city": "Bedford", "state": "MA", "country": "US", "icao": "KBED", "lat": "42.47000122", "lon": "-71.29000092"}]}, "pws": {"station": [{"neighborhood": "Dorchester @ Climax", "city": "Boston", "state": "MA", "country": "US", "id": "KMABOSTO268", "lat": 42.313976, "lon": -71.062218, "distance_km": 0, "distance_mi": 0}, {"neighborhood": "Dorchester @ Climax", "city": "Boston", "state": "MA", "country": "US", "id": "KMABOSTO268", "lat": 42.313976, "lon": -71.062218, "distance_km": 0, "distance_mi": 0}, {"neighborhood": "Dorchester", "city": "Quincy", "state": "MA", "country": "US", "id": "KMAQUINC21", "lat": 42.313194, "lon": -71.073921, "distance_km": 0, "distance_mi": 0}, {"neighborhood": "Dorchester", "city": "Quincy", "state": "MA", "country": "US", "id": "KMAQUINC35", "lat": 42.309444, "lon": -71.045998, "distance_km": 1, "distance_mi": 0}, {"neighborhood": "Clam Point", "city": "Dorchester", "state": "MA", "country": "US", "id": "KMADORCH5", "lat": 42.301571, "lon": -71.052872, "distance_km": 1, "distance_mi": 0}, {"neighborhood": "Moss Hill", "city": "Boston", "state": "MA", "country": "US", "id": "KMABOSTO271", "lat": 42.305901, "lon": -71.085899, "distance_km": 2, "distance_mi": 1}, {"neighborhood": "Telegraph Hill", "city": "Boston", "state": "MA", "country": "US", "id": "KMABOSTO167", "lat": 42.33297, "lon": -71.04319, "distance_km": 2, "distance_mi": 1}, {"neighborhood": "Boston", "city": "Boston", "state": "MA", "country": "US", "id": "KMABOSTO257", "lat": 42.337036, "lon": -71.073914, "distance_km": 2, "distance_mi": 1}, {"neighborhood": "Boston", "city": "Boston", "state": "MA", "country": "US", "id": "KMABOSTO277", "lat": 42.340935, "lon": -71.052971, "distance_km": 3, "distance_mi": 1}, {"neighborhood": "South End", "city": "Boston", "state": "MA", "country": "US", "id": "KMABOSTO279", "lat": 42.341648, "lon": -71.069443, "distance_km": 3, "distance_mi": 1}, {"neighborhood": "Boston - South End", "city": "Boston", "state": "MA", "country": "US", "id": "KMABOSTO22", "lat": 42.342987, "lon": -71.066826, "distance_km": 3, "distance_mi": 1}, {"neighborhood": "Northeastern University WeatherSTEM", "city": "Boston", "state": "MA", "country": "US", "id": "KMABOSTO269", "lat": 42.335865, "lon": -71.088364, "distance_km": 3, "distance_mi": 1}, {"neighborhood": "South Boston", "city": "Boston", "state": "MA", "country": "US", "id": "KMABOSTO35", "lat": 42.343105, "lon": -71.058197, "distance_km": 3, "distance_mi": 1}, {"neighborhood": "Columbus", "city": "Boston", "state": "MA", "country": "US", "id": "KMABOSTO68", "lat": 42.34164, "lon": -71.080498, "distance_km": 3, "distance_mi": 2}, {"neighborhood": "Columbus", "city": "Boston", "state": "MA", "country": "US", "id": "KMABOSTO158", "lat": 42.342751, "lon": -71.080803, "distance_km": 3, "distance_mi": 2}, {"neighborhood": "Jamaica Plain", "city": "Boston", "state": "MA", "country": "US", "id": "KMABOSTO52", "lat": 42.316456, "lon": -71.105362, "distance_km": 3, "distance_mi": 2}, {"neighborhood": "Columbus", "city": "Boston", "state": "MA", "country": "US", "id": "KMABOSTO106", "lat": 42.345158, "lon": -71.077545, "distance_km": 3, "distance_mi": 2}, {"neighborhood": "south end", "city": "Boston", "state": "MA", "country": "US", "id": "KMABOSTO197", "lat": 42.346802, "lon": -71.071365, "distance_km": 3, "distance_mi": 2}, {"neighborhood": "Back Bay West", "city": "Cambridge", "state": "MA", "country": "US", "id": "KMACAMBR34", "lat": 42.3517, "lon": -71.08625, "distance_km": 4, "distance_mi": 2}, {"neighborhood": "Beacon Hill", "city": "Cambridge", "state": "MA", "country": "US", "id": "KMACAMBR41", "lat": 42.357903, "lon": -71.070343, "distance_km": 4, "distance_mi": 2}, {"neighborhood": "Boston", "city": "Boston", "state": "MA", "country": "US", "id": "KMABOSTO270", "lat": 42.358707, "lon": -71.058456, "distance_km": 4, "distance_mi": 2}, {"neighborhood": "Downtown", "city": "Boston", "state": "MA", "country": "US", "id": "KMABOSTO49", "lat": 42.358009, "lon": -71.049797, "distance_km": 5, "distance_mi": 3}]}}}, "current_observation": {"image": {"url": "http://icons.wxug.com/graphics/wu2/logo_130x80.png", "title": "Weather Underground", "link": "http://www.wunderground.com"}, "display_location": {"full": "Boston, MA", "city": "Boston", "state": "MA", "state_name": "Massachusetts", "country": "US", "country_iso3166": "US", "zip": "02125", "magic": "1", "wmo": "99999", "latitude": "42.313976", "longitude": "-71.062218", "elevation": "29.9"}, "observation_location": {"full": "Dorchester @ Climax, Boston, Massachusetts", "city": "Dorchester @ Climax, Boston", "state": "Massachusetts", "country": "US", "country_iso3166": "US", "latitude": "42.313976", "longitude": "-71.062218", "elevation": "118 ft"}, "estimated": {}, "station_id": "KMABOSTO268", "observation_time": "Last Updated on July 8, 11:59 AM EDT", "observation_time_rfc822": "Sat, 08 Jul 2017 11:59:33 -0400", "observation_epoch": "1499529573", "local_time_rfc822": "Sat, 08 Jul 2017 11:59:52 -0400", "local_epoch": "1499529592", "local_tz_short": "EDT", "local_tz_long": "America/New_York", "local_tz_offset": "-0400", "weather": "Partly Cloudy", "temperature_string": "86.1 F (30.1 C)", "temp_f": 86.1, "temp_c": 30.1, "relative_humidity": "50%", "wind_string": "From the SW at 5.0 MPH", "wind_dir": "SW", "wind_degrees": 225, "wind_mph": 5.0, "wind_gust_mph": 0, "wind_kph": 8.0, "wind_gust_kph": 0, "pressure_mb": "1006", "pressure_in": "29.71", "pressure_trend": "-", "dewpoint_string": "65 F (18 C)", "dewpoint_f": 65, "dewpoint_c": 18, "heat_index_string": "88 F (31 C)", "heat_index_f": 88, "heat_index_c": 31, "windchill_string": "NA", "windchill_f": "NA", "windchill_c": "NA", "feelslike_string": "88 F (31 C)", "feelslike_f": "88", "feelslike_c": "31", "visibility_mi": "10.0", "visibility_km": "16.1", "solarradiation": "--", "UV": "9", "precip_1hr_string": "0.00 in ( 0 mm)", "precip_1hr_in": "0.00", "precip_1hr_metric": " 0", "precip_today_string": "0.00 in (0 mm)", "precip_today_in": "0.00", "precip_today_metric": "0", "icon": "partlycloudy", "icon_url": "http://icons.wxug.com/i/c/k/partlycloudy.gif", "forecast_url": "http://www.wunderground.com/US/MA/Boston.html", "history_url": "http://www.wunderground.com/weatherstation/WXDailyHistory.asp?ID=KMABOSTO268", "ob_url": "http://www.wunderground.com/cgi-bin/findweather/getForecast?query=42.313976,-71.062218", "nowcast": ""}, "forecast": {"txt_forecast": {"date": "11:21 AM EDT", "forecastday": [{"period": 0, "icon": "chancetstorms", "icon_url": "http://icons.wxug.com/i/c/k/chancetstorms.gif", "title": "Saturday", "fcttext": "Partly cloudy with afternoon showers or thunderstorms. A few storms may be severe. High 86F. Winds SW at 10 to 20 mph. Chance of rain 60%.", "fcttext_metric": "Partly cloudy early followed by scattered thunderstorms this afternoon. A few storms may be severe. High near 30C. Winds SW at 15 to 30 km/h. Chance of rain 60%.", "pop": "60"}, {"period": 1, "icon": "nt_partlycloudy", "icon_url": "http://icons.wxug.com/i/c/k/nt_partlycloudy.gif", "title": "Saturday Night", "fcttext": "A stray shower or thunderstorm is possible early. Evening clouds will give way to clearing overnight. Low 64F. Winds W at 10 to 15 mph.", "fcttext_metric": "A stray shower or thunderstorm is possible early. Evening clouds will give way to clearing overnight. Low 18C. Winds W at 15 to 25 km/h.", "pop": "20"}, {"period": 2, "icon": "clear", "icon_url": "http://icons.wxug.com/i/c/k/clear.gif", "title": "Sunday", "fcttext": "Sunny skies. High near 85F. Winds W at 10 to 15 mph.", "fcttext_metric": "Sunny. High 29C. Winds W at 15 to 25 km/h.", "pop": "0"}, {"period": 3, "icon": "nt_clear", "icon_url": "http://icons.wxug.com/i/c/k/nt_clear.gif", "title": "Sunday Night", "fcttext": "Clear skies. Low around 65F. Winds SW at 10 to 15 mph.", "fcttext_metric": "Clear skies. Low 19C. Winds SW at 15 to 25 km/h.", "pop": "0"}, {"period": 4, "icon": "clear", "icon_url": "http://icons.wxug.com/i/c/k/clear.gif", "title": "Monday", "fcttext": "Sunny, along with a few afternoon clouds. High 87F. Winds SW at 10 to 20 mph.", "fcttext_metric": "Except for a few afternoon clouds, mainly sunny. High 31C. Winds SW at 15 to 30 km/h.", "pop": "0"}, {"period": 5, "icon": "nt_partlycloudy", "icon_url": "http://icons.wxug.com/i/c/k/nt_partlycloudy.gif", "title": "Monday Night", "fcttext": "A few clouds. Low 68F. Winds SSW at 10 to 20 mph.", "fcttext_metric": "A few clouds. Low around 20C. Winds SSW at 15 to 30 km/h.", "pop": "10"}, {"period": 6, "icon": "chancetstorms", "icon_url": "http://icons.wxug.com/i/c/k/chancetstorms.gif", "title": "Tuesday", "fcttext": "Partly cloudy in the morning followed by scattered thunderstorms in the afternoon. High 86F. Winds SSW at 10 to 20 mph. Chance of rain 50%.", "fcttext_metric": "Cloudy in the morning with scattered thunderstorms developing later in the day. High around 30C. Winds SSW at 15 to 30 km/h. Chance of rain 50%.", "pop": "50"}, {"period": 7, "icon": "nt_tstorms", "icon_url": "http://icons.wxug.com/i/c/k/nt_tstorms.gif", "title": "Tuesday Night", "fcttext": "Partial cloudiness early, with scattered showers and thunderstorms later during the night. Low around 70F. Winds WSW at 10 to 20 mph. Chance of rain 60%.", "fcttext_metric": "Partly cloudy with late night showers or thunderstorms. Low 21C. Winds WSW at 15 to 30 km/h. Chance of rain 60%.", "pop": "60"}]}, "simpleforecast": {"forecastday": [{"date": {"epoch": "1499554800", "pretty": "7:00 PM EDT on July 08, 2017", "day": 8, "month": 7, "year": 2017, "yday": 188, "hour": 19, "min": "00", "sec": 0, "isdst": "1", "monthname": "July", "monthname_short": "Jul", "weekday_short": "Sat", "weekday": "Saturday", "ampm": "PM", "tz_short": "EDT", "tz_long": "America/New_York"}, "period": 1, "high": {"fahrenheit": "86", "celsius": "30"}, "low": {"fahrenheit": "64", "celsius": "18"}, "conditions": "Chance of a Thunderstorm", "icon": "chancetstorms", "icon_url": "http://icons.wxug.com/i/c/k/chancetstorms.gif", "skyicon": "", "pop": 60, "qpf_allday": {"in": 0.65, "mm": 17}, "qpf_day": {"in": 0.64, "mm": 16}, "qpf_night": {"in": 0.0, "mm": 0}, "snow_allday": {"in": 0.0, "cm": 0.0}, "snow_day": {"in": 0.0, "cm": 0.0}, "snow_night": {"in": 0.0, "cm": 0.0}, "maxwind": {"mph": 20, "kph": 32, "dir": "SW", "degrees": 223}, "avewind": {"mph": 15, "kph": 24, "dir": "SW", "degrees": 223}, "avehumidity": 63, "maxhumidity": 0, "minhumidity": 0}, {"date": {"epoch": "1499641200", "pretty": "7:00 PM EDT on July 09, 2017", "day": 9, "month": 7, "year": 2017, "yday": 189, "hour": 19, "min": "00", "sec": 0, "isdst": "1", "monthname": "July", "monthname_short": "Jul", "weekday_short": "Sun", "weekday": "Sunday", "ampm": "PM", "tz_short": "EDT", "tz_long": "America/New_York"}, "period": 2, "high": {"fahrenheit": "85", "celsius": "29"}, "low": {"fahrenheit": "65", "celsius": "18"}, "conditions": "Clear", "icon": "clear", "icon_url": "http://icons.wxug.com/i/c/k/clear.gif", "skyicon": "", "pop": 0, "qpf_allday": {"in": 0.0, "mm": 0}, "qpf_day": {"in": 0.0, "mm": 0}, "qpf_night": {"in": 0.0, "mm": 0}, "snow_allday": {"in": 0.0, "cm": 0.0}, "snow_day": {"in": 0.0, "cm": 0.0}, "snow_night": {"in": 0.0, "cm": 0.0}, "maxwind": {"mph": 15, "kph": 24, "dir": "W", "degrees": 272}, "avewind": {"mph": 12, "kph": 19, "dir": "W", "degrees": 272}, "avehumidity": 42, "maxhumidity": 0, "minhumidity": 0}, {"date": {"epoch": "1499727600", "pretty": "7:00 PM EDT on July 10, 2017", "day": 10, "month": 7, "year": 2017, "yday": 190, "hour": 19, "min": "00", "sec": 0, "isdst": "1", "monthname": "July", "monthname_short": "Jul", "weekday_short": "Mon", "weekday": "Monday", "ampm": "PM", "tz_short": "EDT", "tz_long": "America/New_York"}, "period": 3, "high": {"fahrenheit": "87", "celsius": "31"}, "low": {"fahrenheit": "68", "celsius": "20"}, "conditions": "Clear", "icon": "clear", "icon_url": "http://icons.wxug.com/i/c/k/clear.gif", "skyicon": "", "pop": 0, "qpf_allday": {"in": 0.0, "mm": 0}, "qpf_day": {"in": 0.0, "mm": 0}, "qpf_night": {"in": 0.0, "mm": 0}, "snow_allday": {"in": 0.0, "cm": 0.0}, "snow_day": {"in": 0.0, "cm": 0.0}, "snow_night": {"in": 0.0, "cm": 0.0}, "maxwind": {"mph": 20, "kph": 32, "dir": "SW", "degrees": 224}, "avewind": {"mph": 13, "kph": 21, "dir": "SW", "degrees": 224}, "avehumidity": 44, "maxhumidity": 0, "minhumidity": 0}, {"date": {"epoch": "1499814000", "pretty": "7:00 PM EDT on July 11, 2017", "day": 11, "month": 7, "year": 2017, "yday": 191, "hour": 19, "min": "00", "sec": 0, "isdst": "1", "monthname": "July", "monthname_short": "Jul", "weekday_short": "Tue", "weekday": "Tuesday", "ampm": "PM", "tz_short": "EDT", "tz_long": "America/New_York"}, "period": 4, "high": {"fahrenheit": "86", "celsius": "30"}, "low": {"fahrenheit": "70", "celsius": "21"}, "conditions": "Chance of a Thunderstorm", "icon": "chancetstorms", "icon_url": "http://icons.wxug.com/i/c/k/chancetstorms.gif", "skyicon": "", "pop": 50, "qpf_allday": {"in": 0.16, "mm": 4}, "qpf_day": {"in": 0.1, "mm": 3}, "qpf_night": {"in": 0.06, "mm": 2}, "snow_allday": {"in": 0.0, "cm": 0.0}, "snow_day": {"in": 0.0, "cm": 0.0}, "snow_night": {"in": 0.0, "cm": 0.0}, "maxwind": {"mph": 20, "kph": 32, "dir": "SSW", "degrees": 211}, "avewind": {"mph": 15, "kph": 24, "dir": "SSW", "degrees": 211}, "avehumidity": 67, "maxhumidity": 0, "minhumidity": 0}]}}}, "ChestnutHill": {"response": {"version": "0.1", "termsofService": "http://www.wunderground.com/weather/api/d/terms.html", "features": {"forecast": 1, "geolookup": 1, "conditions": 1}}, "location": {"type": "CITY", "country": "US", "country_iso3166": "US", "country_name": "USA", "state": "MA", "city": "Brookline", "tz_short": "EDT", "tz_long": "America/New_York", "lat": "42.332382", "lon": "-71.138641", "zip": "02445", "magic": "1", "wmo": "99999", "l": "/q/zmw:02445.1.99999", "requesturl": "US/MA/Brookline.html", "wuiurl": "https://www.wunderground.com/US/MA/Brookline.html", "nearby_weather_stations": {"airport": {"station": [{"city": "Boston", "state": "MA", "country": "US", "icao": "KBOS", "lat": "42.36000061", "lon": "-71.00000000"}, {"city": "East Milton", "state": "MA", "country": "US", "icao": "KMQE", "lat": "42.20999908", "lon": "-71.11000061"}, {"city": "Norwood", "state": "MA", "country": "US", "icao": "KOWD", "lat": "42.18999863", "lon": "-71.16999817"}, {"city": "Bedford", "state": "MA", "country": "US", "icao": "KBED", "lat": "42.47000122", "lon": "-71.29000092"}]}, "pws": {"station": [{"neighborhood": "Fisher Hill", "city": "Brookline", "state": "MA", "country": "US", "id": "KMABROOK7", "lat": 42.332382, "lon": -71.138641, "distance_km": 0, "distance_mi": 0}, {"neighborhood": "Fisher Hill", "city": "Brookline", "state": "MA", "country": "US", "id": "KMABROOK7", "lat": 42.332382, "lon": -71.138641, "distance_km": 0, "distance_mi": 0}, {"neighborhood": "Rudolfstra\u00dfe", "city": "Brookline", "state": "MA", "country": "US", "id": "KMABROOK13", "lat": 42.330151, "lon": -71.141266, "distance_km": 0, "distance_mi": 0}, {"neighborhood": "Beacon Street", "city": "Brookline", "state": "MA", "country": "US", "id": "KMABROOK24", "lat": 42.339447, "lon": -71.134766, "distance_km": 0, "distance_mi": 0}, {"neighborhood": "Brookline", "city": "Brookline", "state": "MA", "country": "US", "id": "KMABROOK38", "lat": 42.332584, "lon": -71.125008, "distance_km": 1, "distance_mi": 0}, {"neighborhood": "Corey Hill", "city": "Brookline", "state": "MA", "country": "US", "id": "KMABROOK19", "lat": 42.342426, "lon": -71.132095, "distance_km": 1, "distance_mi": 0}, {"neighborhood": "Brookline", "city": "Brookline", "state": "MA", "country": "US", "id": "KMABROOK36", "lat": 42.335861, "lon": -71.122353, "distance_km": 1, "distance_mi": 0}, {"neighborhood": "Route de Cugy", "city": "Brookline", "state": "MA", "country": "US", "id": "KMABROOK33", "lat": 42.343906, "lon": -71.132065, "distance_km": 1, "distance_mi": 0}, {"neighborhood": "Coolidge Corner South Side", "city": "Brookline", "state": "MA", "country": "US", "id": "KMABROOK10", "lat": 42.337185, "lon": -71.121864, "distance_km": 1, "distance_mi": 0}, {"neighborhood": "Jamaica Hills / Pond", "city": "Boston", "state": "MA", "country": "US", "id": "KMABOSTO182", "lat": 42.321877, "lon": -71.121407, "distance_km": 1, "distance_mi": 1}, {"neighborhood": "Allston", "city": "Brookline", "state": "MA", "country": "US", "id": "KMABROOK12", "lat": 42.351528, "lon": -71.139091, "distance_km": 2, "distance_mi": 1}, {"neighborhood": "Longwood", "city": "Boston", "state": "MA", "country": "US", "id": "KMABOSTO201", "lat": 42.341675, "lon": -71.111771, "distance_km": 2, "distance_mi": 1}, {"neighborhood": "Jamaica Plain", "city": "Jamaica Plain", "state": "MA", "country": "US", "id": "KMAJAMAI10", "lat": 42.318947, "lon": -71.115013, "distance_km": 2, "distance_mi": 1}, {"neighborhood": "Longwood", "city": "Boston", "state": "MA", "country": "US", "id": "KMABOSTO130", "lat": 42.343025, "lon": -71.11042, "distance_km": 2, "distance_mi": 1}, {"neighborhood": "Boston College WeatherSTEM", "city": "Boston", "state": "MA", "country": "US", "id": "KMABOSTO137", "lat": 42.334755, "lon": -71.170204, "distance_km": 2, "distance_mi": 1}, {"neighborhood": "Beacon & Carlton Street", "city": "Brookline", "state": "MA", "country": "US", "id": "KMABROOK5", "lat": 42.345982, "lon": -71.109337, "distance_km": 2, "distance_mi": 1}, {"neighborhood": "Pond", "city": "Jamaica Plain", "state": "MA", "country": "US", "id": "KMAJAMAI7", "lat": 42.312229, "lon": -71.116882, "distance_km": 2, "distance_mi": 1}, {"neighborhood": "Allston", "city": "Brookline", "state": "MA", "country": "US", "id": "KMABROOK30", "lat": 42.360741, "lon": -71.136169, "distance_km": 3, "distance_mi": 1}, {"neighborhood": "Jamaica Plain", "city": "Boston", "state": "MA", "country": "US", "id": "KMABOSTO176", "lat": 42.307335, "lon": -71.118729, "distance_km": 3, "distance_mi": 1}, {"neighborhood": "Jamaica Plain", "city": "Boston", "state": "MA", "country": "US", "id": "KMABOSTO52", "lat": 42.316456, "lon": -71.105362, "distance_km": 3, "distance_mi": 1}, {"neighborhood": "Jamaica Plain", "city": "Boston", "state": "MA", "country": "US", "id": "KMABOSTO246", "lat": 42.305786, "lon": -71.118507, "distance_km": 3, "distance_mi": 2}, {"neighborhood": "Cambridgeport", "city": "Cambridge", "state": "MA", "country": "US", "id": "KMACAMBR85", "lat": 42.358242, "lon": -71.110779, "distance_km": 3, "distance_mi": 2}, {"neighborhood": "", "city": "(Arnold Arboretum ) Roslindale", "state": "MA", "country": "US", "id": "KMAJAMAI4", "lat": 42.295361, "lon": -71.133606, "distance_km": 4, "distance_mi": 2}, {"neighborhood": "Northeastern University WeatherSTEM", "city": "Boston", "state": "MA", "country": "US", "id": "KMABOSTO269", "lat": 42.335865, "lon": -71.088364, "distance_km": 4, "distance_mi": 2}, {"neighborhood": "Brighton", "city": "Brighton", "state": "MA", "country": "US", "id": "KMABRIGH5", "lat": 42.346478, "lon": -71.150719, "distance_km": 1, "distance_mi": 1}]}}}, "current_observation": {"image": {"url": "http://icons.wxug.com/graphics/wu2/logo_130x80.png", "title": "Weather Underground", "link": "http://www.wunderground.com"}, "display_location": {"full": "Brookline, MA", "city": "Brookline", "state": "MA", "state_name": "Massachusetts", "country": "US", "country_iso3166": "US", "zip": "02445", "magic": "1", "wmo": "99999", "latitude": "42.332382", "longitude": "-71.138641", "elevation": "49.1"}, "observation_location": {"full": "Fisher Hill, Brookline, Massachusetts", "city": "Fisher Hill, Brookline", "state": "Massachusetts", "country": "US", "country_iso3166": "US", "latitude": "42.332382", "longitude": "-71.138641", "elevation": "177 ft"}, "estimated": {}, "station_id": "KMABROOK7", "observation_time": "Last Updated on July 8, 11:59 AM EDT", "observation_time_rfc822": "Sat, 08 Jul 2017 11:59:50 -0400", "observation_epoch": "1499529590", "local_time_rfc822": "Sat, 08 Jul 2017 11:59:52 -0400", "local_epoch": "1499529592", "local_tz_short": "EDT", "local_tz_long": "America/New_York", "local_tz_offset": "-0400", "weather": "Partly Cloudy", "temperature_string": "84.0 F (28.9 C)", "temp_f": 84.0, "temp_c": 28.9, "relative_humidity": "63%", "wind_string": "From the South at 3.0 MPH Gusting to 5.0 MPH", "wind_dir": "South", "wind_degrees": 180, "wind_mph": 3.0, "wind_gust_mph": "5.0", "wind_kph": 4.8, "wind_gust_kph": "8.0", "pressure_mb": "1006", "pressure_in": "29.71", "pressure_trend": "-", "dewpoint_string": "70 F (21 C)", "dewpoint_f": 70, "dewpoint_c": 21, "heat_index_string": "88 F (31 C)", "heat_index_f": 88, "heat_index_c": 31, "windchill_string": "NA", "windchill_f": "NA", "windchill_c": "NA", "feelslike_string": "88 F (31 C)", "feelslike_f": "88", "feelslike_c": "31", "visibility_mi": "10.0", "visibility_km": "16.1", "solarradiation": "--", "UV": "9", "precip_1hr_string": "0.00 in ( 0 mm)", "precip_1hr_in": "0.00", "precip_1hr_metric": " 0", "precip_today_string": "0.00 in (0 mm)", "precip_today_in": "0.00", "precip_today_metric": "0", "icon": "partlycloudy", "icon_url": "http://icons.wxug.com/i/c/k/partlycloudy.gif", "forecast_url": "http://www.wunderground.com/US/MA/Brookline.html", "history_url": "http://www.wunderground.com/weatherstation/WXDailyHistory.asp?ID=KMABROOK7", "ob_url": "http://www.wunderground.com/cgi-bin/findweather/getForecast?query=42.332382,-71.138641", "nowcast": ""}, "forecast": {"txt_forecast": {"date": "10:44 AM EDT", "forecastday": [{"period": 0, "icon": "chancetstorms", "icon_url": "http://icons.wxug.com/i/c/k/chancetstorms.gif", "title": "Saturday", "fcttext": "Partly cloudy early followed by scattered thunderstorms this afternoon. A few storms may be severe. High 86F. Winds SW at 10 to 20 mph. Chance of rain 60%.", "fcttext_metric": "Partly cloudy early followed by scattered thunderstorms this afternoon. A few storms may be severe. High 31C. Winds SW at 15 to 30 km/h. Chance of rain 60%.", "pop": "60"}, {"period": 1, "icon": "nt_partlycloudy", "icon_url": "http://icons.wxug.com/i/c/k/nt_partlycloudy.gif", "title": "Saturday Night", "fcttext": "A stray shower or thunderstorm is possible early. Evening clouds will give way to clearing overnight. Low 63F. Winds W at 5 to 10 mph.", "fcttext_metric": "A stray shower or thunderstorm is possible early. Clear to partly cloudy. Low 17C. Winds W at 10 to 15 km/h.", "pop": "20"}, {"period": 2, "icon": "clear", "icon_url": "http://icons.wxug.com/i/c/k/clear.gif", "title": "Sunday", "fcttext": "Sunny. High 84F. Winds W at 10 to 15 mph.", "fcttext_metric": "A mainly sunny sky. High 29C. Winds W at 15 to 25 km/h.", "pop": "0"}, {"period": 3, "icon": "nt_clear", "icon_url": "http://icons.wxug.com/i/c/k/nt_clear.gif", "title": "Sunday Night", "fcttext": "A mostly clear sky. Low 63F. Winds WSW at 5 to 10 mph.", "fcttext_metric": "Clear. Low 17C. Winds WSW at 10 to 15 km/h.", "pop": "0"}, {"period": 4, "icon": "clear", "icon_url": "http://icons.wxug.com/i/c/k/clear.gif", "title": "Monday", "fcttext": "Except for a few afternoon clouds, mainly sunny. High 87F. Winds SW at 10 to 20 mph.", "fcttext_metric": "Sunny, along with a few afternoon clouds. High 31C. Winds SW at 15 to 30 km/h.", "pop": "0"}, {"period": 5, "icon": "nt_partlycloudy", "icon_url": "http://icons.wxug.com/i/c/k/nt_partlycloudy.gif", "title": "Monday Night", "fcttext": "Partly cloudy. Low 67F. Winds SSW at 10 to 15 mph.", "fcttext_metric": "Partly cloudy skies. Low near 20C. Winds SSW at 15 to 25 km/h.", "pop": "10"}, {"period": 6, "icon": "chancetstorms", "icon_url": "http://icons.wxug.com/i/c/k/chancetstorms.gif", "title": "Tuesday", "fcttext": "Scattered showers and thunderstorms. High around 85F. Winds SSW at 10 to 20 mph. Chance of rain 60%.", "fcttext_metric": "Scattered thunderstorms. High around 30C. Winds SSW at 15 to 30 km/h. Chance of rain 60%.", "pop": "60"}, {"period": 7, "icon": "nt_chancetstorms", "icon_url": "http://icons.wxug.com/i/c/k/nt_chancetstorms.gif", "title": "Tuesday Night", "fcttext": "Variable clouds with scattered thunderstorms. Low 68F. Winds WSW at 10 to 15 mph. Chance of rain 60%.", "fcttext_metric": "Scattered thunderstorms. Low 21C. Winds WSW at 15 to 25 km/h. Chance of rain 60%.", "pop": "60"}]}, "simpleforecast": {"forecastday": [{"date": {"epoch": "1499554800", "pretty": "7:00 PM EDT on July 08, 2017", "day": 8, "month": 7, "year": 2017, "yday": 188, "hour": 19, "min": "00", "sec": 0, "isdst": "1", "monthname": "July", "monthname_short": "Jul", "weekday_short": "Sat", "weekday": "Saturday", "ampm": "PM", "tz_short": "EDT", "tz_long": "America/New_York"}, "period": 1, "high": {"fahrenheit": "86", "celsius": "30"}, "low": {"fahrenheit": "63", "celsius": "17"}, "conditions": "Chance of a Thunderstorm", "icon": "chancetstorms", "icon_url": "http://icons.wxug.com/i/c/k/chancetstorms.gif", "skyicon": "", "pop": 60, "qpf_allday": {"in": 0.47, "mm": 12}, "qpf_day": {"in": 0.44, "mm": 11}, "qpf_night": {"in": 0.0, "mm": 0}, "snow_allday": {"in": 0.0, "cm": 0.0}, "snow_day": {"in": 0.0, "cm": 0.0}, "snow_night": {"in": 0.0, "cm": 0.0}, "maxwind": {"mph": 20, "kph": 32, "dir": "SW", "degrees": 227}, "avewind": {"mph": 14, "kph": 23, "dir": "SW", "degrees": 227}, "avehumidity": 58, "maxhumidity": 0, "minhumidity": 0}, {"date": {"epoch": "1499641200", "pretty": "7:00 PM EDT on July 09, 2017", "day": 9, "month": 7, "year": 2017, "yday": 189, "hour": 19, "min": "00", "sec": 0, "isdst": "1", "monthname": "July", "monthname_short": "Jul", "weekday_short": "Sun", "weekday": "Sunday", "ampm": "PM", "tz_short": "EDT", "tz_long": "America/New_York"}, "period": 2, "high": {"fahrenheit": "84", "celsius": "29"}, "low": {"fahrenheit": "63", "celsius": "17"}, "conditions": "Clear", "icon": "clear", "icon_url": "http://icons.wxug.com/i/c/k/clear.gif", "skyicon": "", "pop": 0, "qpf_allday": {"in": 0.0, "mm": 0}, "qpf_day": {"in": 0.0, "mm": 0}, "qpf_night": {"in": 0.0, "mm": 0}, "snow_allday": {"in": 0.0, "cm": 0.0}, "snow_day": {"in": 0.0, "cm": 0.0}, "snow_night": {"in": 0.0, "cm": 0.0}, "maxwind": {"mph": 15, "kph": 24, "dir": "W", "degrees": 276}, "avewind": {"mph": 12, "kph": 19, "dir": "W", "degrees": 276}, "avehumidity": 43, "maxhumidity": 0, "minhumidity": 0}, {"date": {"epoch": "1499727600", "pretty": "7:00 PM EDT on July 10, 2017", "day": 10, "month": 7, "year": 2017, "yday": 190, "hour": 19, "min": "00", "sec": 0, "isdst": "1", "monthname": "July", "monthname_short": "Jul", "weekday_short": "Mon", "weekday": "Monday", "ampm": "PM", "tz_short": "EDT", "tz_long": "America/New_York"}, "period": 3, "high": {"fahrenheit": "87", "celsius": "31"}, "low": {"fahrenheit": "67", "celsius": "19"}, "conditions": "Clear", "icon": "clear", "icon_url": "http://icons.wxug.com/i/c/k/clear.gif", "skyicon": "", "pop": 0, "qpf_allday": {"in": 0.0, "mm": 0}, "qpf_day": {"in": 0.0, "mm": 0}, "qpf_night": {"in": 0.0, "mm": 0}, "snow_allday": {"in": 0.0, "cm": 0.0}, "snow_day": {"in": 0.0, "cm": 0.0}, "snow_night": {"in": 0.0, "cm": 0.0}, "maxwind": {"mph": 20, "kph": 32, "dir": "SW", "degrees": 226}, "avewind": {"mph": 13, "kph": 21, "dir": "SW", "degrees": 226}, "avehumidity": 43, "maxhumidity": 0, "minhumidity": 0}, {"date": {"epoch": "1499814000", "pretty": "7:00 PM EDT on July 11, 2017", "day": 11, "month": 7, "year": 2017, "yday": 191, "hour": 19, "min": "00", "sec": 0, "isdst": "1", "monthname": "July", "monthname_short": "Jul", "weekday_short": "Tue", "weekday": "Tuesday", "ampm": "PM", "tz_short": "EDT", "tz_long": "America/New_York"}, "period": 4, "high": {"fahrenheit": "85", "celsius": "29"}, "low": {"fahrenheit": "68", "celsius": "20"}, "conditions": "Chance of a Thunderstorm", "icon": "chancetstorms", "icon_url": "http://icons.wxug.com/i/c/k/chancetstorms.gif", "skyicon": "", "pop": 60, "qpf_allday": {"in": 0.2, "mm": 5}, "qpf_day": {"in": 0.12, "mm": 3}, "qpf_night": {"in": 0.07, "mm": 2}, "snow_allday": {"in": 0.0, "cm": 0.0}, "snow_day": {"in": 0.0, "cm": 0.0}, "snow_night": {"in": 0.0, "cm": 0.0}, "maxwind": {"mph": 20, "kph": 32, "dir": "SSW", "degrees": 213}, "avewind": {"mph": 15, "kph": 24, "dir": "SSW", "degrees": 213}, "avehumidity": 66, "maxhumidity": 0, "minhumidity": 0}]}}}, "CambridgePort": {"response": {"version": "0.1", "termsofService": "http://www.wunderground.com/weather/api/d/terms.html", "features": {"forecast": 1, "geolookup": 1, "conditions": 1}}, "location": {"type": "CITY", "country": "US", "country_iso3166": "US", "country_name": "USA", "state": "MA", "city": "Cambridge", "tz_short": "EDT", "tz_long": "America/New_York", "lat": "42.363300", "lon": "-71.107529", "zip": "02139", "magic": "1", "wmo": "99999", "l": "/q/zmw:02139.1.99999", "requesturl": "US/MA/Cambridge.html", "wuiurl": "https://www.wunderground.com/US/MA/Cambridge.html", "nearby_weather_stations": {"airport": {"station": [{"city": "Boston", "state": "MA", "country": "US", "icao": "KBOS", "lat": "42.36000061", "lon": "-71.00000000"}, {"city": "East Milton", "state": "MA", "country": "US", "icao": "KMQE", "lat": "42.20999908", "lon": "-71.11000061"}, {"city": "Bedford", "state": "MA", "country": "US", "icao": "KBED", "lat": "42.47000122", "lon": "-71.29000092"}, {"city": "Norwood", "state": "MA", "country": "US", "icao": "KOWD", "lat": "42.18999863", "lon": "-71.16999817"}]}, "pws": {"station": [{"neighborhood": "Central Square", "city": "Cambridge", "state": "MA", "country": "US", "id": "KMACAMBR4", "lat": 42.3633, "lon": -71.107529, "distance_km": 0, "distance_mi": 0}, {"neighborhood": "Central Square", "city": "Cambridge", "state": "MA", "country": "US", "id": "KMACAMBR4", "lat": 42.3633, "lon": -71.107529, "distance_km": 0, "distance_mi": 0}, {"neighborhood": "Cambridge", "city": "Cambridge", "state": "MA", "country": "US", "id": "KMACAMBR104", "lat": 42.364956, "lon": -71.108131, "distance_km": 0, "distance_mi": 0}, {"neighborhood": "Cambridge", "city": "Cambridgeport", "state": "MA", "country": "US", "id": "KMACAMBR111", "lat": 42.363483, "lon": -71.101807, "distance_km": 0, "distance_mi": 0}, {"neighborhood": "Cambridgeport", "city": "Cambridge", "state": "MA", "country": "US", "id": "KMACAMBR85", "lat": 42.358242, "lon": -71.110779, "distance_km": 0, "distance_mi": 0}, {"neighborhood": "Area IV", "city": "Cambridge", "state": "MA", "country": "US", "id": "KMACAMBR47", "lat": 42.363949, "lon": -71.099426, "distance_km": 0, "distance_mi": 0}, {"neighborhood": "MIT (Green Bld Roof)", "city": "Cambridge", "state": "MA", "country": "US", "id": "KMACAMBR9", "lat": 42.360298, "lon": -71.089401, "distance_km": 1, "distance_mi": 0}, {"neighborhood": "West Cambridge", "city": "Cambridge", "state": "MA", "country": "US", "id": "KMACAMBR53", "lat": 42.373035, "lon": -71.123055, "distance_km": 1, "distance_mi": 1}, {"neighborhood": "Beacon & Carlton Street", "city": "Brookline", "state": "MA", "country": "US", "id": "KMABROOK5", "lat": 42.345982, "lon": -71.109337, "distance_km": 1, "distance_mi": 1}, {"neighborhood": "East Cambridge", "city": "Cambridge", "state": "MA", "country": "US", "id": "KMACAMBR94", "lat": 42.366394, "lon": -71.084282, "distance_km": 1, "distance_mi": 1}, {"neighborhood": "Back Bay West", "city": "Cambridge", "state": "MA", "country": "US", "id": "KMACAMBR34", "lat": 42.3517, "lon": -71.08625, "distance_km": 2, "distance_mi": 1}, {"neighborhood": "Prospect Hill", "city": "Somerville", "state": "MA", "country": "US", "id": "KMASOMER42", "lat": 42.379536, "lon": -71.092232, "distance_km": 2, "distance_mi": 1}, {"neighborhood": "Neighborhood Nine", "city": "Cambridge", "state": "MA", "country": "US", "id": "KMACAMBR27", "lat": 42.379566, "lon": -71.1231, "distance_km": 2, "distance_mi": 1}, {"neighborhood": "Cambridge", "city": "Cambridge", "state": "MA", "country": "US", "id": "KMACAMBR112", "lat": 42.375488, "lon": -71.129402, "distance_km": 2, "distance_mi": 1}, {"neighborhood": "Agassiz", "city": "Cambridge", "state": "MA", "country": "US", "id": "KMACAMBR71", "lat": 42.38356, "lon": -71.114128, "distance_km": 2, "distance_mi": 1}, {"neighborhood": "Cambridge, Charles River", "city": "Cambridge", "state": "MA", "country": "US", "id": "KMACAMBR70", "lat": 42.363503, "lon": -71.077904, "distance_km": 2, "distance_mi": 1}, {"neighborhood": "Spring Hill", "city": "Somerville", "state": "MA", "country": "US", "id": "KMASOMER7", "lat": 42.387711, "lon": -71.109711, "distance_km": 2, "distance_mi": 1}, {"neighborhood": "Porter Square", "city": "Cambridge", "state": "MA", "country": "US", "id": "KMACAMBR14", "lat": 42.387863, "lon": -71.124321, "distance_km": 3, "distance_mi": 1}, {"neighborhood": "Beacon Hill", "city": "Cambridge", "state": "MA", "country": "US", "id": "KMACAMBR41", "lat": 42.357903, "lon": -71.070343, "distance_km": 3, "distance_mi": 1}, {"neighborhood": "Albion", "city": "Somerville", "state": "MA", "country": "US", "id": "KMASOMER9", "lat": 42.391739, "lon": -71.112427, "distance_km": 3, "distance_mi": 1}, {"neighborhood": "Somerville", "city": "Medford", "state": "MA", "country": "US", "id": "KMAMEDFO29", "lat": 42.391888, "lon": -71.10038, "distance_km": 3, "distance_mi": 1}, {"neighborhood": "Hancock Bike Path", "city": "Somerville", "state": "MA", "country": "US", "id": "KMASOMER61", "lat": 42.393936, "lon": -71.114845, "distance_km": 3, "distance_mi": 2}, {"neighborhood": "East Somerville", "city": "Boston", "state": "MA", "country": "US", "id": "KMABOSTO102", "lat": 42.389179, "lon": -71.083099, "distance_km": 3, "distance_mi": 2}, {"neighborhood": "Charlestown", "city": "Charlestown", "state": "MA", "country": "US", "id": "KMACHARL15", "lat": 42.38023, "lon": -71.06871, "distance_km": 3, "distance_mi": 2}]}}}, "current_observation": {"image": {"url": "http://icons.wxug.com/graphics/wu2/logo_130x80.png", "title": "Weather Underground", "link": "http://www.wunderground.com"}, "display_location": {"full": "Cambridge, MA", "city": "Cambridge", "state": "MA", "state_name": "Massachusetts", "country": "US", "country_iso3166": "US", "zip": "02139", "magic": "1", "wmo": "99999", "latitude": "42.363300", "longitude": "-71.107529", "elevation": "4.9"}, "observation_location": {"full": "Central Square, Cambridge, Massachusetts", "city": "Central Square, Cambridge", "state": "Massachusetts", "country": "US", "country_iso3166": "US", "latitude": "42.363300", "longitude": "-71.107529", "elevation": "24 ft"}, "estimated": {}, "station_id": "KMACAMBR4", "observation_time": "Last Updated on July 8, 11:59 AM EDT", "observation_time_rfc822": "Sat, 08 Jul 2017 11:59:46 -0400", "observation_epoch": "1499529586", "local_time_rfc822": "Sat, 08 Jul 2017 11:59:52 -0400", "local_epoch": "1499529592", "local_tz_short": "EDT", "local_tz_long": "America/New_York", "local_tz_offset": "-0400", "weather": "Partly Cloudy", "temperature_string": "85.2 F (29.6 C)", "temp_f": 85.2, "temp_c": 29.6, "relative_humidity": "60%", "wind_string": "From the South at 1.0 MPH Gusting to 11.0 MPH", "wind_dir": "South", "wind_degrees": 169, "wind_mph": 1.0, "wind_gust_mph": "11.0", "wind_kph": 1.6, "wind_gust_kph": "17.7", "pressure_mb": "1006", "pressure_in": "29.71", "pressure_trend": "-", "dewpoint_string": "70 F (21 C)", "dewpoint_f": 70, "dewpoint_c": 21, "heat_index_string": "90 F (32 C)", "heat_index_f": 90, "heat_index_c": 32, "windchill_string": "NA", "windchill_f": "NA", "windchill_c": "NA", "feelslike_string": "90 F (32 C)", "feelslike_f": "90", "feelslike_c": "32", "visibility_mi": "10.0", "visibility_km": "16.1", "solarradiation": "1056", "UV": "7.0", "precip_1hr_string": "0.00 in ( 0 mm)", "precip_1hr_in": "0.00", "precip_1hr_metric": " 0", "precip_today_string": "0.00 in (0 mm)", "precip_today_in": "0.00", "precip_today_metric": "0", "icon": "partlycloudy", "icon_url": "http://icons.wxug.com/i/c/k/partlycloudy.gif", "forecast_url": "http://www.wunderground.com/US/MA/Cambridge.html", "history_url": "http://www.wunderground.com/weatherstation/WXDailyHistory.asp?ID=KMACAMBR4", "ob_url": "http://www.wunderground.com/cgi-bin/findweather/getForecast?query=42.363300,-71.107529", "nowcast": ""}, "forecast": {"txt_forecast": {"date": "11:00 AM EDT", "forecastday": [{"period": 0, "icon": "chancetstorms", "icon_url": "http://icons.wxug.com/i/c/k/chancetstorms.gif", "title": "Saturday", "fcttext": "Mixed clouds and sun this morning. Scattered thunderstorms developing this afternoon. A few storms may be severe. High 86F. Winds SW at 10 to 20 mph. Chance of rain 60%.", "fcttext_metric": "Mostly cloudy early with scattered thunderstorms developing this afternoon. A few storms may be severe. High 31C. Winds SW at 15 to 30 km/h. Chance of rain 60%.", "pop": "60"}, {"period": 1, "icon": "nt_partlycloudy", "icon_url": "http://icons.wxug.com/i/c/k/nt_partlycloudy.gif", "title": "Saturday Night", "fcttext": "A stray shower or thunderstorm is possible early. Partly cloudy. Low 63F. Winds W at 5 to 10 mph.", "fcttext_metric": "A stray shower or thunderstorm is possible early. Partly cloudy skies. Low 17C. Winds W at 10 to 15 km/h.", "pop": "20"}, {"period": 2, "icon": "clear", "icon_url": "http://icons.wxug.com/i/c/k/clear.gif", "title": "Sunday", "fcttext": "A mainly sunny sky. High 84F. Winds W at 10 to 15 mph.", "fcttext_metric": "Sunny skies. High 29C. Winds W at 15 to 25 km/h.", "pop": "0"}, {"period": 3, "icon": "nt_clear", "icon_url": "http://icons.wxug.com/i/c/k/nt_clear.gif", "title": "Sunday Night", "fcttext": "A mostly clear sky. Low 63F. Winds WSW at 10 to 15 mph.", "fcttext_metric": "Clear. Low 18C. Winds WSW at 10 to 15 km/h.", "pop": "0"}, {"period": 4, "icon": "clear", "icon_url": "http://icons.wxug.com/i/c/k/clear.gif", "title": "Monday", "fcttext": "Generally sunny despite a few afternoon clouds. High 88F. Winds SW at 10 to 20 mph.", "fcttext_metric": "Generally sunny despite a few afternoon clouds. High 31C. Winds SW at 15 to 30 km/h.", "pop": "0"}, {"period": 5, "icon": "nt_partlycloudy", "icon_url": "http://icons.wxug.com/i/c/k/nt_partlycloudy.gif", "title": "Monday Night", "fcttext": "A few clouds. Low 67F. Winds SSW at 10 to 15 mph.", "fcttext_metric": "A few clouds. Low near 20C. Winds SSW at 15 to 25 km/h.", "pop": "10"}, {"period": 6, "icon": "chancetstorms", "icon_url": "http://icons.wxug.com/i/c/k/chancetstorms.gif", "title": "Tuesday", "fcttext": "Mixed clouds and sun with scattered thunderstorms. High 87F. Winds SSW at 10 to 20 mph. Chance of rain 60%.", "fcttext_metric": "Cloudy skies during the morning hours followed by scattered showers and thunderstorms in the afternoon. High around 30C. Winds SSW at 15 to 30 km/h. Chance of rain 60%.", "pop": "60"}, {"period": 7, "icon": "nt_chancetstorms", "icon_url": "http://icons.wxug.com/i/c/k/nt_chancetstorms.gif", "title": "Tuesday Night", "fcttext": "Scattered showers and thunderstorms. Low 69F. Winds WSW at 10 to 20 mph. Chance of rain 60%.", "fcttext_metric": "Variable clouds with scattered thunderstorms. Low 21C. Winds WSW at 15 to 30 km/h. Chance of rain 60%.", "pop": "60"}]}, "simpleforecast": {"forecastday": [{"date": {"epoch": "1499554800", "pretty": "7:00 PM EDT on July 08, 2017", "day": 8, "month": 7, "year": 2017, "yday": 188, "hour": 19, "min": "00", "sec": 0, "isdst": "1", "monthname": "July", "monthname_short": "Jul", "weekday_short": "Sat", "weekday": "Saturday", "ampm": "PM", "tz_short": "EDT", "tz_long": "America/New_York"}, "period": 1, "high": {"fahrenheit": "86", "celsius": "30"}, "low": {"fahrenheit": "63", "celsius": "17"}, "conditions": "Chance of a Thunderstorm", "icon": "chancetstorms", "icon_url": "http://icons.wxug.com/i/c/k/chancetstorms.gif", "skyicon": "", "pop": 60, "qpf_allday": {"in": 0.4, "mm": 10}, "qpf_day": {"in": 0.4, "mm": 10}, "qpf_night": {"in": 0.0, "mm": 0}, "snow_allday": {"in": 0.0, "cm": 0.0}, "snow_day": {"in": 0.0, "cm": 0.0}, "snow_night": {"in": 0.0, "cm": 0.0}, "maxwind": {"mph": 20, "kph": 32, "dir": "SW", "degrees": 226}, "avewind": {"mph": 14, "kph": 23, "dir": "SW", "degrees": 226}, "avehumidity": 61, "maxhumidity": 0, "minhumidity": 0}, {"date": {"epoch": "1499641200", "pretty": "7:00 PM EDT on July 09, 2017", "day": 9, "month": 7, "year": 2017, "yday": 189, "hour": 19, "min": "00", "sec": 0, "isdst": "1", "monthname": "July", "monthname_short": "Jul", "weekday_short": "Sun", "weekday": "Sunday", "ampm": "PM", "tz_short": "EDT", "tz_long": "America/New_York"}, "period": 2, "high": {"fahrenheit": "84", "celsius": "29"}, "low": {"fahrenheit": "63", "celsius": "17"}, "conditions": "Clear", "icon": "clear", "icon_url": "http://icons.wxug.com/i/c/k/clear.gif", "skyicon": "", "pop": 0, "qpf_allday": {"in": 0.0, "mm": 0}, "qpf_day": {"in": 0.0, "mm": 0}, "qpf_night": {"in": 0.0, "mm": 0}, "snow_allday": {"in": 0.0, "cm": 0.0}, "snow_day": {"in": 0.0, "cm": 0.0}, "snow_night": {"in": 0.0, "cm": 0.0}, "maxwind": {"mph": 15, "kph": 24, "dir": "W", "degrees": 274}, "avewind": {"mph": 12, "kph": 19, "dir": "W", "degrees": 274}, "avehumidity": 43, "maxhumidity": 0, "minhumidity": 0}, {"date": {"epoch": "1499727600", "pretty": "7:00 PM EDT on July 10, 2017", "day": 10, "month": 7, "year": 2017, "yday": 190, "hour": 19, "min": "00", "sec": 0, "isdst": "1", "monthname": "July", "monthname_short": "Jul", "weekday_short": "Mon", "weekday": "Monday", "ampm": "PM", "tz_short": "EDT", "tz_long": "America/New_York"}, "period": 3, "high": {"fahrenheit": "88", "celsius": "31"}, "low": {"fahrenheit": "67", "celsius": "19"}, "conditions": "Clear", "icon": "clear", "icon_url": "http://icons.wxug.com/i/c/k/clear.gif", "skyicon": "", "pop": 0, "qpf_allday": {"in": 0.0, "mm": 0}, "qpf_day": {"in": 0.0, "mm": 0}, "qpf_night": {"in": 0.0, "mm": 0}, "snow_allday": {"in": 0.0, "cm": 0.0}, "snow_day": {"in": 0.0, "cm": 0.0}, "snow_night": {"in": 0.0, "cm": 0.0}, "maxwind": {"mph": 20, "kph": 32, "dir": "SW", "degrees": 226}, "avewind": {"mph": 13, "kph": 21, "dir": "SW", "degrees": 226}, "avehumidity": 43, "maxhumidity": 0, "minhumidity": 0}, {"date": {"epoch": "1499814000", "pretty": "7:00 PM EDT on July 11, 2017", "day": 11, "month": 7, "year": 2017, "yday": 191, "hour": 19, "min": "00", "sec": 0, "isdst": "1", "monthname": "July", "monthname_short": "Jul", "weekday_short": "Tue", "weekday": "Tuesday", "ampm": "PM", "tz_short": "EDT", "tz_long": "America/New_York"}, "period": 4, "high": {"fahrenheit": "87", "celsius": "31"}, "low": {"fahrenheit": "69", "celsius": "21"}, "conditions": "Chance of a Thunderstorm", "icon": "chancetstorms", "icon_url": "http://icons.wxug.com/i/c/k/chancetstorms.gif", "skyicon": "", "pop": 60, "qpf_allday": {"in": 0.19, "mm": 5}, "qpf_day": {"in": 0.12, "mm": 3}, "qpf_night": {"in": 0.08, "mm": 2}, "snow_allday": {"in": 0.0, "cm": 0.0}, "snow_day": {"in": 0.0, "cm": 0.0}, "snow_night": {"in": 0.0, "cm": 0.0}, "maxwind": {"mph": 20, "kph": 32, "dir": "SSW", "degrees": 213}, "avewind": {"mph": 15, "kph": 24, "dir": "SSW", "degrees": 213}, "avehumidity": 65, "maxhumidity": 0, "minhumidity": 0}]}}}, "Belmont": {"response": {"version": "0.1", "termsofService": "http://www.wunderground.com/weather/api/d/terms.html", "features": {"forecast": 1, "geolookup": 1, "conditions": 1}}, "location": {"type": "CITY", "country": "US", "country_iso3166": "US", "country_name": "USA", "state": "MA", "city": "Belmont", "tz_short": "EDT", "tz_long": "America/New_York", "lat": "42.395500", "lon": "-71.181602", "zip": "02478", "magic": "1", "wmo": "99999", "l": "/q/zmw:02478.1.99999", "requesturl": "US/MA/Belmont.html", "wuiurl": "https://www.wunderground.com/US/MA/Belmont.html", "nearby_weather_stations": {"airport": {"station": [{"city": "Bedford", "state": "MA", "country": "US", "icao": "KBED", "lat": "42.47000122", "lon": "-71.29000092"}, {"city": "Boston", "state": "MA", "country": "US", "icao": "KBOS", "lat": "42.36000061", "lon": "-71.00000000"}, {"city": "East Milton", "state": "MA", "country": "US", "icao": "KMQE", "lat": "42.20999908", "lon": "-71.11000061"}, {"city": "Norwood", "state": "MA", "country": "US", "icao": "KOWD", "lat": "42.18999863", "lon": "-71.16999817"}]}, "pws": {"station": [{"neighborhood": "Lantern Road Belmont MA", "city": "Belmont", "state": "MA", "country": "US", "id": "KMABELMO12", "lat": 42.3955, "lon": -71.181602, "distance_km": 0, "distance_mi": 0}, {"neighborhood": "Lantern Road Belmont MA", "city": "Belmont", "state": "MA", "country": "US", "id": "KMABELMO12", "lat": 42.3955, "lon": -71.181602, "distance_km": 0, "distance_mi": 0}, {"neighborhood": "Washington Street", "city": "Watertown", "state": "MA", "country": "US", "id": "KMAWATER11", "lat": 42.386292, "lon": -71.174278, "distance_km": 1, "distance_mi": 0}, {"neighborhood": "Belmont", "city": "Belmont", "state": "MA", "country": "US", "id": "KMABELMO13", "lat": 42.403305, "lon": -71.171104, "distance_km": 1, "distance_mi": 0}, {"neighborhood": "Belmont - Burbank Elementary School", "city": "Belmont", "state": "MA", "country": "US", "id": "KMABELMO6", "lat": 42.388645, "lon": -71.16407, "distance_km": 1, "distance_mi": 0}, {"neighborhood": "Belmont Hill", "city": "Belmont", "state": "MA", "country": "US", "id": "KMABELMO4", "lat": 42.405403, "lon": -71.197937, "distance_km": 1, "distance_mi": 1}, {"neighborhood": "Belmont", "city": "Payson Park", "state": "MA", "country": "US", "id": "KMAPAYSO2", "lat": 42.387009, "lon": -71.163292, "distance_km": 1, "distance_mi": 1}, {"neighborhood": "Fisher Road", "city": "Arlington", "state": "MA", "country": "US", "id": "KMAARLIN7", "lat": 42.412155, "lon": -71.177887, "distance_km": 1, "distance_mi": 1}, {"neighborhood": "Arlington Heights", "city": "Arlington", "state": "MA", "country": "US", "id": "KMAARLIN22", "lat": 42.407188, "lon": -71.16507, "distance_km": 1, "distance_mi": 1}, {"neighborhood": "Cambridge Highlands", "city": "Cambridge", "state": "MA", "country": "US", "id": "KMACAMBR10", "lat": 42.39283, "lon": -71.156097, "distance_km": 2, "distance_mi": 1}, {"neighborhood": "Hathaway Circle", "city": "Lexington", "state": "MA", "country": "US", "id": "KMALEXIN15", "lat": 42.414478, "lon": -71.190491, "distance_km": 2, "distance_mi": 1}, {"neighborhood": "Kelwyn", "city": "Arlington", "state": "MA", "country": "US", "id": "KMAARLIN10", "lat": 42.403931, "lon": -71.155495, "distance_km": 2, "distance_mi": 1}, {"neighborhood": "Poets Corner", "city": "Arlington", "state": "MA", "country": "US", "id": "KMAARLIN13", "lat": 42.418915, "lon": -71.193169, "distance_km": 2, "distance_mi": 1}, {"neighborhood": "UMass Waltham Center", "city": "Waltham", "state": "MA", "country": "US", "id": "KMAWALTH10", "lat": 42.383987, "lon": -71.212288, "distance_km": 2, "distance_mi": 1}, {"neighborhood": "Cambridge Highlands", "city": "Cambridge", "state": "MA", "country": "US", "id": "KMACAMBR29", "lat": 42.390747, "lon": -71.145973, "distance_km": 2, "distance_mi": 1}, {"neighborhood": "Ottoson", "city": "Arlington", "state": "MA", "country": "US", "id": "KMAARLIN20", "lat": 42.421856, "lon": -71.174553, "distance_km": 2, "distance_mi": 1}, {"neighborhood": "Watertown Center", "city": "Watertown", "state": "MA", "country": "US", "id": "KMAWATER5", "lat": 42.368309, "lon": -71.183922, "distance_km": 3, "distance_mi": 1}, {"neighborhood": "Arlington Center", "city": "Arlington", "state": "MA", "country": "US", "id": "KMAARLIN9", "lat": 42.414703, "lon": -71.148865, "distance_km": 3, "distance_mi": 2}, {"neighborhood": "The Larches", "city": "Cambridge", "state": "MA", "country": "US", "id": "KMACAMBR82", "lat": 42.378208, "lon": -71.146263, "distance_km": 3, "distance_mi": 2}, {"neighborhood": "Walnut Street", "city": "Watertown", "state": "MA", "country": "US", "id": "KMAWATER8", "lat": 42.365273, "lon": -71.168449, "distance_km": 3, "distance_mi": 2}, {"neighborhood": "Mount Auburn Cemetery", "city": "Watertown", "state": "MA", "country": "US", "id": "KMAWATER3", "lat": 42.373451, "lon": -71.150314, "distance_km": 3, "distance_mi": 2}, {"neighborhood": "West Cambridge", "city": "Cambridge", "state": "MA", "country": "US", "id": "KMACAMBR22", "lat": 42.377537, "lon": -71.145432, "distance_km": 3, "distance_mi": 2}, {"neighborhood": "Dorf", "city": "Cambridge", "state": "MA", "country": "US", "id": "KMACAMBR87", "lat": 42.382679, "lon": -71.140259, "distance_km": 3, "distance_mi": 2}, {"neighborhood": "Arlington Heights", "city": "Arlington", "state": "MA", "country": "US", "id": "KMAARLIN8", "lat": 42.428852, "lon": -71.179298, "distance_km": 3, "distance_mi": 2}, {"neighborhood": "East Arlington", "city": "Arlington", "state": "MA", "country": "US", "id": "KMAARLIN4", "lat": 42.403801, "lon": -71.137604, "distance_km": 3, "distance_mi": 2}, {"neighborhood": "East Arlington", "city": "Arlington", "state": "MA", "country": "US", "id": "KMAARLIN19", "lat": 42.414982, "lon": -71.144119, "distance_km": 3, "distance_mi": 2}, {"neighborhood": "Lansdowne Road", "city": "Arlington", "state": "MA", "country": "US", "id": "KMAARLIN11", "lat": 42.426643, "lon": -71.163307, "distance_km": 3, "distance_mi": 2}, {"neighborhood": "Mt. Ephraim", "city": "Lexington", "state": "MA", "country": "US", "id": "KMALEXIN5", "lat": 42.428169, "lon": -71.194672, "distance_km": 3, "distance_mi": 2}, {"neighborhood": "East Lexington", "city": "Lexington", "state": "MA", "country": "US", "id": "KMALEXIN27", "lat": 42.4212, "lon": -71.213013, "distance_km": 3, "distance_mi": 2}, {"neighborhood": "West Somerville, MA", "city": "Somerville", "state": "MA", "country": "US", "id": "KMASOMER60", "lat": 42.404793, "lon": -71.132713, "distance_km": 4, "distance_mi": 2}, {"neighborhood": "Hodge Road", "city": "Winchester", "state": "MA", "country": "US", "id": "KMAWINCH33", "lat": 42.430073, "lon": -71.160378, "distance_km": 4, "distance_mi": 2}, {"neighborhood": "Turkey Hill", "city": "Arlington", "state": "MA", "country": "US", "id": "KMAARLIN21", "lat": 42.434048, "lon": -71.17572, "distance_km": 4, "distance_mi": 2}]}}}, "current_observation": {"image": {"url": "http://icons.wxug.com/graphics/wu2/logo_130x80.png", "title": "Weather Underground", "link": "http://www.wunderground.com"}, "display_location": {"full": "Belmont, MA", "city": "Belmont", "state": "MA", "state_name": "Massachusetts", "country": "US", "country_iso3166": "US", "zip": "02478", "magic": "1", "wmo": "99999", "latitude": "42.395500", "longitude": "-71.181602", "elevation": "13.4"}, "observation_location": {"full": "Lantern Road Belmont MA, Belmont, Massachusetts", "city": "Lantern Road Belmont MA, Belmont", "state": "Massachusetts", "country": "US", "country_iso3166": "US", "latitude": "42.395500", "longitude": "-71.181602", "elevation": "207 ft"}, "estimated": {}, "station_id": "KMABELMO12", "observation_time": "Last Updated on July 8, 11:59 AM EDT", "observation_time_rfc822": "Sat, 08 Jul 2017 11:59:23 -0400", "observation_epoch": "1499529563", "local_time_rfc822": "Sat, 08 Jul 2017 11:59:53 -0400", "local_epoch": "1499529593", "local_tz_short": "EDT", "local_tz_long": "America/New_York", "local_tz_offset": "-0400", "weather": "Partly Cloudy", "temperature_string": "81.0 F (27.2 C)", "temp_f": 81.0, "temp_c": 27.2, "relative_humidity": "74%", "wind_string": "From the SSW at 1.1 MPH Gusting to 2.5 MPH", "wind_dir": "SSW", "wind_degrees": 206, "wind_mph": 1.1, "wind_gust_mph": "2.5", "wind_kph": 1.8, "wind_gust_kph": "4.0", "pressure_mb": "1007", "pressure_in": "29.73", "pressure_trend": "-", "dewpoint_string": "72 F (22 C)", "dewpoint_f": 72, "dewpoint_c": 22, "heat_index_string": "85 F (30 C)", "heat_index_f": 85, "heat_index_c": 30, "windchill_string": "NA", "windchill_f": "NA", "windchill_c": "NA", "feelslike_string": "85 F (30 C)", "feelslike_f": "85", "feelslike_c": "30", "visibility_mi": "10.0", "visibility_km": "16.1", "solarradiation": "914", "UV": "9.0", "precip_1hr_string": "0.00 in ( 0 mm)", "precip_1hr_in": "0.00", "precip_1hr_metric": " 0", "precip_today_string": "0.00 in (0 mm)", "precip_today_in": "0.00", "precip_today_metric": "0", "icon": "partlycloudy", "icon_url": "http://icons.wxug.com/i/c/k/partlycloudy.gif", "forecast_url": "http://www.wunderground.com/US/MA/Belmont.html", "history_url": "http://www.wunderground.com/weatherstation/WXDailyHistory.asp?ID=KMABELMO12", "ob_url": "http://www.wunderground.com/cgi-bin/findweather/getForecast?query=42.395500,-71.181602", "nowcast": ""}, "forecast": {"txt_forecast": {"date": "11:12 AM EDT", "forecastday": [{"period": 0, "icon": "chancetstorms", "icon_url": "http://icons.wxug.com/i/c/k/chancetstorms.gif", "title": "Saturday", "fcttext": "Mostly cloudy early with scattered thunderstorms developing this afternoon. A few storms may be severe. High 86F. Winds SW at 10 to 20 mph. Chance of rain 60%.", "fcttext_metric": "Partly to mostly cloudy with scattered showers and thunderstorms this afternoon. A few storms may be severe. High near 30C. Winds SW at 15 to 25 km/h. Chance of rain 60%.", "pop": "60"}, {"period": 1, "icon": "nt_partlycloudy", "icon_url": "http://icons.wxug.com/i/c/k/nt_partlycloudy.gif", "title": "Saturday Night", "fcttext": "A stray shower or thunderstorm is possible early. Partly cloudy skies. Low 61F. Winds W at 5 to 10 mph.", "fcttext_metric": "A stray shower or thunderstorm is possible early. Partly cloudy. Low 16C. Winds W at 10 to 15 km/h.", "pop": "20"}, {"period": 2, "icon": "clear", "icon_url": "http://icons.wxug.com/i/c/k/clear.gif", "title": "Sunday", "fcttext": "Sunny. High 84F. Winds W at 10 to 15 mph.", "fcttext_metric": "Sunny. High 28C. Winds W at 15 to 25 km/h.", "pop": "0"}, {"period": 3, "icon": "nt_clear", "icon_url": "http://icons.wxug.com/i/c/k/nt_clear.gif", "title": "Sunday Night", "fcttext": "Clear. Low 61F. Winds WSW at 5 to 10 mph.", "fcttext_metric": "Clear skies. Low 16C. Winds WSW at 10 to 15 km/h.", "pop": "0"}, {"period": 4, "icon": "clear", "icon_url": "http://icons.wxug.com/i/c/k/clear.gif", "title": "Monday", "fcttext": "Generally sunny despite a few afternoon clouds. High 87F. Winds SW at 10 to 15 mph.", "fcttext_metric": "Sunny, along with a few afternoon clouds. High near 30C. Winds SW at 15 to 25 km/h.", "pop": "0"}, {"period": 5, "icon": "nt_partlycloudy", "icon_url": "http://icons.wxug.com/i/c/k/nt_partlycloudy.gif", "title": "Monday Night", "fcttext": "Clear to partly cloudy. Low 66F. Winds SSW at 10 to 15 mph.", "fcttext_metric": "Clear to partly cloudy. Low 19C. Winds SSW at 15 to 25 km/h.", "pop": "10"}, {"period": 6, "icon": "chancetstorms", "icon_url": "http://icons.wxug.com/i/c/k/chancetstorms.gif", "title": "Tuesday", "fcttext": "Partial cloudiness early, with scattered showers and thunderstorms in the afternoon. High 86F. Winds SW at 10 to 20 mph. Chance of rain 60%.", "fcttext_metric": "Partly cloudy with afternoon showers or thunderstorms. High near 30C. Winds SW at 15 to 30 km/h. Chance of rain 60%.", "pop": "60"}, {"period": 7, "icon": "nt_chancetstorms", "icon_url": "http://icons.wxug.com/i/c/k/nt_chancetstorms.gif", "title": "Tuesday Night", "fcttext": "Variable clouds with scattered thunderstorms. Low 68F. Winds WSW at 10 to 15 mph. Chance of rain 60%.", "fcttext_metric": "Scattered thunderstorms during the evening followed by occasional showers overnight. Low around 20C. Winds WSW at 15 to 25 km/h. Chance of rain 60%.", "pop": "60"}]}, "simpleforecast": {"forecastday": [{"date": {"epoch": "1499554800", "pretty": "7:00 PM EDT on July 08, 2017", "day": 8, "month": 7, "year": 2017, "yday": 188, "hour": 19, "min": "00", "sec": 0, "isdst": "1", "monthname": "July", "monthname_short": "Jul", "weekday_short": "Sat", "weekday": "Saturday", "ampm": "PM", "tz_short": "EDT", "tz_long": "America/New_York"}, "period": 1, "high": {"fahrenheit": "86", "celsius": "30"}, "low": {"fahrenheit": "61", "celsius": "16"}, "conditions": "Chance of a Thunderstorm", "icon": "chancetstorms", "icon_url": "http://icons.wxug.com/i/c/k/chancetstorms.gif", "skyicon": "", "pop": 60, "qpf_allday": {"in": 0.12, "mm": 3}, "qpf_day": {"in": 0.12, "mm": 3}, "qpf_night": {"in": 0.0, "mm": 0}, "snow_allday": {"in": 0.0, "cm": 0.0}, "snow_day": {"in": 0.0, "cm": 0.0}, "snow_night": {"in": 0.0, "cm": 0.0}, "maxwind": {"mph": 20, "kph": 32, "dir": "SW", "degrees": 226}, "avewind": {"mph": 13, "kph": 21, "dir": "SW", "degrees": 226}, "avehumidity": 62, "maxhumidity": 0, "minhumidity": 0}, {"date": {"epoch": "1499641200", "pretty": "7:00 PM EDT on July 09, 2017", "day": 9, "month": 7, "year": 2017, "yday": 189, "hour": 19, "min": "00", "sec": 0, "isdst": "1", "monthname": "July", "monthname_short": "Jul", "weekday_short": "Sun", "weekday": "Sunday", "ampm": "PM", "tz_short": "EDT", "tz_long": "America/New_York"}, "period": 2, "high": {"fahrenheit": "84", "celsius": "29"}, "low": {"fahrenheit": "61", "celsius": "16"}, "conditions": "Clear", "icon": "clear", "icon_url": "http://icons.wxug.com/i/c/k/clear.gif", "skyicon": "", "pop": 0, "qpf_allday": {"in": 0.0, "mm": 0}, "qpf_day": {"in": 0.0, "mm": 0}, "qpf_night": {"in": 0.0, "mm": 0}, "snow_allday": {"in": 0.0, "cm": 0.0}, "snow_day": {"in": 0.0, "cm": 0.0}, "snow_night": {"in": 0.0, "cm": 0.0}, "maxwind": {"mph": 15, "kph": 24, "dir": "W", "degrees": 274}, "avewind": {"mph": 11, "kph": 18, "dir": "W", "degrees": 274}, "avehumidity": 43, "maxhumidity": 0, "minhumidity": 0}, {"date": {"epoch": "1499727600", "pretty": "7:00 PM EDT on July 10, 2017", "day": 10, "month": 7, "year": 2017, "yday": 190, "hour": 19, "min": "00", "sec": 0, "isdst": "1", "monthname": "July", "monthname_short": "Jul", "weekday_short": "Mon", "weekday": "Monday", "ampm": "PM", "tz_short": "EDT", "tz_long": "America/New_York"}, "period": 3, "high": {"fahrenheit": "87", "celsius": "31"}, "low": {"fahrenheit": "66", "celsius": "19"}, "conditions": "Clear", "icon": "clear", "icon_url": "http://icons.wxug.com/i/c/k/clear.gif", "skyicon": "", "pop": 0, "qpf_allday": {"in": 0.0, "mm": 0}, "qpf_day": {"in": 0.0, "mm": 0}, "qpf_night": {"in": 0.0, "mm": 0}, "snow_allday": {"in": 0.0, "cm": 0.0}, "snow_day": {"in": 0.0, "cm": 0.0}, "snow_night": {"in": 0.0, "cm": 0.0}, "maxwind": {"mph": 15, "kph": 24, "dir": "SW", "degrees": 225}, "avewind": {"mph": 12, "kph": 19, "dir": "SW", "degrees": 225}, "avehumidity": 43, "maxhumidity": 0, "minhumidity": 0}, {"date": {"epoch": "1499814000", "pretty": "7:00 PM EDT on July 11, 2017", "day": 11, "month": 7, "year": 2017, "yday": 191, "hour": 19, "min": "00", "sec": 0, "isdst": "1", "monthname": "July", "monthname_short": "Jul", "weekday_short": "Tue", "weekday": "Tuesday", "ampm": "PM", "tz_short": "EDT", "tz_long": "America/New_York"}, "period": 4, "high": {"fahrenheit": "86", "celsius": "30"}, "low": {"fahrenheit": "68", "celsius": "20"}, "conditions": "Chance of a Thunderstorm", "icon": "chancetstorms", "icon_url": "http://icons.wxug.com/i/c/k/chancetstorms.gif", "skyicon": "", "pop": 60, "qpf_allday": {"in": 0.2, "mm": 5}, "qpf_day": {"in": 0.11, "mm": 3}, "qpf_night": {"in": 0.08, "mm": 2}, "snow_allday": {"in": 0.0, "cm": 0.0}, "snow_day": {"in": 0.0, "cm": 0.0}, "snow_night": {"in": 0.0, "cm": 0.0}, "maxwind": {"mph": 20, "kph": 32, "dir": "SW", "degrees": 214}, "avewind": {"mph": 14, "kph": 23, "dir": "SW", "degrees": 214}, "avehumidity": 65, "maxhumidity": 0, "minhumidity": 0}]}}}, "Malden": {"response": {"version": "0.1", "termsofService": "http://www.wunderground.com/weather/api/d/terms.html", "features": {"forecast": 1, "geolookup": 1, "conditions": 1}}, "location": {"type": "CITY", "country": "US", "country_iso3166": "US", "country_name": "USA", "state": "MA", "city": "Malden", "tz_short": "EDT", "tz_long": "America/New_York", "lat": "42.435493", "lon": "-71.038391", "zip": "02148", "magic": "1", "wmo": "99999", "l": "/q/zmw:02148.1.99999", "requesturl": "US/MA/Malden.html", "wuiurl": "https://www.wunderground.com/US/MA/Malden.html", "nearby_weather_stations": {"airport": {"station": [{"city": "Boston", "state": "MA", "country": "US", "icao": "KBOS", "lat": "42.36000061", "lon": "-71.00000000"}, {"city": "Bedford", "state": "MA", "country": "US", "icao": "KBED", "lat": "42.47000122", "lon": "-71.29000092"}, {"city": "Beverly", "state": "MA", "country": "US", "icao": "KBVY", "lat": "42.58000183", "lon": "-70.91999817"}, {"city": "East Milton", "state": "MA", "country": "US", "icao": "KMQE", "lat": "42.20999908", "lon": "-71.11000061"}]}, "pws": {"station": [{"neighborhood": "Maplewood Sq @ MCC's", "city": "Malden", "state": "MA", "country": "US", "id": "KMAMALDE6", "lat": 42.435493, "lon": -71.038391, "distance_km": 0, "distance_mi": 0}, {"neighborhood": "Maplewood Sq @ MCC's", "city": "Malden", "state": "MA", "country": "US", "id": "KMAMALDE6", "lat": 42.435493, "lon": -71.038391, "distance_km": 0, "distance_mi": 0}, {"neighborhood": "Webster St", "city": "Malden", "state": "MA", "country": "US", "id": "KMAMALDE8", "lat": 42.431988, "lon": -71.040199, "distance_km": 0, "distance_mi": 0}, {"neighborhood": "PAPA'S PLACE", "city": "MALDEN", "state": "MA", "country": "US", "id": "KMAMALDE1", "lat": 42.439201, "lon": -71.051399, "distance_km": 1, "distance_mi": 0}, {"neighborhood": "Glendale", "city": "Everett", "state": "MA", "country": "US", "id": "KMAEVERE4", "lat": 42.413029, "lon": -71.039413, "distance_km": 2, "distance_mi": 1}, {"neighborhood": "Northwest Pine Banks", "city": "Melrose", "state": "MA", "country": "US", "id": "KMAMELRO13", "lat": 42.445686, "lon": -71.066185, "distance_km": 2, "distance_mi": 1}, {"neighborhood": "Oak Grove", "city": "Malden", "state": "MA", "country": "US", "id": "KMAMALDE11", "lat": 42.43713, "lon": -71.071281, "distance_km": 2, "distance_mi": 1}, {"neighborhood": "Upper Pine Banks", "city": "Melrose", "state": "MA", "country": "US", "id": "KMAMELRO7", "lat": 42.452274, "lon": -71.063171, "distance_km": 2, "distance_mi": 1}, {"neighborhood": "East Side Melrose", "city": "Melrose", "state": "MA", "country": "US", "id": "KMAMELRO1", "lat": 42.460545, "lon": -71.053864, "distance_km": 3, "distance_mi": 1}, {"neighborhood": "Prattville hills", "city": "Chelsea", "state": "MA", "country": "US", "id": "KMACHELS2", "lat": 42.40741, "lon": -71.035759, "distance_km": 3, "distance_mi": 1}, {"neighborhood": "Malden West", "city": "Malden", "state": "MA", "country": "US", "id": "KMAMALDE3", "lat": 42.426998, "lon": -71.074997, "distance_km": 3, "distance_mi": 1}, {"neighborhood": "Cottage Street", "city": "Melrose", "state": "MA", "country": "US", "id": "KMAMELRO16", "lat": 42.452171, "lon": -71.072372, "distance_km": 3, "distance_mi": 2}, {"neighborhood": "Malden West End", "city": "Malden", "state": "MA", "country": "US", "id": "KMAMALDE9", "lat": 42.432465, "lon": -71.08107, "distance_km": 3, "distance_mi": 2}, {"neighborhood": "Edgeworth", "city": "Malden", "state": "MA", "country": "US", "id": "KMAMALDE15", "lat": 42.421875, "lon": -71.082962, "distance_km": 3, "distance_mi": 2}, {"neighborhood": "Horace Mann", "city": "Melrose", "state": "MA", "country": "US", "id": "KMAMELRO12", "lat": 42.46978, "lon": -71.060951, "distance_km": 4, "distance_mi": 2}, {"neighborhood": "Highlands", "city": "Melrose", "state": "MA", "country": "US", "id": "KMAMELRO6", "lat": 42.463642, "lon": -71.074821, "distance_km": 4, "distance_mi": 2}, {"neighborhood": "Murray Hill Rd, Medford", "city": "Medford", "state": "MA", "country": "US", "id": "KMAMEDFO28", "lat": 42.426556, "lon": -71.09063, "distance_km": 4, "distance_mi": 2}, {"neighborhood": "Melrose Highlands", "city": "Melrose", "state": "MA", "country": "US", "id": "KMAMELRO11", "lat": 42.471741, "lon": -71.064835, "distance_km": 4, "distance_mi": 2}, {"neighborhood": "Northwest Melrose", "city": "Melrose", "state": "MA", "country": "US", "id": "KMAMELRO10", "lat": 42.471951, "lon": -71.066109, "distance_km": 4, "distance_mi": 2}, {"neighborhood": "Melrose Street", "city": "Stoneham", "state": "MA", "country": "US", "id": "KMASTONE10", "lat": 42.469063, "lon": -71.075066, "distance_km": 4, "distance_mi": 2}, {"neighborhood": "Greenwood", "city": "Wakefield", "state": "MA", "country": "US", "id": "KMAWAKEF11", "lat": 42.477005, "lon": -71.067184, "distance_km": 5, "distance_mi": 3}, {"neighborhood": "AmeliaDam", "city": "Everett", "state": "MA", "country": "US", "id": "KMAEVERE2", "lat": 42.394878, "lon": -71.075539, "distance_km": 5, "distance_mi": 3}, {"neighborhood": "East Somerville", "city": "Boston", "state": "MA", "country": "US", "id": "KMABOSTO102", "lat": 42.389179, "lon": -71.083099, "distance_km": 6, "distance_mi": 3}, {"neighborhood": "Emerson St. Across from Police Station", "city": "Medford", "state": "MA", "country": "US", "id": "KMAMEDFO4", "lat": 42.415516, "lon": -71.111511, "distance_km": 6, "distance_mi": 3}, {"neighborhood": "Lawrence Estates Garden Society", "city": "Medford", "state": "MA", "country": "US", "id": "KMAMEDFO16", "lat": 42.426685, "lon": -71.118439, "distance_km": 6, "distance_mi": 3}, {"neighborhood": "Somerville", "city": "Medford", "state": "MA", "country": "US", "id": "KMAMEDFO29", "lat": 42.391888, "lon": -71.10038, "distance_km": 7, "distance_mi": 4}, {"neighborhood": "West Medford", "city": "Medford", "state": "MA", "country": "US", "id": "KMAMEDFO14", "lat": 42.426517, "lon": -71.123611, "distance_km": 7, "distance_mi": 4}, {"neighborhood": "Hillside", "city": "Medford", "state": "MA", "country": "US", "id": "KMAMEDFO34", "lat": 42.410072, "lon": -71.118439, "distance_km": 7, "distance_mi": 4}, {"neighborhood": "Tufts University", "city": "Medford", "state": "MA", "country": "US", "id": "KMAMEDFO17", "lat": 42.408577, "lon": -71.118286, "distance_km": 7, "distance_mi": 4}, {"neighborhood": "West Medford", "city": "Medford", "state": "MA", "country": "US", "id": "KMAMEDFO33", "lat": 42.42979, "lon": -71.130653, "distance_km": 7, "distance_mi": 4}, {"neighborhood": "Medford", "city": "Medford Hillside", "state": "MA", "country": "US", "id": "KMAMEDFO32", "lat": 42.417259, "lon": -71.132408, "distance_km": 7, "distance_mi": 4}, {"neighborhood": "Stoneham", "city": "Melrose", "state": "MA", "country": "US", "id": "KMAMELRO17", "lat": 42.461231, "lon": -71.07901, "distance_km": 4, "distance_mi": 2}]}}}, "current_observation": {"image": {"url": "http://icons.wxug.com/graphics/wu2/logo_130x80.png", "title": "Weather Underground", "link": "http://www.wunderground.com"}, "display_location": {"full": "Malden, MA", "city": "Malden", "state": "MA", "state_name": "Massachusetts", "country": "US", "country_iso3166": "US", "zip": "02148", "magic": "1", "wmo": "99999", "latitude": "42.435493", "longitude": "-71.038391", "elevation": "5.2"}, "observation_location": {"full": "Maplewood Sq @ MCC's, Malden, Massachusetts", "city": "Maplewood Sq @ MCC's, Malden", "state": "Massachusetts", "country": "US", "country_iso3166": "US", "latitude": "42.435493", "longitude": "-71.038391", "elevation": "46 ft"}, "estimated": {}, "station_id": "KMAMALDE6", "observation_time": "Last Updated on July 8, 11:59 AM EDT", "observation_time_rfc822": "Sat, 08 Jul 2017 11:59:51 -0400", "observation_epoch": "1499529591", "local_time_rfc822": "Sat, 08 Jul 2017 11:59:54 -0400", "local_epoch": "1499529594", "local_tz_short": "EDT", "local_tz_long": "America/New_York", "local_tz_offset": "-0400", "weather": "Mostly Cloudy", "temperature_string": "82.8 F (28.2 C)", "temp_f": 82.8, "temp_c": 28.2, "relative_humidity": "27%", "wind_string": "Calm", "wind_dir": "NW", "wind_degrees": 325, "wind_mph": 0.0, "wind_gust_mph": 0, "wind_kph": 0, "wind_gust_kph": 0, "pressure_mb": "1006", "pressure_in": "29.71", "pressure_trend": "-", "dewpoint_string": "46 F (8 C)", "dewpoint_f": 46, "dewpoint_c": 8, "heat_index_string": "81 F (27 C)", "heat_index_f": 81, "heat_index_c": 27, "windchill_string": "NA", "windchill_f": "NA", "windchill_c": "NA", "feelslike_string": "81 F (27 C)", "feelslike_f": "81", "feelslike_c": "27", "visibility_mi": "10.0", "visibility_km": "16.1", "solarradiation": "460", "UV": "4.0", "precip_1hr_string": "0.00 in ( 0 mm)", "precip_1hr_in": "0.00", "precip_1hr_metric": " 0", "precip_today_string": "0.00 in (0 mm)", "precip_today_in": "0.00", "precip_today_metric": "0", "icon": "mostlycloudy", "icon_url": "http://icons.wxug.com/i/c/k/mostlycloudy.gif", "forecast_url": "http://www.wunderground.com/US/MA/Malden.html", "history_url": "http://www.wunderground.com/weatherstation/WXDailyHistory.asp?ID=KMAMALDE6", "ob_url": "http://www.wunderground.com/cgi-bin/findweather/getForecast?query=42.435493,-71.038391", "nowcast": ""}, "forecast": {"txt_forecast": {"date": "11:00 AM EDT", "forecastday": [{"period": 0, "icon": "chancetstorms", "icon_url": "http://icons.wxug.com/i/c/k/chancetstorms.gif", "title": "Saturday", "fcttext": "Mostly cloudy this morning. Scattered thunderstorms developing this afternoon. A few storms may be severe. High 87F. Winds SW at 10 to 20 mph. Chance of rain 60%.", "fcttext_metric": "Mostly cloudy this morning. Scattered thunderstorms developing this afternoon. A few storms may be severe. High around 30C. Winds SW at 15 to 30 km/h. Chance of rain 60%.", "pop": "60"}, {"period": 1, "icon": "nt_partlycloudy", "icon_url": "http://icons.wxug.com/i/c/k/nt_partlycloudy.gif", "title": "Saturday Night", "fcttext": "A stray shower or thunderstorm is possible early. Partly cloudy skies. Low 64F. Winds W at 5 to 10 mph.", "fcttext_metric": "A stray shower or thunderstorm is possible early. Some passing clouds. Low 17C. Winds W at 10 to 15 km/h.", "pop": "20"}, {"period": 2, "icon": "clear", "icon_url": "http://icons.wxug.com/i/c/k/clear.gif", "title": "Sunday", "fcttext": "Mainly sunny. High 84F. Winds W at 10 to 15 mph.", "fcttext_metric": "Mainly sunny. High 28C. Winds W at 15 to 25 km/h.", "pop": "0"}, {"period": 3, "icon": "nt_clear", "icon_url": "http://icons.wxug.com/i/c/k/nt_clear.gif", "title": "Sunday Night", "fcttext": "Clear skies. Low 64F. Winds WSW at 10 to 15 mph.", "fcttext_metric": "Clear. Low 18C. Winds WSW at 10 to 15 km/h.", "pop": "0"}, {"period": 4, "icon": "clear", "icon_url": "http://icons.wxug.com/i/c/k/clear.gif", "title": "Monday", "fcttext": "Generally sunny despite a few afternoon clouds. High 87F. Winds SW at 10 to 15 mph.", "fcttext_metric": "Except for a few afternoon clouds, mainly sunny. High near 30C. Winds SW at 15 to 25 km/h.", "pop": "0"}, {"period": 5, "icon": "nt_partlycloudy", "icon_url": "http://icons.wxug.com/i/c/k/nt_partlycloudy.gif", "title": "Monday Night", "fcttext": "A few clouds from time to time. Low 68F. Winds SSW at 10 to 15 mph.", "fcttext_metric": "A few clouds from time to time. Low 19C. Winds SSW at 15 to 25 km/h.", "pop": "10"}, {"period": 6, "icon": "chancetstorms", "icon_url": "http://icons.wxug.com/i/c/k/chancetstorms.gif", "title": "Tuesday", "fcttext": "Mixed clouds and sun with scattered thunderstorms. High 86F. Winds SSW at 10 to 20 mph. Chance of rain 60%.", "fcttext_metric": "Scattered thunderstorms. High near 30C. Winds SSW at 15 to 30 km/h. Chance of rain 60%.", "pop": "60"}, {"period": 7, "icon": "nt_chancetstorms", "icon_url": "http://icons.wxug.com/i/c/k/nt_chancetstorms.gif", "title": "Tuesday Night", "fcttext": "Variable clouds with scattered thunderstorms. Low 69F. Winds WSW at 10 to 15 mph. Chance of rain 60%.", "fcttext_metric": "Mostly cloudy with showers and a few thunderstorms. Low near 20C. Winds WSW at 15 to 25 km/h. Chance of rain 60%.", "pop": "60"}]}, "simpleforecast": {"forecastday": [{"date": {"epoch": "1499554800", "pretty": "7:00 PM EDT on July 08, 2017", "day": 8, "month": 7, "year": 2017, "yday": 188, "hour": 19, "min": "00", "sec": 0, "isdst": "1", "monthname": "July", "monthname_short": "Jul", "weekday_short": "Sat", "weekday": "Saturday", "ampm": "PM", "tz_short": "EDT", "tz_long": "America/New_York"}, "period": 1, "high": {"fahrenheit": "87", "celsius": "31"}, "low": {"fahrenheit": "64", "celsius": "18"}, "conditions": "Chance of a Thunderstorm", "icon": "chancetstorms", "icon_url": "http://icons.wxug.com/i/c/k/chancetstorms.gif", "skyicon": "", "pop": 60, "qpf_allday": {"in": 0.18, "mm": 5}, "qpf_day": {"in": 0.17, "mm": 4}, "qpf_night": {"in": 0.0, "mm": 0}, "snow_allday": {"in": 0.0, "cm": 0.0}, "snow_day": {"in": 0.0, "cm": 0.0}, "snow_night": {"in": 0.0, "cm": 0.0}, "maxwind": {"mph": 20, "kph": 32, "dir": "SW", "degrees": 217}, "avewind": {"mph": 13, "kph": 21, "dir": "SW", "degrees": 217}, "avehumidity": 63, "maxhumidity": 0, "minhumidity": 0}, {"date": {"epoch": "1499641200", "pretty": "7:00 PM EDT on July 09, 2017", "day": 9, "month": 7, "year": 2017, "yday": 189, "hour": 19, "min": "00", "sec": 0, "isdst": "1", "monthname": "July", "monthname_short": "Jul", "weekday_short": "Sun", "weekday": "Sunday", "ampm": "PM", "tz_short": "EDT", "tz_long": "America/New_York"}, "period": 2, "high": {"fahrenheit": "84", "celsius": "29"}, "low": {"fahrenheit": "64", "celsius": "18"}, "conditions": "Clear", "icon": "clear", "icon_url": "http://icons.wxug.com/i/c/k/clear.gif", "skyicon": "", "pop": 0, "qpf_allday": {"in": 0.0, "mm": 0}, "qpf_day": {"in": 0.0, "mm": 0}, "qpf_night": {"in": 0.0, "mm": 0}, "snow_allday": {"in": 0.0, "cm": 0.0}, "snow_day": {"in": 0.0, "cm": 0.0}, "snow_night": {"in": 0.0, "cm": 0.0}, "maxwind": {"mph": 15, "kph": 24, "dir": "W", "degrees": 274}, "avewind": {"mph": 12, "kph": 19, "dir": "W", "degrees": 274}, "avehumidity": 45, "maxhumidity": 0, "minhumidity": 0}, {"date": {"epoch": "1499727600", "pretty": "7:00 PM EDT on July 10, 2017", "day": 10, "month": 7, "year": 2017, "yday": 190, "hour": 19, "min": "00", "sec": 0, "isdst": "1", "monthname": "July", "monthname_short": "Jul", "weekday_short": "Mon", "weekday": "Monday", "ampm": "PM", "tz_short": "EDT", "tz_long": "America/New_York"}, "period": 3, "high": {"fahrenheit": "87", "celsius": "31"}, "low": {"fahrenheit": "68", "celsius": "20"}, "conditions": "Clear", "icon": "clear", "icon_url": "http://icons.wxug.com/i/c/k/clear.gif", "skyicon": "", "pop": 0, "qpf_allday": {"in": 0.0, "mm": 0}, "qpf_day": {"in": 0.0, "mm": 0}, "qpf_night": {"in": 0.0, "mm": 0}, "snow_allday": {"in": 0.0, "cm": 0.0}, "snow_day": {"in": 0.0, "cm": 0.0}, "snow_night": {"in": 0.0, "cm": 0.0}, "maxwind": {"mph": 15, "kph": 24, "dir": "SW", "degrees": 222}, "avewind": {"mph": 12, "kph": 19, "dir": "SW", "degrees": 222}, "avehumidity": 45, "maxhumidity": 0, "minhumidity": 0}, {"date": {"epoch": "1499814000", "pretty": "7:00 PM EDT on July 11, 2017", "day": 11, "month": 7, "year": 2017, "yday": 191, "hour": 19, "min": "00", "sec": 0, "isdst": "1", "monthname": "July", "monthname_short": "Jul", "weekday_short": "Tue", "weekday": "Tuesday", "ampm": "PM", "tz_short": "EDT", "tz_long": "America/New_York"}, "period": 4, "high": {"fahrenheit": "86", "celsius": "30"}, "low": {"fahrenheit": "69", "celsius": "21"}, "conditions": "Chance of a Thunderstorm", "icon": "chancetstorms", "icon_url": "http://icons.wxug.com/i/c/k/chancetstorms.gif", "skyicon": "", "pop": 60, "qpf_allday": {"in": 0.25, "mm": 6}, "qpf_day": {"in": 0.18, "mm": 5}, "qpf_night": {"in": 0.07, "mm": 2}, "snow_allday": {"in": 0.0, "cm": 0.0}, "snow_day": {"in": 0.0, "cm": 0.0}, "snow_night": {"in": 0.0, "cm": 0.0}, "maxwind": {"mph": 20, "kph": 32, "dir": "SSW", "degrees": 211}, "avewind": {"mph": 14, "kph": 23, "dir": "SSW", "degrees": 211}, "avehumidity": 67, "maxhumidity": 0, "minhumidity": 0}]}}}, "Medford": {"response": {"version": "0.1", "termsofService": "http://www.wunderground.com/weather/api/d/terms.html", "features": {"forecast": 1, "geolookup": 1, "conditions": 1}}, "location": {"type": "CITY", "country": "US", "country_iso3166": "US", "country_name": "USA", "state": "MA", "city": "Medford", "tz_short": "EDT", "tz_long": "America/New_York", "lat": "42.415516", "lon": "-71.111511", "zip": "02155", "magic": "1", "wmo": "99999", "l": "/q/zmw:02155.1.99999", "requesturl": "US/MA/Medford.html", "wuiurl": "https://www.wunderground.com/US/MA/Medford.html", "nearby_weather_stations": {"airport": {"station": [{"city": "Boston", "state": "MA", "country": "US", "icao": "KBOS", "lat": "42.36000061", "lon": "-71.00000000"}, {"city": "Bedford", "state": "MA", "country": "US", "icao": "KBED", "lat": "42.47000122", "lon": "-71.29000092"}, {"city": "East Milton", "state": "MA", "country": "US", "icao": "KMQE", "lat": "42.20999908", "lon": "-71.11000061"}, {"city": "Beverly", "state": "MA", "country": "US", "icao": "KBVY", "lat": "42.58000183", "lon": "-70.91999817"}]}, "pws": {"station": [{"neighborhood": "Emerson St. Across from Police Station", "city": "Medford", "state": "MA", "country": "US", "id": "KMAMEDFO4", "lat": 42.415516, "lon": -71.111511, "distance_km": 0, "distance_mi": 0}, {"neighborhood": "Emerson St. Across from Police Station", "city": "Medford", "state": "MA", "country": "US", "id": "KMAMEDFO4", "lat": 42.415516, "lon": -71.111511, "distance_km": 0, "distance_mi": 0}, {"neighborhood": "Hillside", "city": "Medford", "state": "MA", "country": "US", "id": "KMAMEDFO34", "lat": 42.410072, "lon": -71.118439, "distance_km": 0, "distance_mi": 0}, {"neighborhood": "Tufts University", "city": "Medford", "state": "MA", "country": "US", "id": "KMAMEDFO17", "lat": 42.408577, "lon": -71.118286, "distance_km": 0, "distance_mi": 0}, {"neighborhood": "Lawrence Estates Garden Society", "city": "Medford", "state": "MA", "country": "US", "id": "KMAMEDFO16", "lat": 42.426685, "lon": -71.118439, "distance_km": 1, "distance_mi": 0}, {"neighborhood": "West Medford", "city": "Medford", "state": "MA", "country": "US", "id": "KMAMEDFO14", "lat": 42.426517, "lon": -71.123611, "distance_km": 1, "distance_mi": 0}, {"neighborhood": "West Somerville", "city": "Somerville", "state": "MA", "country": "US", "id": "KMASOMER51", "lat": 42.405933, "lon": -71.127815, "distance_km": 1, "distance_mi": 1}, {"neighborhood": "Medford", "city": "Medford Hillside", "state": "MA", "country": "US", "id": "KMAMEDFO32", "lat": 42.417259, "lon": -71.132408, "distance_km": 1, "distance_mi": 1}, {"neighborhood": "Tufts", "city": "Somerville", "state": "MA", "country": "US", "id": "KMASOMER44", "lat": 42.402313, "lon": -71.123253, "distance_km": 1, "distance_mi": 1}, {"neighborhood": "West Medford (Harvard/Boston Ave)", "city": "Medford", "state": "MA", "country": "US", "id": "KMAMEDFO30", "lat": 42.41848, "lon": -71.134476, "distance_km": 1, "distance_mi": 1}, {"neighborhood": "Davis Square in Somerville", "city": "Somerville", "state": "MA", "country": "US", "id": "KMASOMER48", "lat": 42.400345, "lon": -71.12281, "distance_km": 1, "distance_mi": 1}, {"neighborhood": "Somerville", "city": "Somerville", "state": "MA", "country": "US", "id": "KMASOMER53", "lat": 42.399235, "lon": -71.121704, "distance_km": 1, "distance_mi": 1}, {"neighborhood": "Murray Hill Rd, Medford", "city": "Medford", "state": "MA", "country": "US", "id": "KMAMEDFO28", "lat": 42.426556, "lon": -71.09063, "distance_km": 2, "distance_mi": 1}, {"neighborhood": "West Somerville, MA", "city": "Somerville", "state": "MA", "country": "US", "id": "KMASOMER60", "lat": 42.404793, "lon": -71.132713, "distance_km": 2, "distance_mi": 1}, {"neighborhood": "West Medford", "city": "Medford", "state": "MA", "country": "US", "id": "KMAMEDFO33", "lat": 42.42979, "lon": -71.130653, "distance_km": 2, "distance_mi": 1}, {"neighborhood": "Hancock Bike Path", "city": "Somerville", "state": "MA", "country": "US", "id": "KMASOMER61", "lat": 42.393936, "lon": -71.114845, "distance_km": 2, "distance_mi": 1}, {"neighborhood": "Edgeworth", "city": "Malden", "state": "MA", "country": "US", "id": "KMAMALDE15", "lat": 42.421875, "lon": -71.082962, "distance_km": 2, "distance_mi": 1}, {"neighborhood": "East Arlington", "city": "Arlington", "state": "MA", "country": "US", "id": "KMAARLIN4", "lat": 42.403801, "lon": -71.137604, "distance_km": 2, "distance_mi": 1}, {"neighborhood": "Albion", "city": "Somerville", "state": "MA", "country": "US", "id": "KMASOMER9", "lat": 42.391739, "lon": -71.112427, "distance_km": 2, "distance_mi": 1}, {"neighborhood": "East Arlington", "city": "Arlington", "state": "MA", "country": "US", "id": "KMAARLIN19", "lat": 42.414982, "lon": -71.144119, "distance_km": 2, "distance_mi": 1}, {"neighborhood": "Somerville", "city": "Medford", "state": "MA", "country": "US", "id": "KMAMEDFO29", "lat": 42.391888, "lon": -71.10038, "distance_km": 2, "distance_mi": 1}, {"neighborhood": "Arlington Center", "city": "Arlington", "state": "MA", "country": "US", "id": "KMAARLIN9", "lat": 42.414703, "lon": -71.148865, "distance_km": 3, "distance_mi": 1}, {"neighborhood": "Spring Hill", "city": "Somerville", "state": "MA", "country": "US", "id": "KMASOMER7", "lat": 42.387711, "lon": -71.109711, "distance_km": 3, "distance_mi": 1}, {"neighborhood": "Malden West End", "city": "Malden", "state": "MA", "country": "US", "id": "KMAMALDE9", "lat": 42.432465, "lon": -71.08107, "distance_km": 3, "distance_mi": 1}, {"neighborhood": "Porter Square", "city": "Cambridge", "state": "MA", "country": "US", "id": "KMACAMBR14", "lat": 42.387863, "lon": -71.124321, "distance_km": 3, "distance_mi": 1}, {"neighborhood": "Malden West", "city": "Malden", "state": "MA", "country": "US", "id": "KMAMALDE3", "lat": 42.426998, "lon": -71.074997, "distance_km": 3, "distance_mi": 1}, {"neighborhood": "Wedgemere", "city": "Winchester", "state": "MA", "country": "US", "id": "KMAWINCH52", "lat": 42.438446, "lon": -71.142197, "distance_km": 3, "distance_mi": 2}, {"neighborhood": "AmeliaDam", "city": "Everett", "state": "MA", "country": "US", "id": "KMAEVERE2", "lat": 42.394878, "lon": -71.075539, "distance_km": 3, "distance_mi": 2}, {"neighborhood": "Highland Ave Winchester", "city": "Winchester", "state": "MA", "country": "US", "id": "KMAWINCH55", "lat": 42.447369, "lon": -71.131042, "distance_km": 3, "distance_mi": 2}, {"neighborhood": "Grove Place", "city": "Winchester", "state": "MA", "country": "US", "id": "KMAWINCH42", "lat": 42.442928, "lon": -71.141022, "distance_km": 3, "distance_mi": 2}, {"neighborhood": "Oak Grove", "city": "Malden", "state": "MA", "country": "US", "id": "KMAMALDE11", "lat": 42.43713, "lon": -71.071281, "distance_km": 4, "distance_mi": 2}]}}}, "current_observation": {"image": {"url": "http://icons.wxug.com/graphics/wu2/logo_130x80.png", "title": "Weather Underground", "link": "http://www.wunderground.com"}, "display_location": {"full": "Medford, MA", "city": "Medford", "state": "MA", "state_name": "Massachusetts", "country": "US", "country_iso3166": "US", "zip": "02155", "magic": "1", "wmo": "99999", "latitude": "42.415516", "longitude": "-71.111511", "elevation": "27.1"}, "observation_location": {"full": "Emerson St. Across from Police Station, Medford, Massachusetts", "city": "Emerson St. Across from Police Station, Medford", "state": "Massachusetts", "country": "US", "country_iso3166": "US", "latitude": "42.415516", "longitude": "-71.111511", "elevation": "12 ft"}, "estimated": {}, "station_id": "KMAMEDFO4", "observation_time": "Last Updated on July 8, 11:59 AM EDT", "observation_time_rfc822": "Sat, 08 Jul 2017 11:59:52 -0400", "observation_epoch": "1499529592", "local_time_rfc822": "Sat, 08 Jul 2017 11:59:54 -0400", "local_epoch": "1499529594", "local_tz_short": "EDT", "local_tz_long": "America/New_York", "local_tz_offset": "-0400", "weather": "Partly Cloudy", "temperature_string": "80.9 F (27.2 C)", "temp_f": 80.9, "temp_c": 27.2, "relative_humidity": "82%", "wind_string": "From the SSW at 8.0 MPH Gusting to 12.0 MPH", "wind_dir": "SSW", "wind_degrees": 209, "wind_mph": 8.0, "wind_gust_mph": "12.0", "wind_kph": 12.9, "wind_gust_kph": "19.3", "pressure_mb": "1006", "pressure_in": "29.71", "pressure_trend": "-", "dewpoint_string": "75 F (24 C)", "dewpoint_f": 75, "dewpoint_c": 24, "heat_index_string": "87 F (30 C)", "heat_index_f": 87, "heat_index_c": 30, "windchill_string": "NA", "windchill_f": "NA", "windchill_c": "NA", "feelslike_string": "87 F (30 C)", "feelslike_f": "87", "feelslike_c": "30", "visibility_mi": "10.0", "visibility_km": "16.1", "solarradiation": "--", "UV": "9", "precip_1hr_string": "0.00 in ( 0 mm)", "precip_1hr_in": "0.00", "precip_1hr_metric": " 0", "precip_today_string": "0.00 in (0 mm)", "precip_today_in": "0.00", "precip_today_metric": "0", "icon": "partlycloudy", "icon_url": "http://icons.wxug.com/i/c/k/partlycloudy.gif", "forecast_url": "http://www.wunderground.com/US/MA/Medford.html", "history_url": "http://www.wunderground.com/weatherstation/WXDailyHistory.asp?ID=KMAMEDFO4", "ob_url": "http://www.wunderground.com/cgi-bin/findweather/getForecast?query=42.415516,-71.111511", "nowcast": ""}, "forecast": {"txt_forecast": {"date": "11:11 AM EDT", "forecastday": [{"period": 0, "icon": "chancetstorms", "icon_url": "http://icons.wxug.com/i/c/k/chancetstorms.gif", "title": "Saturday", "fcttext": "Partly to mostly cloudy with scattered showers and thunderstorms developing this afternoon. A few storms may be severe. High 87F. Winds SW at 10 to 20 mph. Chance of rain 60%.", "fcttext_metric": "Partly cloudy early followed by scattered thunderstorms this afternoon. A few storms may be severe. High 31C. Winds SW at 15 to 30 km/h. Chance of rain 60%.", "pop": "60"}, {"period": 1, "icon": "nt_partlycloudy", "icon_url": "http://icons.wxug.com/i/c/k/nt_partlycloudy.gif", "title": "Saturday Night", "fcttext": "A stray shower or thunderstorm is possible early. Some passing clouds. Low 63F. Winds W at 5 to 10 mph.", "fcttext_metric": "A stray shower or thunderstorm is possible early. Partly cloudy. Low 17C. Winds W at 10 to 15 km/h.", "pop": "20"}, {"period": 2, "icon": "clear", "icon_url": "http://icons.wxug.com/i/c/k/clear.gif", "title": "Sunday", "fcttext": "Sunny skies. High 84F. Winds W at 10 to 15 mph.", "fcttext_metric": "Sunny. High 29C. Winds W at 15 to 25 km/h.", "pop": "0"}, {"period": 3, "icon": "nt_clear", "icon_url": "http://icons.wxug.com/i/c/k/nt_clear.gif", "title": "Sunday Night", "fcttext": "Clear skies. Low 64F. Winds WSW at 10 to 15 mph.", "fcttext_metric": "Clear skies. Low 18C. Winds WSW at 10 to 15 km/h.", "pop": "0"}, {"period": 4, "icon": "clear", "icon_url": "http://icons.wxug.com/i/c/k/clear.gif", "title": "Monday", "fcttext": "Sunny, along with a few afternoon clouds. High 88F. Winds SW at 10 to 20 mph.", "fcttext_metric": "Sunny, along with a few afternoon clouds. High 31C. Winds SW at 15 to 30 km/h.", "pop": "0"}, {"period": 5, "icon": "nt_partlycloudy", "icon_url": "http://icons.wxug.com/i/c/k/nt_partlycloudy.gif", "title": "Monday Night", "fcttext": "A few clouds. Low 67F. Winds SSW at 10 to 20 mph.", "fcttext_metric": "A few clouds. Low around 20C. Winds SSW at 15 to 25 km/h.", "pop": "10"}, {"period": 6, "icon": "chancetstorms", "icon_url": "http://icons.wxug.com/i/c/k/chancetstorms.gif", "title": "Tuesday", "fcttext": "Cloudy skies during the morning hours followed by scattered showers and thunderstorms in the afternoon. High 87F. Winds SSW at 10 to 20 mph. Chance of rain 60%.", "fcttext_metric": "Scattered thunderstorms developing during the afternoon. High around 30C. Winds SSW at 15 to 30 km/h. Chance of rain 60%.", "pop": "60"}, {"period": 7, "icon": "nt_chancetstorms", "icon_url": "http://icons.wxug.com/i/c/k/nt_chancetstorms.gif", "title": "Tuesday Night", "fcttext": "Scattered showers and thunderstorms. Low 69F. Winds WSW at 10 to 20 mph. Chance of rain 60%.", "fcttext_metric": "Variably cloudy with scattered thunderstorms. Low 21C. Winds WSW at 15 to 30 km/h. Chance of rain 60%.", "pop": "60"}]}, "simpleforecast": {"forecastday": [{"date": {"epoch": "1499554800", "pretty": "7:00 PM EDT on July 08, 2017", "day": 8, "month": 7, "year": 2017, "yday": 188, "hour": 19, "min": "00", "sec": 0, "isdst": "1", "monthname": "July", "monthname_short": "Jul", "weekday_short": "Sat", "weekday": "Saturday", "ampm": "PM", "tz_short": "EDT", "tz_long": "America/New_York"}, "period": 1, "high": {"fahrenheit": "87", "celsius": "31"}, "low": {"fahrenheit": "63", "celsius": "17"}, "conditions": "Chance of a Thunderstorm", "icon": "chancetstorms", "icon_url": "http://icons.wxug.com/i/c/k/chancetstorms.gif", "skyicon": "", "pop": 60, "qpf_allday": {"in": 0.5, "mm": 13}, "qpf_day": {"in": 0.5, "mm": 13}, "qpf_night": {"in": 0.0, "mm": 0}, "snow_allday": {"in": 0.0, "cm": 0.0}, "snow_day": {"in": 0.0, "cm": 0.0}, "snow_night": {"in": 0.0, "cm": 0.0}, "maxwind": {"mph": 20, "kph": 32, "dir": "SW", "degrees": 224}, "avewind": {"mph": 14, "kph": 23, "dir": "SW", "degrees": 224}, "avehumidity": 59, "maxhumidity": 0, "minhumidity": 0}, {"date": {"epoch": "1499641200", "pretty": "7:00 PM EDT on July 09, 2017", "day": 9, "month": 7, "year": 2017, "yday": 189, "hour": 19, "min": "00", "sec": 0, "isdst": "1", "monthname": "July", "monthname_short": "Jul", "weekday_short": "Sun", "weekday": "Sunday", "ampm": "PM", "tz_short": "EDT", "tz_long": "America/New_York"}, "period": 2, "high": {"fahrenheit": "84", "celsius": "29"}, "low": {"fahrenheit": "64", "celsius": "18"}, "conditions": "Clear", "icon": "clear", "icon_url": "http://icons.wxug.com/i/c/k/clear.gif", "skyicon": "", "pop": 0, "qpf_allday": {"in": 0.0, "mm": 0}, "qpf_day": {"in": 0.0, "mm": 0}, "qpf_night": {"in": 0.0, "mm": 0}, "snow_allday": {"in": 0.0, "cm": 0.0}, "snow_day": {"in": 0.0, "cm": 0.0}, "snow_night": {"in": 0.0, "cm": 0.0}, "maxwind": {"mph": 15, "kph": 24, "dir": "W", "degrees": 273}, "avewind": {"mph": 12, "kph": 19, "dir": "W", "degrees": 273}, "avehumidity": 43, "maxhumidity": 0, "minhumidity": 0}, {"date": {"epoch": "1499727600", "pretty": "7:00 PM EDT on July 10, 2017", "day": 10, "month": 7, "year": 2017, "yday": 190, "hour": 19, "min": "00", "sec": 0, "isdst": "1", "monthname": "July", "monthname_short": "Jul", "weekday_short": "Mon", "weekday": "Monday", "ampm": "PM", "tz_short": "EDT", "tz_long": "America/New_York"}, "period": 3, "high": {"fahrenheit": "88", "celsius": "31"}, "low": {"fahrenheit": "67", "celsius": "19"}, "conditions": "Clear", "icon": "clear", "icon_url": "http://icons.wxug.com/i/c/k/clear.gif", "skyicon": "", "pop": 0, "qpf_allday": {"in": 0.0, "mm": 0}, "qpf_day": {"in": 0.0, "mm": 0}, "qpf_night": {"in": 0.0, "mm": 0}, "snow_allday": {"in": 0.0, "cm": 0.0}, "snow_day": {"in": 0.0, "cm": 0.0}, "snow_night": {"in": 0.0, "cm": 0.0}, "maxwind": {"mph": 20, "kph": 32, "dir": "SW", "degrees": 226}, "avewind": {"mph": 13, "kph": 21, "dir": "SW", "degrees": 226}, "avehumidity": 43, "maxhumidity": 0, "minhumidity": 0}, {"date": {"epoch": "1499814000", "pretty": "7:00 PM EDT on July 11, 2017", "day": 11, "month": 7, "year": 2017, "yday": 191, "hour": 19, "min": "00", "sec": 0, "isdst": "1", "monthname": "July", "monthname_short": "Jul", "weekday_short": "Tue", "weekday": "Tuesday", "ampm": "PM", "tz_short": "EDT", "tz_long": "America/New_York"}, "period": 4, "high": {"fahrenheit": "87", "celsius": "31"}, "low": {"fahrenheit": "69", "celsius": "21"}, "conditions": "Chance of a Thunderstorm", "icon": "chancetstorms", "icon_url": "http://icons.wxug.com/i/c/k/chancetstorms.gif", "skyicon": "", "pop": 60, "qpf_allday": {"in": 0.22, "mm": 6}, "qpf_day": {"in": 0.12, "mm": 3}, "qpf_night": {"in": 0.1, "mm": 3}, "snow_allday": {"in": 0.0, "cm": 0.0}, "snow_day": {"in": 0.0, "cm": 0.0}, "snow_night": {"in": 0.0, "cm": 0.0}, "maxwind": {"mph": 20, "kph": 32, "dir": "SSW", "degrees": 213}, "avewind": {"mph": 15, "kph": 24, "dir": "SSW", "degrees": 213}, "avehumidity": 65, "maxhumidity": 0, "minhumidity": 0}]}}}, "Waban": {"response": {"version": "0.1", "termsofService": "http://www.wunderground.com/weather/api/d/terms.html", "features": {"forecast": 1, "geolookup": 1, "conditions": 1}}, "location": {"type": "CITY", "country": "US", "country_iso3166": "US", "country_name": "USA", "state": "MA", "city": "Waban", "tz_short": "EDT", "tz_long": "America/New_York", "lat": "42.331001", "lon": "-71.224998", "zip": "02468", "magic": "1", "wmo": "99999", "l": "/q/zmw:02468.1.99999", "requesturl": "US/MA/Waban.html", "wuiurl": "https://www.wunderground.com/US/MA/Waban.html", "nearby_weather_stations": {"airport": {"station": [{"city": "Norwood", "state": "MA", "country": "US", "icao": "KOWD", "lat": "42.18999863", "lon": "-71.16999817"}, {"city": "East Milton", "state": "MA", "country": "US", "icao": "KMQE", "lat": "42.20999908", "lon": "-71.11000061"}, {"city": "Bedford", "state": "MA", "country": "US", "icao": "KBED", "lat": "42.47000122", "lon": "-71.29000092"}, {"city": "Boston", "state": "MA", "country": "US", "icao": "KBOS", "lat": "42.36000061", "lon": "-71.00000000"}]}, "pws": {"station": [{"neighborhood": "Waban MA", "city": "Waban", "state": "MA", "country": "US", "id": "KMAWABAN1", "lat": 42.331001, "lon": -71.224998, "distance_km": 0, "distance_mi": 0}, {"neighborhood": "Waban MA", "city": "Waban", "state": "MA", "country": "US", "id": "KMAWABAN1", "lat": 42.331001, "lon": -71.224998, "distance_km": 0, "distance_mi": 0}, {"neighborhood": "Waban/NewtonHighlands", "city": "Waban", "state": "MA", "country": "US", "id": "KMAWABAN2", "lat": 42.323822, "lon": -71.220444, "distance_km": 0, "distance_mi": 0}, {"neighborhood": "West Newton", "city": "Newton", "state": "MA", "country": "US", "id": "KMANEWTO14", "lat": 42.345531, "lon": -71.221031, "distance_km": 1, "distance_mi": 0}, {"neighborhood": "West Newton", "city": "Newton", "state": "MA", "country": "US", "id": "KMANEWTO10", "lat": 42.346039, "lon": -71.223694, "distance_km": 1, "distance_mi": 1}, {"neighborhood": "Newton Centre", "city": "Newton", "state": "MA", "country": "US", "id": "KMANEWTO42", "lat": 42.33532, "lon": -71.202316, "distance_km": 1, "distance_mi": 1}, {"neighborhood": "Newton Centre", "city": "Newton", "state": "MA", "country": "US", "id": "KMANEWTO37", "lat": 42.334751, "lon": -71.201584, "distance_km": 1, "distance_mi": 1}, {"neighborhood": "Newton Centre", "city": "Newton", "state": "MA", "country": "US", "id": "KMANEWTO33", "lat": 42.330555, "lon": -71.200851, "distance_km": 1, "distance_mi": 1}, {"neighborhood": "Newton Upper Falls", "city": "Newton", "state": "MA", "country": "US", "id": "KMANEWTO41", "lat": 42.312721, "lon": -71.21769, "distance_km": 2, "distance_mi": 1}, {"neighborhood": "West Newton", "city": "Waltham", "state": "MA", "country": "US", "id": "KMAWALTH15", "lat": 42.3512, "lon": -71.23053, "distance_km": 2, "distance_mi": 1}, {"neighborhood": "Newton Lower Falls", "city": "Wellesley", "state": "MA", "country": "US", "id": "KMAWELLE25", "lat": 42.327778, "lon": -71.25679, "distance_km": 2, "distance_mi": 1}, {"neighborhood": "Newtonville", "city": "Newton", "state": "MA", "country": "US", "id": "KMANEWTO11", "lat": 42.353699, "lon": -71.211639, "distance_km": 2, "distance_mi": 1}, {"neighborhood": "Newton Centre", "city": "Newton", "state": "MA", "country": "US", "id": "KMANEWTO12", "lat": 42.331764, "lon": -71.189774, "distance_km": 2, "distance_mi": 1}, {"neighborhood": "Newton Centre", "city": "Newton", "state": "MA", "country": "US", "id": "KMANEWTO35", "lat": 42.313511, "lon": -71.194786, "distance_km": 3, "distance_mi": 1}, {"neighborhood": "West Newton", "city": "Waltham", "state": "MA", "country": "US", "id": "KMAWALTH11", "lat": 42.360397, "lon": -71.229828, "distance_km": 3, "distance_mi": 1}, {"neighborhood": "Newton Centre", "city": "Newton", "state": "MA", "country": "US", "id": "KMANEWTO16", "lat": 42.332993, "lon": -71.182465, "distance_km": 3, "distance_mi": 2}, {"neighborhood": "Wellesley Standish", "city": "Wellesley", "state": "MA", "country": "US", "id": "KMAWELLE23", "lat": 42.309853, "lon": -71.25798, "distance_km": 3, "distance_mi": 2}, {"neighborhood": "Chestnut Hill", "city": "Chestnut Hill", "state": "MA", "country": "US", "id": "KMACHEST3", "lat": 42.333607, "lon": -71.181183, "distance_km": 3, "distance_mi": 2}, {"neighborhood": "Village Circle", "city": "Newton", "state": "MA", "country": "US", "id": "KMANEWTO29", "lat": 42.306908, "lon": -71.188835, "distance_km": 4, "distance_mi": 2}, {"neighborhood": "South Waltham", "city": "Waltham", "state": "MA", "country": "US", "id": "KMAWALTH9", "lat": 42.368469, "lon": -71.231201, "distance_km": 4, "distance_mi": 2}, {"neighborhood": "Watertown", "city": "Newton", "state": "MA", "country": "US", "id": "KMANEWTO43", "lat": 42.367809, "lon": -71.211395, "distance_km": 4, "distance_mi": 2}, {"neighborhood": "Sky View Circle", "city": "Newton", "state": "MA", "country": "US", "id": "KMANEWTO19", "lat": 42.304619, "lon": -71.185776, "distance_km": 4, "distance_mi": 2}, {"neighborhood": "Bleachery", "city": "Waltham", "state": "MA", "country": "US", "id": "KMAWALTH32", "lat": 42.371117, "lon": -71.223206, "distance_km": 4, "distance_mi": 2}, {"neighborhood": "Nardell Road", "city": "Boston", "state": "MA", "country": "US", "id": "KMABOSTO114", "lat": 42.309151, "lon": -71.178581, "distance_km": 4, "distance_mi": 2}, {"neighborhood": "Boston College WeatherSTEM", "city": "Boston", "state": "MA", "country": "US", "id": "KMABOSTO137", "lat": 42.334755, "lon": -71.170204, "distance_km": 4, "distance_mi": 2}, {"neighborhood": "Weston", "city": "Weston", "state": "MA", "country": "US", "id": "KMAWESTO11", "lat": 42.354088, "lon": -71.272064, "distance_km": 4, "distance_mi": 2}, {"neighborhood": "The Chemistry", "city": "Waltham", "state": "MA", "country": "US", "id": "KMAWALTH18", "lat": 42.37215, "lon": -71.237312, "distance_km": 4, "distance_mi": 2}, {"neighborhood": "Ober Road", "city": "Newton", "state": "MA", "country": "US", "id": "KMANEWTO13", "lat": 42.300735, "lon": -71.184532, "distance_km": 4, "distance_mi": 2}, {"neighborhood": "Newton Corner", "city": "Newton", "state": "MA", "country": "US", "id": "KMANEWTO44", "lat": 42.355659, "lon": -71.174316, "distance_km": 4, "distance_mi": 2}, {"neighborhood": "Needham", "city": "Needham Heights", "state": "MA", "country": "US", "id": "KMANEEDH15", "lat": 42.285793, "lon": -71.219376, "distance_km": 5, "distance_mi": 3}, {"neighborhood": "Webster Street", "city": "Needham", "state": "MA", "country": "US", "id": "KMANEEDH10", "lat": 42.284428, "lon": -71.229385, "distance_km": 5, "distance_mi": 3}]}}}, "current_observation": {"image": {"url": "http://icons.wxug.com/graphics/wu2/logo_130x80.png", "title": "Weather Underground", "link": "http://www.wunderground.com"}, "display_location": {"full": "Waban, MA", "city": "Waban", "state": "MA", "state_name": "Massachusetts", "country": "US", "country_iso3166": "US", "zip": "02468", "magic": "1", "wmo": "99999", "latitude": "42.331001", "longitude": "-71.224998", "elevation": "37.5"}, "observation_location": {"full": "Waban MA, Waban, Massachusetts", "city": "Waban MA, Waban", "state": "Massachusetts", "country": "US", "country_iso3166": "US", "latitude": "42.331001", "longitude": "-71.224998", "elevation": "142 ft"}, "estimated": {}, "station_id": "KMAWABAN1", "observation_time": "Last Updated on July 8, 11:59 AM EDT", "observation_time_rfc822": "Sat, 08 Jul 2017 11:59:54 -0400", "observation_epoch": "1499529594", "local_time_rfc822": "Sat, 08 Jul 2017 11:59:55 -0400", "local_epoch": "1499529595", "local_tz_short": "EDT", "local_tz_long": "America/New_York", "local_tz_offset": "-0400", "weather": "Partly Cloudy", "temperature_string": "81.3 F (27.4 C)", "temp_f": 81.3, "temp_c": 27.4, "relative_humidity": "75%", "wind_string": "Calm", "wind_dir": "North", "wind_degrees": 11, "wind_mph": 0.0, "wind_gust_mph": "3.0", "wind_kph": 0, "wind_gust_kph": "4.8", "pressure_mb": "1006", "pressure_in": "29.72", "pressure_trend": "0", "dewpoint_string": "73 F (23 C)", "dewpoint_f": 73, "dewpoint_c": 23, "heat_index_string": "86 F (30 C)", "heat_index_f": 86, "heat_index_c": 30, "windchill_string": "NA", "windchill_f": "NA", "windchill_c": "NA", "feelslike_string": "86 F (30 C)", "feelslike_f": "86", "feelslike_c": "30", "visibility_mi": "10.0", "visibility_km": "16.1", "solarradiation": "--", "UV": "6", "precip_1hr_string": "0.00 in ( 0 mm)", "precip_1hr_in": "0.00", "precip_1hr_metric": " 0", "precip_today_string": "0.00 in (0 mm)", "precip_today_in": "0.00", "precip_today_metric": "0", "icon": "partlycloudy", "icon_url": "http://icons.wxug.com/i/c/k/partlycloudy.gif", "forecast_url": "http://www.wunderground.com/US/MA/Waban.html", "history_url": "http://www.wunderground.com/weatherstation/WXDailyHistory.asp?ID=KMAWABAN1", "ob_url": "http://www.wunderground.com/cgi-bin/findweather/getForecast?query=42.331001,-71.224998", "nowcast": ""}, "forecast": {"txt_forecast": {"date": "10:29 AM EDT", "forecastday": [{"period": 0, "icon": "chancetstorms", "icon_url": "http://icons.wxug.com/i/c/k/chancetstorms.gif", "title": "Saturday", "fcttext": "Partial cloudiness early, with scattered showers and thunderstorms during the afternoon. A few storms may be severe. High 87F. Winds SW at 10 to 20 mph. Chance of rain 60%.", "fcttext_metric": "Partly to mostly cloudy with scattered showers and thunderstorms this afternoon. A few storms may be severe. High around 30C. Winds SW at 15 to 30 km/h. Chance of rain 60%.", "pop": "60"}, {"period": 1, "icon": "nt_partlycloudy", "icon_url": "http://icons.wxug.com/i/c/k/nt_partlycloudy.gif", "title": "Saturday Night", "fcttext": "A stray shower or thunderstorm is possible early. Partly cloudy. Low 62F. Winds W at 5 to 10 mph.", "fcttext_metric": "A stray shower or thunderstorm is possible early. Partly cloudy skies. Low 16C. Winds W at 10 to 15 km/h.", "pop": "20"}, {"period": 2, "icon": "clear", "icon_url": "http://icons.wxug.com/i/c/k/clear.gif", "title": "Sunday", "fcttext": "Mainly sunny. High 84F. Winds W at 10 to 15 mph.", "fcttext_metric": "Sunny. High 29C. Winds W at 15 to 25 km/h.", "pop": "0"}, {"period": 3, "icon": "nt_clear", "icon_url": "http://icons.wxug.com/i/c/k/nt_clear.gif", "title": "Sunday Night", "fcttext": "Clear skies. Low 61F. Winds WSW at 5 to 10 mph.", "fcttext_metric": "Clear skies. Low 16C. Winds WSW at 10 to 15 km/h.", "pop": "0"}, {"period": 4, "icon": "clear", "icon_url": "http://icons.wxug.com/i/c/k/clear.gif", "title": "Monday", "fcttext": "Generally sunny despite a few afternoon clouds. High 87F. Winds SW at 10 to 15 mph.", "fcttext_metric": "Except for a few afternoon clouds, mainly sunny. High 31C. Winds SW at 15 to 25 km/h.", "pop": "0"}, {"period": 5, "icon": "nt_partlycloudy", "icon_url": "http://icons.wxug.com/i/c/k/nt_partlycloudy.gif", "title": "Monday Night", "fcttext": "A few clouds from time to time. Low 66F. Winds SSW at 10 to 15 mph.", "fcttext_metric": "Partly cloudy. Low 19C. Winds SSW at 15 to 25 km/h.", "pop": "10"}, {"period": 6, "icon": "chancetstorms", "icon_url": "http://icons.wxug.com/i/c/k/chancetstorms.gif", "title": "Tuesday", "fcttext": "Scattered thunderstorms. High 86F. Winds SW at 10 to 20 mph. Chance of rain 60%.", "fcttext_metric": "Variable clouds with scattered thunderstorms. High near 30C. Winds SW at 15 to 30 km/h. Chance of rain 60%.", "pop": "60"}, {"period": 7, "icon": "nt_chancetstorms", "icon_url": "http://icons.wxug.com/i/c/k/nt_chancetstorms.gif", "title": "Tuesday Night", "fcttext": "Variable clouds with scattered thunderstorms. Low 68F. Winds WSW at 10 to 15 mph. Chance of rain 60%.", "fcttext_metric": "Variably cloudy with scattered thunderstorms. Low around 20C. Winds WSW at 15 to 25 km/h. Chance of rain 60%.", "pop": "60"}]}, "simpleforecast": {"forecastday": [{"date": {"epoch": "1499554800", "pretty": "7:00 PM EDT on July 08, 2017", "day": 8, "month": 7, "year": 2017, "yday": 188, "hour": 19, "min": "00", "sec": 0, "isdst": "1", "monthname": "July", "monthname_short": "Jul", "weekday_short": "Sat", "weekday": "Saturday", "ampm": "PM", "tz_short": "EDT", "tz_long": "America/New_York"}, "period": 1, "high": {"fahrenheit": "87", "celsius": "31"}, "low": {"fahrenheit": "62", "celsius": "17"}, "conditions": "Chance of a Thunderstorm", "icon": "chancetstorms", "icon_url": "http://icons.wxug.com/i/c/k/chancetstorms.gif", "skyicon": "", "pop": 60, "qpf_allday": {"in": 0.2, "mm": 5}, "qpf_day": {"in": 0.18, "mm": 5}, "qpf_night": {"in": 0.0, "mm": 0}, "snow_allday": {"in": 0.0, "cm": 0.0}, "snow_day": {"in": 0.0, "cm": 0.0}, "snow_night": {"in": 0.0, "cm": 0.0}, "maxwind": {"mph": 20, "kph": 32, "dir": "SW", "degrees": 227}, "avewind": {"mph": 13, "kph": 21, "dir": "SW", "degrees": 227}, "avehumidity": 61, "maxhumidity": 0, "minhumidity": 0}, {"date": {"epoch": "1499641200", "pretty": "7:00 PM EDT on July 09, 2017", "day": 9, "month": 7, "year": 2017, "yday": 189, "hour": 19, "min": "00", "sec": 0, "isdst": "1", "monthname": "July", "monthname_short": "Jul", "weekday_short": "Sun", "weekday": "Sunday", "ampm": "PM", "tz_short": "EDT", "tz_long": "America/New_York"}, "period": 2, "high": {"fahrenheit": "84", "celsius": "29"}, "low": {"fahrenheit": "61", "celsius": "16"}, "conditions": "Clear", "icon": "clear", "icon_url": "http://icons.wxug.com/i/c/k/clear.gif", "skyicon": "", "pop": 0, "qpf_allday": {"in": 0.0, "mm": 0}, "qpf_day": {"in": 0.0, "mm": 0}, "qpf_night": {"in": 0.0, "mm": 0}, "snow_allday": {"in": 0.0, "cm": 0.0}, "snow_day": {"in": 0.0, "cm": 0.0}, "snow_night": {"in": 0.0, "cm": 0.0}, "maxwind": {"mph": 15, "kph": 24, "dir": "W", "degrees": 277}, "avewind": {"mph": 11, "kph": 18, "dir": "W", "degrees": 277}, "avehumidity": 43, "maxhumidity": 0, "minhumidity": 0}, {"date": {"epoch": "1499727600", "pretty": "7:00 PM EDT on July 10, 2017", "day": 10, "month": 7, "year": 2017, "yday": 190, "hour": 19, "min": "00", "sec": 0, "isdst": "1", "monthname": "July", "monthname_short": "Jul", "weekday_short": "Mon", "weekday": "Monday", "ampm": "PM", "tz_short": "EDT", "tz_long": "America/New_York"}, "period": 3, "high": {"fahrenheit": "87", "celsius": "31"}, "low": {"fahrenheit": "66", "celsius": "19"}, "conditions": "Clear", "icon": "clear", "icon_url": "http://icons.wxug.com/i/c/k/clear.gif", "skyicon": "", "pop": 0, "qpf_allday": {"in": 0.0, "mm": 0}, "qpf_day": {"in": 0.0, "mm": 0}, "qpf_night": {"in": 0.0, "mm": 0}, "snow_allday": {"in": 0.0, "cm": 0.0}, "snow_day": {"in": 0.0, "cm": 0.0}, "snow_night": {"in": 0.0, "cm": 0.0}, "maxwind": {"mph": 15, "kph": 24, "dir": "SW", "degrees": 226}, "avewind": {"mph": 12, "kph": 19, "dir": "SW", "degrees": 226}, "avehumidity": 43, "maxhumidity": 0, "minhumidity": 0}, {"date": {"epoch": "1499814000", "pretty": "7:00 PM EDT on July 11, 2017", "day": 11, "month": 7, "year": 2017, "yday": 191, "hour": 19, "min": "00", "sec": 0, "isdst": "1", "monthname": "July", "monthname_short": "Jul", "weekday_short": "Tue", "weekday": "Tuesday", "ampm": "PM", "tz_short": "EDT", "tz_long": "America/New_York"}, "period": 4, "high": {"fahrenheit": "86", "celsius": "30"}, "low": {"fahrenheit": "68", "celsius": "20"}, "conditions": "Chance of a Thunderstorm", "icon": "chancetstorms", "icon_url": "http://icons.wxug.com/i/c/k/chancetstorms.gif", "skyicon": "", "pop": 60, "qpf_allday": {"in": 0.2, "mm": 5}, "qpf_day": {"in": 0.12, "mm": 3}, "qpf_night": {"in": 0.08, "mm": 2}, "snow_allday": {"in": 0.0, "cm": 0.0}, "snow_day": {"in": 0.0, "cm": 0.0}, "snow_night": {"in": 0.0, "cm": 0.0}, "maxwind": {"mph": 20, "kph": 32, "dir": "SW", "degrees": 214}, "avewind": {"mph": 14, "kph": 23, "dir": "SW", "degrees": 214}, "avehumidity": 66, "maxhumidity": 0, "minhumidity": 0}]}}}}}